[{"name":"Mr Chorizo \u0026 Parilliada","vote":"14","reviews":"14","address":"688 Horsley Drive, Smithfield, SydneySmithfield","city":"Sydney","latitude":-33.8534432733,"longitude":150.9393127263,"price_range":25.0,"rating":3.7,"cuisine_string":["Uruguayan"],"photo":"https://b.zmtcdn.com/data/res_imagery/15544977_RESTAURANT_059fab943383f7105dcb330c7fbe0f35.jpg?fit=around%7C1200%3A464\u0026crop=1200%3A464%3B0%2C0","locality":"Smithfield"},{"name":"Gotcha Fresh Tea","vote":"23","reviews":"23","address":"Shop 3, 117 Liverpool Street, CBD, SydneyCBD","city":"Sydney","latitude":-33.8774813735,"longitude":151.2076667324,"price_range":7.5,"rating":4.1,"cuisine_string":["Bubble Tea"],"photo":"https://b.zmtcdn.com/data/pictures/1/19097461/251217ef5b848fda300999ee92b6a7f1.jpg?resize=1204%3A641\u0026crop=1200%3A464%3B0%2C160","locality":"CBD"},{"name":"Ottimo Italian Kitchen","vote":"50","reviews":"50","address":"35 Alexandra Street, Hunters Hill, SydneyHunters HillNSW","city":"Sydney","latitude":-33.8351573148,"longitude":151.1556516588,"price_range":35.0,"rating":3.8,"cuisine_string":["Italian"],"photo":"https://b.zmtcdn.com/data/res_imagery/16566139_CHAIN_abb5b055b868dfc3ca731b59622c38b1.jpg?fit=around%7C1200%3A464\u0026crop=1200%3A464%3B0%2C0","locality":"Hunters Hill"},{"name":"Hannibal Lebanese Restaurant","vote":"32","reviews":"32","address":"95-97 Glebe Point Road, Glebe, SydneyGlebe","city":"Sydney","latitude":-33.8823658385,"longitude":151.1902270094,"price_range":30.0,"rating":2.7,"cuisine_string":["Middle Eastern","Lebanese","Vegetarian"],"photo":"https://b.zmtcdn.com/data/reviews_photos/4d5/f1b6d97b59ffa36347ff02af5ba214d5_1450155304.jpg?fit=around%7C1200%3A464\u0026crop=1200%3A464%3B%2A%2C%2A","locality":"Glebe"},{"name":"Flying Tong","vote":"28","reviews":"28","address":"99 Newtown Road, Newtown, SydneyNewtownNSW","city":"Sydney","latitude":-33.89865112,"longitude":151.174342297,"price_range":15.0,"rating":3.8,"cuisine_string":["Korean","Fried Chicken"],"photo":"https://b.zmtcdn.com/data/res_imagery/18457247_RESTAURANT_c8c6643ebd4d5eec34554d13a43809ac.jpg?fit=around%7C1200%3A464\u0026crop=1200%3A464%3B0%2C0","locality":"Newtown"},{"name":"Ralph's Cafe","vote":"33","reviews":"33","address":"The Arena Sports Centre, The University of Sydney, A30 Western Avenue And Physics Road, Camperdown, SydneyCamperdownNSW","city":"Sydney","latitude":-33.8876009908,"longitude":151.1862161011,"price_range":17.5,"rating":4.0,"cuisine_string":["Italian","Cafe Food","Coffee and Tea"],"photo":"https://b.zmtcdn.com/data/res_imagery/16569361_RESTAURANT_4022de95f70123a93d9a38d5dfba22c8.jpg?fit=around%7C1200%3A464\u0026crop=1200%3A464%3B0%2C0","locality":"Camperdown"},{"name":"The Bondi Surf Seafoods","vote":"36","reviews":"36","address":"128 Campbell Parade, Bondi Beach, SydneyBondi Beach","city":"Sydney","latitude":-33.8910326538,"longitude":151.2740239129,"price_range":17.5,"rating":3.7,"cuisine_string":["Seafood"],"photo":"https://b.zmtcdn.com/data/res_imagery/16564884_RESTAURANT_1fff5e277476e8d5758bc56e5e0c0dd2_c.jpg?fit=around%7C1200%3A464\u0026crop=1200%3A464%3B0%2C0","locality":"Bondi Beach"},{"name":"Ni Hao Chinese Cuisine","vote":"31","reviews":"31","address":"46 Harris Street, \tPyrmontPyrmont","city":"Sydney","latitude":-33.8666743225,"longitude":151.192323491,"price_range":22.5,"rating":3.4,"cuisine_string":["Chinese"],"photo":"https://b.zmtcdn.com/data/res_imagery/16566758_RESTAURANT_8e1d7559c1952c3ab7bfb84f0ca420d3.jpg?fit=around%7C1200%3A464\u0026crop=1200%3A464%3B0%2C0","locality":"Pyrmont"},{"name":"Skandel's Country Gourmet Pizza","vote":"22","reviews":"22","address":"130 Belmore Road , RandwickRandwick","city":"Sydney","latitude":-33.9160882357,"longitude":151.2405730784,"price_range":20.0,"rating":3.8,"cuisine_string":["Italian","Pizza"],"photo":"https://b.zmtcdn.com/data/res_imagery/16560763_RESTAURANT_85e36b07a150c75c17b827d6778ae1ed.jpg?fit=around%7C1200%3A464\u0026crop=1200%3A464%3B0%2C0","locality":"Randwick"},{"name":"Cafe at Lewers","vote":"35","reviews":"35","address":"86 River Road, Emu Plains, Penrith, SydneyEmu PlainsNSW","city":"Sydney","latitude":-33.7583189802,"longitude":150.6646823511,"price_range":20.0,"rating":4.0,"cuisine_string":["Cafe Food","Coffee and Tea"],"photo":"https://b.zmtcdn.com/data/res_imagery/16563099_RESTAURANT_ad60856c08dc9b5482c9d5145c17d5df_c.jpg?fit=around%7C1200%3A464\u0026crop=1200%3A464%3B0%2C0","locality":"Emu Plains"},{"name":"Cherry Beans Coffee Roasters Cafe","vote":"12","reviews":"12","address":"62 South Street, Rydalmere, SydneyRydalmere","city":"Sydney","latitude":-33.8157270344,"longitude":151.0423668847,"price_range":20.0,"rating":3.7,"cuisine_string":["Coffee and Tea","Cafe Food"],"photo":"https://b.zmtcdn.com/data/res_imagery/18275653_RESTAURANT_659ae1bdb881efcf4e1ed28eb4a95cfd.jpg?fit=around%7C1200%3A464\u0026crop=1200%3A464%3B0%2C0","locality":"Rydalmere"},{"name":"East West Gourmet","vote":"43","reviews":"43","address":"Food Court, Level 2, Mandarin Centre, 61-65 Albert Avenue, Chatswood, SydneyChatswood","city":"Sydney","latitude":-33.7979300597,"longitude":151.1822792888,"price_range":15.0,"rating":4.0,"cuisine_string":["Asian","Chinese"],"photo":"https://b.zmtcdn.com/data/reviews_photos/4ab/717d9024c5d2008f3d854fb17c6234ab_1478843123.jpg?fit=around%7C1200%3A464\u0026crop=1200%3A464%3B%2A%2C%2A","locality":"Chatswood"},{"name":"Hurstville Chinese Restaurant","vote":"42","reviews":"42","address":"184 Forest Road, \tHurstvilleHurstville","city":"Sydney","latitude":-33.9672570299,"longitude":151.1063010246,"price_range":70.0,"rating":4.0,"cuisine_string":["Chinese","Asian","Cantonese","Hot Pot"],"photo":"https://b.zmtcdn.com/data/res_imagery/16558082_CHAIN_800f7829471cdce3aca5a511b97436ed_c.jpg?fit=around%7C1200%3A464\u0026crop=1200%3A464%3B0%2C0","locality":"Hurstville"},{"name":"Baygarden Restaurant","vote":"23","reviews":"23","address":"The Grand Parade \u0026 Princess Street,  ., Brighton-Le-Sands, SydneyBrighton-Le-Sands","city":"Sydney","latitude":-33.9603755115,"longitude":151.1560352147,"price_range":40.0,"rating":3.8,"cuisine_string":["Seafood","Modern Australian"],"photo":"https://b.zmtcdn.com/data/res_imagery/16557270_RESTAURANT_47f688941171d2d7734c15865f4dbaf1.jpg?fit=around%7C1200%3A464\u0026crop=1200%3A464%3B0%2C0","locality":"Brighton-Le-Sands"},{"name":"El Karim","vote":"44","reviews":"44","address":"126 Pacific Highway, Roseville, SydneyRosevilleNSW","city":"Sydney","latitude":-33.7842753941,"longitude":151.176182963,"price_range":40.0,"rating":3.9,"cuisine_string":["Lebanese","Mediterranean"],"photo":"https://b.zmtcdn.com/data/reviews_photos/3a8/ed8f0cc89a0301002d8949ffb15633a8_1469145429.JPG?resize=1204%3A903\u0026crop=1200%3A464%3B0%2C105","locality":"Roseville"},{"name":"Mangia E Bevi","vote":"38","reviews":"38","address":"702 New South Head Road, Rose Bay, SydneyRose Bay","city":"Sydney","latitude":-33.8699189199,"longitude":151.2693914026,"price_range":45.0,"rating":3.7,"cuisine_string":["Italian","Pizza"],"photo":"https://b.zmtcdn.com/data/res_imagery/17849104_RESTAURANT_53b30fce4401da643b53bb76fa2de5d9_c.jpg?fit=around%7C1200%3A464\u0026crop=1200%3A464%3B0%2C0","locality":"Rose Bay"},{"name":"Fishbowl","vote":"30","reviews":"30","address":"180 Campbell Parade, Bondi Beach, SydneyBondi Beach","city":"Sydney","latitude":-33.8892781533,"longitude":151.2759403512,"price_range":20.0,"rating":3.8,"cuisine_string":["Japanese","Sushi","Poké","Salad"],"photo":"https://b.zmtcdn.com/data/pictures/chains/8/15548358/658b5f17db10fb0b227f402b80c607dc.jpg?resize=1204%3A803\u0026crop=1200%3A464%3B1%2C243","locality":"Bondi Beach"},{"name":"Dong Son","vote":"41","reviews":"41","address":"44 Park Road, Cabramatta, SydneyCabramatta","city":"Sydney","latitude":-33.8942020184,"longitude":150.9378894791,"price_range":15.0,"rating":4.0,"cuisine_string":["Asian","Chinese","Vietnamese"],"photo":"https://b.zmtcdn.com/data/reviews_photos/53c/8bdc5bd05b65588bd99e999c0aa9453c_1449953142.jpg?fit=around%7C1200%3A464\u0026crop=1200%3A464%3B%2A%2C%2A","locality":"Cabramatta"},{"name":"Ryde Hae Jang Kuk","vote":"42","reviews":"42","address":"1007 Victoria Road, West Ryde, SydneyWest RydeNSW","city":"Sydney","latitude":-33.8074275519,"longitude":151.0876653716,"price_range":17.5,"rating":3.8,"cuisine_string":["Korean"],"photo":"https://b.zmtcdn.com/data/res_imagery/16562957_RESTAURANT_59b04150b03de91c91e0d75ead7db697_c.jpg?fit=around%7C1200%3A464\u0026crop=1200%3A464%3B0%2C0","locality":"West Ryde"},{"name":"Bangkok Snap","vote":"34","reviews":"34","address":"Shop 1, 100B Briens Road, Northmead, SydneyNorthmeadNSW","city":"Sydney","latitude":-33.7965587008,"longitude":150.98915454,"price_range":32.5,"rating":3.7,"cuisine_string":["Thai"],"photo":"https://b.zmtcdn.com/data/res_imagery/16566273_CHAIN_36128e55a377d91dc73557aea2976f84_c.jpg?fit=around%7C1200%3A464\u0026crop=1200%3A464%3B0%2C0","locality":"Northmead"},{"name":"Little Mule","vote":"41","reviews":"41","address":"136 Percival Road, Stanmore, SydneyStanmore","city":"Sydney","latitude":-33.8939070175,"longitude":151.1640342325,"price_range":15.0,"rating":3.6,"cuisine_string":["Cafe Food","Coffee and Tea"],"photo":"https://b.zmtcdn.com/data/res_imagery/16567019_RESTAURANT_2918b8f180df337d28170d7170147f58_c.jpg?fit=around%7C1200%3A464\u0026crop=1200%3A464%3B0%2C0","locality":"Stanmore"},{"name":"Maharaja's Lakeside","vote":"53","reviews":"53","address":"Shop 3B, Norwest Marketown, 4 Century Circuit, Baulkham Hills, SydneyBaulkham HillsNSW","city":"Sydney","latitude":-33.732786331,"longitude":150.9635575488,"price_range":30.0,"rating":2.9,"cuisine_string":["Indian"],"photo":"https://b.zmtcdn.com/data/reviews_photos/aa3/9b66817aa895f93c935dd0714c94baa3_1527302760.jpg?resize=1203%3A1203\u0026crop=1200%3A464%3B0%2C300","locality":"Baulkham Hills"},{"name":"La Piazza","vote":"44","reviews":"44","address":"3 Burns Bay Road, Lane Cove, SydneyLane Cove","city":"Sydney","latitude":-33.8145913457,"longitude":151.1697694659,"price_range":40.0,"rating":3.9,"cuisine_string":["Pizza","Modern Australian"],"photo":"https://b.zmtcdn.com/data/res_imagery/16558266_RESTAURANT_2c7086538006a4e86b3a0efba842bfc4_c.jpg?fit=around%7C1200%3A464\u0026crop=1200%3A464%3B0%2C0","locality":"Lane Cove"},{"name":"The Bored Monkey","vote":"25","reviews":"25","address":"1304 Pittwater Rd, Narrabeen, SydneyNarrabeen","city":"Sydney","latitude":-33.7141421541,"longitude":151.2977289408,"price_range":40.0,"rating":4.1,"cuisine_string":["Pizza","Tapas"],"photo":"https://b.zmtcdn.com/data/res_imagery/16569813_RESTAURANT_bf47a63fc9e1b2026fbdb7794a0f3c65.jpg?fit=around%7C1200%3A464\u0026crop=1200%3A464%3B0%2C0","locality":"Narrabeen"},{"name":"Wild Cockatoo Bakery","vote":"49","reviews":"49","address":"30 Botany Road, Alexandria, SydneyAlexandriaNSW","city":"Sydney","latitude":-33.8964117094,"longitude":151.1995785311,"price_range":12.5,"rating":3.9,"cuisine_string":["Bakery"],"photo":"https://b.zmtcdn.com/data/res_imagery/16564064_RESTAURANT_f81afa793a27ec8f52720b564edca55f_c.jpg?fit=around%7C1200%3A464\u0026crop=1200%3A464%3B0%2C0","locality":"Alexandria"},{"name":"The Renegades","vote":"40","reviews":"40","address":"Shop 1, 230 Coward Street, Mascot, SydneyMascotNSW","city":"Sydney","latitude":-33.924399975,"longitude":151.1874804273,"price_range":22.5,"rating":3.8,"cuisine_string":["Coffee and Tea","Cafe Food"],"photo":"https://b.zmtcdn.com/data/res_imagery/16566432_RESTAURANT_cf9a188b88ce075164541d5b39757bbd.jpg?fit=around%7C1200%3A464\u0026crop=1200%3A464%3B0%2C0","locality":"Mascot"},{"name":"Rangoon Colonial Club Restaurant","vote":"45","reviews":"45","address":"7/70 Alexander Street, Crows Nest, SydneyCrows Nest","city":"Sydney","latitude":-33.826203518,"longitude":151.2021692097,"price_range":30.0,"rating":3.9,"cuisine_string":["Indian"],"photo":"https://b.zmtcdn.com/data/reviews_photos/259/81261d436daf4ee0192936a57dc00259_1479479908.JPG?resize=1204%3A803\u0026crop=1200%3A464%3B0%2C193","locality":"Crows Nest"},{"name":"The Portuguese Bakery","vote":"34","reviews":"34","address":"18 Gymea Bay Road, Gymea, SydneyGymea","city":"Sydney","latitude":-34.0336768665,"longitude":151.0856614262,"price_range":15.0,"rating":4.0,"cuisine_string":["Bakery","Portuguese","Desserts","Cafe Food","Coffee and Tea"],"photo":"https://b.zmtcdn.com/data/res_imagery/16568684_RESTAURANT_2e991c533b8d4b5b93763314fd43ed40.jpg?fit=around%7C1200%3A464\u0026crop=1200%3A464%3B0%2C0","locality":"Gymea"},{"name":"1908 Cronulla Social Restaurant \u0026 Cocktail Bar","vote":"24","reviews":"24","address":"1/15 Surf Road, Cronulla, SydneyCronulla","city":"Sydney","latitude":-34.0545030542,"longitude":151.1524765939,"price_range":40.0,"rating":3.9,"cuisine_string":["Modern Australian","Seafood"],"photo":"https://b.zmtcdn.com/data/res_imagery/15547701_RESTAURANT_9ec59088868343352db3cea9190ff047.jpg?fit=around%7C1200%3A464\u0026crop=1200%3A464%3B0%2C0","locality":"Cronulla"},{"name":"Alfred Hotel","vote":"24","reviews":"24","address":"51 Missenden Road, Camperdown, SydneyCamperdownNSW","city":"Sydney","latitude":-33.8880669035,"longitude":151.1806696281,"price_range":27.5,"rating":3.8,"cuisine_string":["Bar Food"],"photo":"https://b.zmtcdn.com/data/pictures/chains/5/16561725/9de24b710a100032e4bff9fe059bfb5f.jpg?resize=1210%3A827\u0026crop=1200%3A464%3B3%2C133","locality":"Camperdown"},{"name":"Spring Yunnan","vote":"24","reviews":"24","address":"215A, Thomas Street, Chinatown, Haymarket, SydneyHaymarketNSW","city":"Sydney","latitude":-33.8803603691,"longitude":151.204271391,"price_range":30.0,"rating":3.8,"cuisine_string":["Asian","Chinese"],"photo":"https://b.zmtcdn.com/data/res_imagery/17742510_RESTAURANT_dd4d9f9662fed900949460147d7a9de5.jpg?fit=around%7C1200%3A464\u0026crop=1200%3A464%3B0%2C0","locality":"Haymarket"},{"name":"Mascot Charcoal Chickens","vote":"49","reviews":"49","address":"1173 Botany Road","city":"Sydney","latitude":-33.9309102479,"longitude":151.1947897822,"price_range":20.0,"rating":3.9,"cuisine_string":["Burger","Mediterranean","Charcoal Chicken"],"photo":"https://b.zmtcdn.com/data/res_imagery/16562490_RESTAURANT_99105fdd0010c35dad698b3d10103a3d.jpg?fit=around%7C1200%3A464\u0026crop=1200%3A464%3B0%2C0","locality":"Mascot"},{"name":"One Ford Street","vote":"20","reviews":"20","address":"1 Ford Street, Balmain, SydneyBalmainNSW","city":"Sydney","latitude":-33.8574139449,"longitude":151.1822403967,"price_range":35.0,"rating":4.0,"cuisine_string":["Italian"],"photo":"https://b.zmtcdn.com/data/reviews_photos/0d4/72fb09bb6ee596a50237d90c5c4b60d4_1487678110.jpg?resize=1204%3A1204\u0026crop=1200%3A464%3B0%2C300","locality":"Balmain"},{"name":"MON Modern Thai \u0026 Cocktails - Mr B's Hotel","vote":"44","reviews":"44","address":"Mr B's Hotel Mezzanine, 396 Pitt Street, CBD, SydneyCBD","city":"Sydney","latitude":-33.8683223874,"longitude":151.2048440427,"price_range":70.0,"rating":3.8,"cuisine_string":["Thai"],"photo":"https://b.zmtcdn.com/data/pictures/1/16562721/2453a9d875116cd751310fdd9a2848f3.jpg?resize=1204%3A722\u0026crop=1200%3A464%3B16%2C103","locality":"CBD"},{"name":"Bun Mese","vote":"38","reviews":"38","address":"304-310 Victoria Street, Darlinghurst, SydneyDarlinghurst","city":"Sydney","latitude":-33.8767746227,"longitude":151.2219002098,"price_range":12.5,"rating":4.0,"cuisine_string":["Vietnamese"],"photo":"https://b.zmtcdn.com/data/res_imagery/16569607_RESTAURANT_c50e56f4a1c261246033ab5bdfddee52.jpg?fit=around%7C1200%3A464\u0026crop=1200%3A464%3B0%2C0","locality":"Darlinghurst"},{"name":"East Coast Lounge","vote":"18","reviews":"18","address":"7b Chowder Bay Road, Mosman, SydneyMosman","city":"Sydney","latitude":-33.8387478723,"longitude":151.2555639446,"price_range":25.0,"rating":4.0,"cuisine_string":["Bar Food","Cafe Food","Coffee and Tea"],"photo":"https://b.zmtcdn.com/data/pictures/5/16570335/2fb3c4ca10d09f7bd7f7c259bb2ef5ef.jpg?resize=1204%3A1204\u0026crop=1200%3A464%3B1%2C282","locality":"Mosman"},{"name":"Paper Box Thai Noodle Bar","vote":"50","reviews":"50","address":"Shop 3, 274 Victoria Street, Darlinghurst, SydneyDarlinghurst","city":"Sydney","latitude":-33.876177262,"longitude":151.2220530957,"price_range":15.0,"rating":3.9,"cuisine_string":["Thai"],"photo":"https://b.zmtcdn.com/data/res_imagery/16559506_CHAIN_29985af76c628a55d3483e9ac044e1b4_c.jpg?fit=around%7C1200%3A464\u0026crop=1200%3A464%3B0%2C0","locality":"Darlinghurst"},{"name":"Chinese Dumpling Master","vote":"30","reviews":"30","address":"Shop 2 /63-71 Enmore Road, Newtown, SydneyNewtown","city":"Sydney","latitude":-33.898504184,"longitude":151.1756146699,"price_range":20.0,"rating":3.9,"cuisine_string":["Chinese"],"photo":"https://b.zmtcdn.com/data/reviews_photos/b8e/7c8060deefe35cd083fd41558c275b8e_1503224716.jpg?resize=1204%3A1204\u0026crop=1200%3A464%3B0%2C300","locality":"Newtown"},{"name":"Stellini Pasta Bar","vote":"48","reviews":"48","address":"UNSW Complex, High Street, Kensington, SydneyKensington","city":"Sydney","latitude":-33.9157574187,"longitude":151.2280307338,"price_range":20.0,"rating":3.8,"cuisine_string":["Italian"],"photo":"https://b.zmtcdn.com/data/res_imagery/16567691_RESTAURANT_1fb889774f3e116281c8ae89fcda6a5d.jpg?fit=around%7C1200%3A464\u0026crop=1200%3A464%3B0%2C0","locality":"Kensington"},{"name":"Paragon Hotel","vote":"37","reviews":"37","address":"1 Loftus Street, CBD, SydneyCBDNSW","city":"Sydney","latitude":-33.8620617989,"longitude":151.2104324251,"price_range":42.5,"rating":3.9,"cuisine_string":["Pub Food"],"photo":"https://b.zmtcdn.com/data/res_imagery/16558677_RESTAURANT_a9eb4d59b7e273154a5d4852284c122d_c.jpg?fit=around%7C1200%3A464\u0026crop=1200%3A464%3B0%2C0","locality":"CBD"},{"name":"Black Rock on the Terrace","vote":"35","reviews":"35","address":"17 South Terrace, Punchbowl, SydneyPunchbowl","city":"Sydney","latitude":-33.925394,"longitude":151.053435,"price_range":45.0,"rating":2.9,"cuisine_string":["Australian","Thai","Steak","Seafood","Pizza"],"photo":"https://b.zmtcdn.com/data/res_imagery/16565298_RESTAURANT_de15219489c12179cde4ac2b358625d0_c.jpg?fit=around%7C1200%3A464\u0026crop=1200%3A464%3B0%2C0","locality":"Punchbowl"},{"name":"Money Bag","vote":"53","reviews":"53","address":"Shop 6A/6-8 Seven Hills Road, Baulkham Hills, SydneyBaulkham Hills","city":"Sydney","latitude":-33.7624997724,"longitude":150.9922598675,"price_range":37.5,"rating":3.1,"cuisine_string":["Thai"],"photo":"","locality":"Baulkham Hills"},{"name":"Happy Inn Chinese","vote":"47","reviews":"47","address":"401 High Street, Penrith, SydneyPenrithNSW","city":"Sydney","latitude":-33.7537449337,"longitude":150.6986263767,"price_range":35.0,"rating":3.8,"cuisine_string":["Chinese"],"photo":"https://b.zmtcdn.com/data/res_imagery/16558018_RESTAURANT_758193141e861ffa58051c7b38934366_c.jpg?fit=around%7C1200%3A464\u0026crop=1200%3A464%3B0%2C0","locality":"Penrith"},{"name":"Crooked Tailor","vote":"31","reviews":"31","address":"7/250 Old Northern Road, Castle HillCastle Hill","city":"Sydney","latitude":-33.7344564936,"longitude":151.0032653064,"price_range":40.0,"rating":3.8,"cuisine_string":["Burger","Bar Food"],"photo":"https://b.zmtcdn.com/data/res_imagery/15545071_RESTAURANT_b0bcd41677de777a278742de17c14e2b_c.jpg?fit=around%7C1200%3A464\u0026crop=1200%3A464%3B0%2C0","locality":"Castle Hill"},{"name":"80 Bay","vote":"44","reviews":"44","address":"80 Bay Street, Ultimo, SydneyUltimoNSW","city":"Sydney","latitude":-33.8837155025,"longitude":151.1951475218,"price_range":15.0,"rating":4.0,"cuisine_string":["Cafe Food","Coffee and Tea"],"photo":"https://b.zmtcdn.com/data/res_imagery/16565853_CHAIN_ad50147bb992bbb68edf2a583e959a96.jpg?fit=around%7C1200%3A464\u0026crop=1200%3A464%3B0%2C0","locality":"Ultimo"},{"name":"Biwon","vote":"30","reviews":"30","address":"262 Pacific Highway, Hornsby, SydneyHornsby","city":"Sydney","latitude":-33.7034408172,"longitude":151.0978443548,"price_range":25.0,"rating":3.9,"cuisine_string":["Korean BBQ"],"photo":"https://b.zmtcdn.com/data/reviews_photos/986/d37e415d3ece36f98b5b4458725aa986_1496568070.jpg?resize=1204%3A1605\u0026crop=1200%3A464%3B-3%2C275","locality":"Hornsby"},{"name":"Pannda House","vote":"29","reviews":"29","address":"20/2 Orange Grove Road, Liverpool, Sydney","city":"Sydney","latitude":-33.90861769,"longitude":150.9195837379,"price_range":30.0,"rating":3.8,"cuisine_string":["Chinese"],"photo":"https://b.zmtcdn.com/data/reviews_photos/d61/8daadae278247d1c883e37151efdad61_1525513542.jpg?resize=1204%3A903\u0026crop=1200%3A464%3B0%2C149","locality":"Warwick Farm"},{"name":"Momiji Japanese Takeaway","vote":"23","reviews":"23","address":"Food Court, Pittsway Arcade, 303 Pitt Street, CBD, SydneyCBD","city":"Sydney","latitude":-33.873566474,"longitude":151.208114326,"price_range":15.0,"rating":4.0,"cuisine_string":["Japanese"],"photo":"https://b.zmtcdn.com/data/res_imagery/16563368_RESTAURANT_b1725336b1597bf7ea6111aa91a85e37.jpg?fit=around%7C1200%3A464\u0026crop=1200%3A464%3B0%2C0","locality":"CBD"},{"name":"Xi'an Cuisine","vote":"43","reviews":"43","address":"Shop 4, 90 Hay Street, Chinatown, Haymarket, SydneyHaymarket","city":"Sydney","latitude":-33.8790774564,"longitude":151.2035300955,"price_range":20.0,"rating":3.9,"cuisine_string":["Asian","Chinese"],"photo":"https://b.zmtcdn.com/data/res_imagery/16563435_RESTAURANT_cf4944ce1bcb4c08893c30bbfb010b14.jpg?fit=around%7C1200%3A464\u0026crop=1200%3A464%3B0%2C0","locality":"Haymarket"},{"name":"La Shish","vote":"39","reviews":"39","address":"271 Guildford Road, Sydney, Guildford, SydneyGuildford","city":"Sydney","latitude":-33.8542627041,"longitude":150.9879482165,"price_range":25.0,"rating":4.0,"cuisine_string":["Lebanese"],"photo":"https://b.zmtcdn.com/data/res_imagery/16562055_CHAIN_0d6311f3ae57daf8b59ba5c2e8d30584.jpg?fit=around%7C1200%3A464\u0026crop=1200%3A464%3B0%2C0","locality":"Guildford"},{"name":"Hazelhurst Cafe","vote":"23","reviews":"23","address":"782 Kingsway, Gymea, SydneyGymea","city":"Sydney","latitude":-34.0332756555,"longitude":151.0828410834,"price_range":20.0,"rating":4.0,"cuisine_string":["Cafe Food","Coffee and Tea"],"photo":"https://b.zmtcdn.com/data/reviews_photos/53a/97f94077c6aafdd27a3f043ea139053a_1488015652.jpg?resize=1204%3A1204\u0026crop=1200%3A464%3B5%2C325","locality":"Gymea"},{"name":"Maruya","vote":"27","reviews":"27","address":"60 Burns Bay Road, Lane Cove, SydneyLane Cove","city":"Sydney","latitude":-33.8146448295,"longitude":151.1673849821,"price_range":37.5,"rating":3.8,"cuisine_string":["Japanese"],"photo":"https://b.zmtcdn.com/data/res_imagery/16569500_CHAIN_4a6c43b7e350649d68301ed6b9345c24_c.jpg?fit=around%7C1200%3A464\u0026crop=1200%3A464%3B0%2C0","locality":"Lane Cove"},{"name":"The Balmain Hotel","vote":"40","reviews":"40","address":"74 Mullens Street, Balmain, SydneyBalmainNSW","city":"Sydney","latitude":-33.8614359375,"longitude":151.1768008769,"price_range":20.0,"rating":3.8,"cuisine_string":["Burger","Pub Food","Australian","Bar Food","Beverages","Pizza","Roast","Steak"],"photo":"https://b.zmtcdn.com/data/res_imagery/16566897_RESTAURANT_5df915710fa557fc7681d88717172222_c.jpg?fit=around%7C1200%3A464\u0026crop=1200%3A464%3B0%2C0","locality":"Balmain"},{"name":"Kinjo Japanese Restaurant and Sushi Bar","vote":"22","reviews":"22","address":"20 Perouse Road , RandwickRandwick","city":"Sydney","latitude":-33.9194862006,"longitude":151.2423487008,"price_range":20.0,"rating":3.0,"cuisine_string":["Japanese"],"photo":"https://b.zmtcdn.com/data/res_imagery/16568106_CHAIN_3403202aa867040651cc30287ea087b6_c.jpg?fit=around%7C1200%3A464\u0026crop=1200%3A464%3B0%2C0","locality":"Randwick"},{"name":"Shanghai Memory","vote":"37","reviews":"37","address":"220 Burwood Road, Burwood, SydneyBurwood","city":"Sydney","latitude":-33.8792567146,"longitude":151.1034944281,"price_range":22.5,"rating":3.7,"cuisine_string":["Chinese"],"photo":"https://b.zmtcdn.com/data/res_imagery/16567292_RESTAURANT_f8df4ed90272fd1e20e4470913eed132.jpg?fit=around%7C1200%3A464\u0026crop=1200%3A464%3B0%2C0","locality":"Burwood"},{"name":"Curl the Whisker Cafe","vote":"34","reviews":"34","address":"4 Station Street, Thornleigh, SydneyThornleigh","city":"Sydney","latitude":-33.7317688821,"longitude":151.0787872598,"price_range":20.0,"rating":3.9,"cuisine_string":["Coffee and Tea","Cafe Food"],"photo":"https://b.zmtcdn.com/data/res_imagery/16567409_RESTAURANT_006ecf98d667752334809ec77159a49c.jpg?fit=around%7C1200%3A464\u0026crop=1200%3A464%3B0%2C0","locality":"Thornleigh"},{"name":"Fugetsu - 1909 Dining Precinct","vote":"24","reviews":"24","address":"Level 3, 1909 Dining Precinct, Market City, 9/13 Hay Street, Chinatown, Haymarket, SydneyHaymarketNSW","city":"Sydney","latitude":-33.8797390955,"longitude":151.2031284347,"price_range":25.0,"rating":2.9,"cuisine_string":["Japanese","Sushi","Asian","Hot Pot","Seafood","Salad"],"photo":"https://b.zmtcdn.com/data/pictures/2/17744992/5e52a250915bfe798ab0cab9138ebd5c.png?resize=1210%3A705\u0026crop=1200%3A464%3B3%2C180","locality":"Haymarket"},{"name":"Caruso's Italian Restaurant","vote":"45","reviews":"45","address":"756 Kingsway, Gymea, SydneyGymea","city":"Sydney","latitude":-34.032961965,"longitude":151.0857492685,"price_range":42.5,"rating":3.8,"cuisine_string":["Italian"],"photo":"https://b.zmtcdn.com/data/res_imagery/16557518_RESTAURANT_87e1fb278122b4778b534ba4426b963d.jpg?fit=around%7C1200%3A464\u0026crop=1200%3A464%3B0%2C0","locality":"Gymea"},{"name":"M Deli Cafe","vote":"33","reviews":"33","address":"32a Fletcher Street, Tamarama, SydneyTamaramaNSW","city":"Sydney","latitude":-33.8972524345,"longitude":151.2710131332,"price_range":25.0,"rating":3.8,"cuisine_string":["Cafe Food","Coffee and Tea"],"photo":"https://b.zmtcdn.com/data/pictures/8/16563998/856f0341d59a7befc1316d738fd659b2.jpg?fit=around%7C1200%3A464\u0026crop=1200%3A464%3B%2A%2C%2A","locality":"Tamarama"},{"name":"Adagio’s Restaurant \u0026 Steakhouse","vote":"32","reviews":"32","address":"1 / 56 Rabaul Road, Georges Hall, Bankstown, SydneyGeorges Hall","city":"Sydney","latitude":-33.915412967,"longitude":150.975051485,"price_range":50.0,"rating":3.9,"cuisine_string":["Steak","American","Australian","Burger","Grill","Modern Australian","Seafood","Vegan"],"photo":"https://b.zmtcdn.com/data/reviews_photos/ffa/09b98b2c0977404243a59e65c823bffa_1490852652.jpg?resize=1204%3A787\u0026crop=1200%3A464%3B2%2C137","locality":"Georges Hall"},{"name":"Mira's Korean Street Food","vote":"30","reviews":"30","address":"16 Railway Parade, \tEastwoodEastwood","city":"Sydney","latitude":-33.7905271913,"longitude":151.0826660693,"price_range":25.0,"rating":3.8,"cuisine_string":["Korean"],"photo":"https://b.zmtcdn.com/data/res_imagery/17849121_RESTAURANT_47a99d7f7be10528293676450bccc7a1_c.jpg?fit=around%7C1200%3A464\u0026crop=1200%3A464%3B0%2C0","locality":"Eastwood"},{"name":"The Cove Dining Co","vote":"24","reviews":"24","address":"378 Great North Road, Abbotsford, SydneyAbbotsford","city":"Sydney","latitude":-33.8509974639,"longitude":151.1289237812,"price_range":35.0,"rating":4.1,"cuisine_string":["Latin American","Fusion"],"photo":"https://b.zmtcdn.com/data/reviews_photos/cdd/6b7d8fa4a5ae4df81034009f20022cdd_1444012804.jpg?resize=1204%3A803\u0026crop=1200%3A464%3B0%2C99","locality":"Abbotsford"},{"name":"More Rice","vote":"48","reviews":"48","address":"406 New Canterbury Road, Dulwich Hill, SydneyDulwich Hill","city":"Sydney","latitude":-33.9031784625,"longitude":151.1428726092,"price_range":20.0,"rating":3.9,"cuisine_string":["Thai"],"photo":"https://b.zmtcdn.com/data/reviews_photos/6b1/813a08483baf66701f5c23e7896fe6b1_1485684962.jpg?fit=around%7C1200%3A464\u0026crop=1200%3A464%3B%2A%2C%2A","locality":"Dulwich Hill"},{"name":"Yo Pho!","vote":"30","reviews":"30","address":"52 A, Erskine Street, CBD, SydneyCBD","city":"Sydney","latitude":-33.8667244331,"longitude":151.2039019167,"price_range":22.5,"rating":4.0,"cuisine_string":["Vietnamese","Pho"],"photo":"https://b.zmtcdn.com/data/res_imagery/16565338_RESTAURANT_759b3c771046eb87ea5afff1e01bfc1b.jpg?fit=around%7C1200%3A464\u0026crop=1200%3A464%3B0%2C0","locality":"CBD"},{"name":"Georgie Porgies Cafe","vote":"32","reviews":"32","address":"Level 1, Westfield Miranda, 600 Kingsway, Miranda, SydneyMiranda","city":"Sydney","latitude":-34.0346626593,"longitude":151.1002811417,"price_range":22.5,"rating":3.9,"cuisine_string":["Sandwich","Cafe Food","Coffee and Tea"],"photo":"https://b.zmtcdn.com/data/reviews_photos/c36/679a0500a09af88a5351393afb9dcc36_1436527835.JPG?resize=1204%3A803\u0026crop=1200%3A464%3B0%2C99","locality":"Miranda"},{"name":"KL Kitchen Restaurant","vote":"32","reviews":"32","address":"38 Llankelly Place, Potts Point, SydneyPotts PointNSW","city":"Sydney","latitude":-33.8729162003,"longitude":151.2243980169,"price_range":25.0,"rating":3.7,"cuisine_string":["Asian","Chinese","Malaysian","Singaporean","Satay","Seafood"],"photo":"https://b.zmtcdn.com/data/res_imagery/16563413_RESTAURANT_0ca2e23f781f3a4891eeb7f7f0018627.JPG?fit=around%7C1200%3A464\u0026crop=1200%3A464%3B0%2C0","locality":"Potts Point"},{"name":"Mama's Café Patisserie","vote":"15","reviews":"15","address":"319 Forest Road, Bexley, SydneyBexleyNSW","city":"Sydney","latitude":-33.9453316703,"longitude":151.1280812323,"price_range":22.5,"rating":3.8,"cuisine_string":["Modern Australian"],"photo":"https://b.zmtcdn.com/data/res_imagery/16570047_RESTAURANT_98c3e491d87eeba3011d523bb56d10a1.jpg?fit=around%7C1200%3A464\u0026crop=1200%3A464%3B0%2C0","locality":"Bexley"},{"name":"Fratelli Famous Pizzeria","vote":"26","reviews":"26","address":"Level 1, World Square Shopping Centre, 644 George Street, CBD, SydneyCBDNSW","city":"Sydney","latitude":-33.8776670373,"longitude":151.206920743,"price_range":25.0,"rating":2.9,"cuisine_string":["Pizza","Italian"],"photo":"https://b.zmtcdn.com/data/pictures/chains/4/15548204/7b9b379b4614ae77d99486e866f9e59f.jpg?resize=1204%3A1204\u0026crop=1200%3A464%3B0%2C300","locality":"CBD"},{"name":"Fortune Of War","vote":"30","reviews":"30","address":"137 George Street, The Rocks, SydneyThe Rocks","city":"Sydney","latitude":-33.8603907833,"longitude":151.2085444853,"price_range":37.5,"rating":3.5,"cuisine_string":["Pub Food"],"photo":"https://b.zmtcdn.com/data/res_imagery/16557881_RESTAURANT_5e618d078b8fe03cf6c5b554c1380371_c.jpg?fit=around%7C1200%3A464\u0026crop=1200%3A464%3B0%2C0","locality":"The Rocks"},{"name":"Nikko Japanese \u0026 Korean Restaurant","vote":"32","reviews":"32","address":"Shop 1/305 Anzac Parade, Kingsford, SydneyKingsford","city":"Sydney","latitude":-33.922888203,"longitude":151.2271821499,"price_range":17.5,"rating":2.7,"cuisine_string":["Japanese","Korean"],"photo":"https://b.zmtcdn.com/data/res_imagery/16566968_RESTAURANT_e1c321501ff40f989c50015003161314.jpg?fit=around%7C1200%3A464\u0026crop=1200%3A464%3B0%2C0","locality":"Kingsford"},{"name":"Slide","vote":"37","reviews":"37","address":"41 Oxford Street, Surry Hills, SydneySurry Hills","city":"Sydney","latitude":-33.8777558329,"longitude":151.2135032192,"price_range":110.0,"rating":3.7,"cuisine_string":["French"],"photo":"https://b.zmtcdn.com/data/res_imagery/16559021_RESTAURANT_e3f8cfe1342a2cba26a8fe92b5b74420.jpg?fit=around%7C1200%3A464\u0026crop=1200%3A464%3B0%2C0","locality":"Surry Hills"},{"name":"The Wintergarden","vote":"20","reviews":"20","address":"Hydro Majestic Hotel, 52-88 Great Western Highway, Medlow Bath, SydneyMedlow BathNSW","city":"Sydney","latitude":-33.6815427,"longitude":150.2849485,"price_range":37.5,"rating":2.8,"cuisine_string":["Modern Australian"],"photo":"https://b.zmtcdn.com/data/res_imagery/16558085_CHAIN_4542a373d3a455833be768f801157c67.jpg?fit=around%7C1200%3A464\u0026crop=1200%3A464%3B0%2C0","locality":"Medlow Bath"},{"name":"Hotties Original","vote":"20","reviews":"20","address":"Level 2, Broadway Shopping Centre, 1 Bay Street, Glebe, SydneyGlebe","city":"Sydney","latitude":-33.8837781282,"longitude":151.1945768818,"price_range":17.5,"rating":3.8,"cuisine_string":["Desserts"],"photo":"https://b.zmtcdn.com/data/reviews_photos/6fd/211f07076dc2c6bfbc59a888ca3566fd_1496310766.jpg?fit=around%7C1200%3A464\u0026crop=1200%3A464%3B%2A%2C%2A","locality":"Glebe"},{"name":"Cafe de France","vote":"37","reviews":"37","address":"19 Havelock Avenue, Coogee, SydneyCoogee","city":"Sydney","latitude":-33.9243051075,"longitude":151.255498901,"price_range":22.5,"rating":3.9,"cuisine_string":["French","Coffee and Tea","Cafe Food"],"photo":"https://b.zmtcdn.com/data/res_imagery/16569354_RESTAURANT_d68a46e43b6ad15153f0827e7d17e050.jpg?fit=around%7C1200%3A464\u0026crop=1200%3A464%3B0%2C0","locality":"Coogee"},{"name":"Casual Mondays","vote":"19","reviews":"19","address":"344 Darling Street, Balmain, SydneyBalmainNSW","city":"Sydney","latitude":-33.8567568659,"longitude":151.178779006,"price_range":25.0,"rating":3.9,"cuisine_string":["Australian","Cafe Food","Coffee and Tea"],"photo":"https://b.zmtcdn.com/data/res_imagery/16568873_RESTAURANT_f2ed262108c8e85bc3ce6dae514d2bed_c.jpg?fit=around%7C1200%3A464\u0026crop=1200%3A464%3B0%2C0","locality":"Balmain"},{"name":"Spice Market","vote":"44","reviews":"44","address":"340 New South Head Road, Double Bay, SydneyDouble Bay","city":"Sydney","latitude":-33.8780893026,"longitude":151.2426568195,"price_range":30.0,"rating":3.8,"cuisine_string":["Thai"],"photo":"https://b.zmtcdn.com/data/res_imagery/16559043_RESTAURANT_f756ac18a281a5c2ce343581ec840ddf.jpg?fit=around%7C1200%3A464\u0026crop=1200%3A464%3B0%2C0","locality":"Double Bay"},{"name":"Yang \u0026 Co","vote":"17","reviews":"17","address":"79 Edinburgh Road, Castlecrag, Willoughby, SydneyCastlecragNSW","city":"Sydney","latitude":-33.8022877815,"longitude":151.211966984,"price_range":45.0,"rating":4.0,"cuisine_string":["Tapas","Asian"],"photo":"https://b.zmtcdn.com/data/res_imagery/15546857_RESTAURANT_b059c365c73e91354d58083d8b4f1a2a.jpg?fit=around%7C1200%3A464\u0026crop=1200%3A464%3B0%2C0","locality":"Castlecrag"},{"name":"Xin Jiang Hand Made Noodle","vote":"36","reviews":"36","address":"84A Archer Street, Chatswood, SydneyChatswood","city":"Sydney","latitude":-33.7953464146,"longitude":151.1850607395,"price_range":20.0,"rating":4.0,"cuisine_string":["Chinese","Uyghur"],"photo":"https://b.zmtcdn.com/data/reviews_photos/c02/495a4a5277d91f8a9e920c331ea7ac02_1509673655.jpg?resize=1204%3A1605\u0026crop=1200%3A464%3B0%2C500","locality":"Chatswood"},{"name":"Asahi","vote":"41","reviews":"41","address":"459 King Georges Road, Beverly Hills, SydneyBeverly HillsNSW","city":"Sydney","latitude":-33.9511247526,"longitude":151.0820374265,"price_range":20.0,"rating":4.0,"cuisine_string":["Japanese","Fast Food"],"photo":"https://b.zmtcdn.com/data/res_imagery/16557159_RESTAURANT_6769267df0cf56a80eb52ac884f89f2f.jpg?fit=around%7C1200%3A464\u0026crop=1200%3A464%3B0%2C0","locality":"Beverly Hills"},{"name":"Nathan's Famous","vote":"21","reviews":"21","address":"Food Court, Level 5, Westfield Parramatta, 159-175 Church Street, Parramatta, SydneyParramattaNSW","city":"Sydney","latitude":-33.81705881,"longitude":151.0016539693,"price_range":15.0,"rating":3.7,"cuisine_string":["Fast Food","Burger"],"photo":"https://b.zmtcdn.com/data/res_imagery/15547508_CHAIN_17ecdb26259b6bfe24bb7406958b1f02.jpg?fit=around%7C1200%3A464\u0026crop=1200%3A464%3B0%2C0","locality":"Parramatta"},{"name":"Lao-Thai Luammit","vote":"28","reviews":"28","address":"Shop 10, 12 Spencer Street, Fairfield, SydneyFairfield","city":"Sydney","latitude":-33.8703228504,"longitude":150.9568996355,"price_range":17.5,"rating":4.0,"cuisine_string":["Laotian","Thai"],"photo":"https://b.zmtcdn.com/data/reviews_photos/b5a/e4292d3c2789ff5375bb668eea78fb5a_1509768989.jpg?resize=1204%3A1605\u0026crop=1200%3A464%3B4%2C695","locality":"Fairfield"},{"name":"Sugarcane Restaurant","vote":"32","reviews":"32","address":"Shop 1, 56 Carr Street, Coogee, SydneyCoogeeNSW","city":"Sydney","latitude":-33.9229499653,"longitude":151.2566307932,"price_range":35.0,"rating":4.2,"cuisine_string":["Asian","Thai","Seafood","Vegetarian"],"photo":"https://b.zmtcdn.com/data/res_imagery/15547792_RESTAURANT_b917edfe3e6ed4d6da420d3d11958bfc.jpg?fit=around%7C1200%3A464\u0026crop=1200%3A464%3B0%2C0","locality":"Coogee"},{"name":"Basil Nut","vote":"22","reviews":"22","address":"Katoomba Arcade, Shop 5, 147 Katoomba Street, Katoomba, SydneyKatoomba","city":"Sydney","latitude":-33.7155452304,"longitude":150.3107460961,"price_range":32.5,"rating":4.0,"cuisine_string":["Asian","Vietnamese"],"photo":"https://b.zmtcdn.com/data/reviews_photos/469/86e086b200d4ff0207e10e60bde7a469_1528941285.jpg?resize=1204%3A1605\u0026crop=1200%3A464%3B0%2C787","locality":"Katoomba"},{"name":"67 Union St Deli","vote":"34","reviews":"34","address":"67 Union Street, McMahons Point, SydneyMcMahons PointNSW","city":"Sydney","latitude":-33.8416237184,"longitude":151.2022412941,"price_range":17.5,"rating":3.9,"cuisine_string":["Deli","Cafe Food","Coffee and Tea"],"photo":"https://b.zmtcdn.com/data/reviews_photos/96f/0c90744c3ac0733d9a9dbdbc24a9396f_1507019472.jpg?resize=1204%3A675\u0026crop=1200%3A464%3B-2%2C213","locality":"McMahons Point"},{"name":"Matteo Double Bay","vote":"29","reviews":"29","address":"29 Bay Street, Double Bay, SydneyDouble Bay","city":"Sydney","latitude":-33.8780124766,"longitude":151.2419745326,"price_range":45.0,"rating":4.0,"cuisine_string":["Italian"],"photo":"https://b.zmtcdn.com/data/pictures/1/17742681/fc9dd0e20c5f0adc2c28e3f568892e61.jpg?resize=1204%3A803\u0026crop=1200%3A464%3B-1%2C321","locality":"Double Bay"},{"name":"Jin's Teahouse 錦瑟坊","vote":"","reviews":"8","address":"111 King Street, Newtown, SydneyNewtown","city":"Sydney","latitude":-33.892902,"longitude":151.184313,"price_range":0,"rating":0.0,"cuisine_string":["Chinese","Asian Fusion","Coffee and Tea"],"photo":"https://b.zmtcdn.com/data/pictures/0/17748010/6b8684656c1f1f7832a400bbef383633.jpg?resize=1591%3A468\u0026crop=1200%3A464%3B198%2C-2","locality":"Newtown"},{"name":"Charlie \u0026 Franks","vote":"19","reviews":"19","address":"110 Walker Street, North Sydney, SydneyNorth Sydney","city":"Sydney","latitude":-33.8379600401,"longitude":151.2088884786,"price_range":20.0,"rating":4.0,"cuisine_string":["Cafe Food","Coffee and Tea"],"photo":"https://b.zmtcdn.com/data/res_imagery/16566435_CHAIN_1df783f8092b4fc5547a17272e208c3d.jpg?fit=around%7C1200%3A464\u0026crop=1200%3A464%3B0%2C0","locality":"North Sydney"},{"name":"The Rocks Pantry","vote":"34","reviews":"34","address":"Shop 92, North Rocks Shopping Centre, 328-336 North Rocks Road, North Rocks, SydneyNorth RocksNSW","city":"Sydney","latitude":-33.7685625205,"longitude":151.0289719328,"price_range":25.0,"rating":3.8,"cuisine_string":["Cafe Food","Coffee and Tea"],"photo":"https://b.zmtcdn.com/data/res_imagery/16564635_RESTAURANT_fa6df98a027f624e3545edaf6bc8e139.jpg?fit=around%7C1200%3A464\u0026crop=1200%3A464%3B0%2C0","locality":"North Rocks"},{"name":"Sushi Zenko","vote":"18","reviews":"18","address":"Shop 300, Level 2, Westfield Hurstville, Park Road And Cross Street, \tHurstvilleHurstville","city":"Sydney","latitude":-33.9664322892,"longitude":151.1038582027,"price_range":15.0,"rating":2.7,"cuisine_string":["Japanese","Healthy Food","Asian","Fast Food","Sushi"],"photo":"https://b.zmtcdn.com/data/res_imagery/15546941_RESTAURANT_8cc7d8d6ced95e33233ce6c8a9359e03.png?fit=around%7C1200%3A464\u0026crop=1200%3A464%3B0%2C0","locality":"Hurstville"},{"name":"NoGoSan Korean BBQ","vote":"41","reviews":"41","address":"86 Archer Street, Chatswood, SydneyChatswood","city":"Sydney","latitude":-33.7952123962,"longitude":151.184977591,"price_range":32.5,"rating":2.8,"cuisine_string":["Korean","Korean BBQ"],"photo":"https://b.zmtcdn.com/data/res_imagery/16564993_RESTAURANT_04cb8089dd18be8f500966cf1f832310_c.jpg?fit=around%7C1200%3A464\u0026crop=1200%3A464%3B0%2C0","locality":"Chatswood"},{"name":"Guiso Japanese BBQ \u0026 Bar","vote":"24","reviews":"24","address":"2A/2 Avenue of Europe, Newington, SydneyNewington","city":"Sydney","latitude":-33.8338138456,"longitude":151.0568481311,"price_range":30.0,"rating":3.9,"cuisine_string":["Japanese BBQ"],"photo":"https://b.zmtcdn.com/data/reviews_photos/79f/edc8a7202b14d1a4b967938296a9379f_1467982426.jpg?fit=around%7C1200%3A464\u0026crop=1200%3A464%3B%2A%2C%2A","locality":"Newington"},{"name":"Poco Cantina","vote":"51","reviews":"51","address":"52 St Pauls Street, RandwickRandwick","city":"Sydney","latitude":-33.9205459328,"longitude":151.2439285219,"price_range":17.5,"rating":3.4,"cuisine_string":["Latin American","Mexican"],"photo":"https://b.zmtcdn.com/data/pictures/4/16560764/fc0cdc8ffcc0665982304ee9aa98e148.jpg?resize=1204%3A903\u0026crop=1200%3A464%3B0%2C5","locality":"Randwick"},{"name":"George's Gourmet Pizzeria","vote":"34","reviews":"34","address":"Shop 15, Circa Retail Shopping Centre, 1 Circa Boulevarde, Bella Vista, SydneyBella VistaNSW","city":"Sydney","latitude":-33.7456716717,"longitude":150.9521444142,"price_range":15.0,"rating":3.9,"cuisine_string":["Pizza","Italian"],"photo":"https://b.zmtcdn.com/data/res_imagery/16562270_RESTAURANT_ca38bc5ea58cd12071860fa24d6630eb.jpg?fit=around%7C1200%3A464\u0026crop=1200%3A464%3B0%2C0","locality":"Bella Vista"},{"name":"Simon's Cafe","vote":"26","reviews":"26","address":"100-122 George Street, Windsor, SydneyWindsorNSW","city":"Sydney","latitude":-33.609501,"longitude":150.816727,"price_range":35.0,"rating":3.5,"cuisine_string":["Cafe Food","Coffee and Tea"],"photo":"https://b.zmtcdn.com/data/res_imagery/16563084_CHAIN_4f871a7e19192acaacfdb33217261382.jpg?fit=around%7C1200%3A464\u0026crop=1200%3A464%3B0%2C0","locality":"Windsor"},{"name":"La Giara Cafe","vote":"41","reviews":"41","address":"Italian Forum Cultural Center, 23 Norton Street, Leichhardt, SydneyLeichhardtNSW","city":"Sydney","latitude":-33.8868815208,"longitude":151.1584659666,"price_range":37.5,"rating":3.8,"cuisine_string":["Italian"],"photo":"https://b.zmtcdn.com/data/res_imagery/16558253_RESTAURANT_80dc4553350e0b9384578ac4418607d2.jpg?fit=around%7C1200%3A464\u0026crop=1200%3A464%3B0%2C0","locality":"Leichhardt"},{"name":"Lim's Hot Bread","vote":"33","reviews":"33","address":"10 Progress Avenue, Eastwood, SydneyEastwoodNSW","city":"Sydney","latitude":-33.7903056721,"longitude":151.0805964097,"price_range":10.0,"rating":4.0,"cuisine_string":["Bakery","Vietnamese"],"photo":"https://b.zmtcdn.com/data/res_imagery/16569102_RESTAURANT_c72e41f0e88abf5664d6299b7708d485_c.jpg?fit=around%7C1200%3A464\u0026crop=1200%3A464%3B0%2C0","locality":"Eastwood"},{"name":"Shanghai Dumpling","vote":"37","reviews":"37","address":"1, 337 Liverpool Road, Ashfield, SydneyAshfield","city":"Sydney","latitude":-33.8876018257,"longitude":151.1226534471,"price_range":17.5,"rating":4.0,"cuisine_string":["Chinese"],"photo":"https://b.zmtcdn.com/data/res_imagery/16558976_RESTAURANT_ad549663ddd3e33b533a562be2b8946e_c.jpg?fit=around%7C1200%3A464\u0026crop=1200%3A464%3B0%2C0","locality":"Ashfield"},{"name":"Costi's Fish \u0026 Chips","vote":"41","reviews":"41","address":"Food Court, Plaza Level, Greenwood Plaza, 36 Blue Street, North Sydney, SydneyNorth Sydney","city":"Sydney","latitude":-33.8404906015,"longitude":151.2078172714,"price_range":15.0,"rating":3.9,"cuisine_string":["Seafood","Fish and Chips","Healthy Food"],"photo":"https://b.zmtcdn.com/data/reviews_photos/4b9/e2f3ff35593bd7bdb8b0518219b3b4b9.jpg?resize=1204%3A677\u0026crop=1200%3A464%3B0%2C36","locality":"North Sydney"},{"name":"Pa-nang Thai","vote":"32","reviews":"32","address":"256B Old Northern Road, \tCastle HillCastle Hill","city":"Sydney","latitude":-33.7342674518,"longitude":151.0033883527,"price_range":20.0,"rating":3.6,"cuisine_string":["Thai"],"photo":"https://b.zmtcdn.com/data/res_imagery/16558656_CHAIN_5d25a42492bb7bd802b5ccd2be90246a.jpg?fit=around%7C1200%3A464\u0026crop=1200%3A464%3B0%2C0","locality":"Castle Hill"},{"name":"Lao Zhao Good Luck Chinese Restaurant","vote":"46","reviews":"46","address":"182 Liverpool Road, Enfield, SydneyEnfieldNSW","city":"Sydney","latitude":-33.8873134818,"longitude":151.0980347917,"price_range":40.0,"rating":3.9,"cuisine_string":["Chinese"],"photo":"https://b.zmtcdn.com/data/res_imagery/16563366_RESTAURANT_68539b23de0dc3f8c28f02df98e3e82d.jpg?fit=around%7C1200%3A464\u0026crop=1200%3A464%3B0%2C0","locality":"Enfield"},{"name":"Nua Thai","vote":"45","reviews":"45","address":"Shop 3, 265 Crown Street, Surry Hills, SydneySurry HillsNSW","city":"Sydney","latitude":-33.8803005244,"longitude":151.2148848921,"price_range":20.0,"rating":3.9,"cuisine_string":["Thai"],"photo":"https://b.zmtcdn.com/data/res_imagery/16560474_RESTAURANT_698c0d162e4c5a235ef77922b818c72b.jpg?fit=around%7C1200%3A464\u0026crop=1200%3A464%3B0%2C0","locality":"Surry Hills"},{"name":"The Willoughby Hotel on Penshurst","vote":"26","reviews":"26","address":"315 Penshurst Street, North Willoughby, SydneyNorth WilloughbyNSW","city":"Sydney","latitude":-33.7932717522,"longitude":151.1962227523,"price_range":35.0,"rating":3.8,"cuisine_string":["Burger","Steak","Modern Australian"],"photo":"https://b.zmtcdn.com/data/res_imagery/16559360_CHAIN_0c6762fade710315b07992614ba27e0d_c.jpg?fit=around%7C1200%3A464\u0026crop=1200%3A464%3B0%2C0","locality":"North Willoughby"},{"name":"Mathura","vote":"22","reviews":"22","address":"12 Aurelia Street, Toongabbie, SydneyToongabbieNSW","city":"Sydney","latitude":-33.7878483036,"longitude":150.9507456422,"price_range":10.0,"rating":3.8,"cuisine_string":["Indian","Malaysian"],"photo":"https://b.zmtcdn.com/data/reviews_photos/0c8/2f17efeacc32560031db2935b003f0c8_1454231572.jpg?fit=around%7C1200%3A464\u0026crop=1200%3A464%3B%2A%2C%2A","locality":"Toongabbie"},{"name":"Minskys Hotel","vote":"35","reviews":"35","address":"287 Military Road, Cremorne, SydneyCremorneNSW","city":"Sydney","latitude":-33.8289073855,"longitude":151.229381226,"price_range":30.0,"rating":3.8,"cuisine_string":["Bar Food"],"photo":"https://b.zmtcdn.com/data/pictures/chains/0/16558070/8e817afca2dae9aaa7e5178d68f4d1b4.jpg?resize=1204%3A802\u0026crop=1200%3A464%3B2%2C171","locality":"Cremorne"},{"name":"Campos Dulwich Hill","vote":"32","reviews":"32","address":"538 Marrickville Road, Dulwich Hill, SydneyDulwich HillNSW","city":"Sydney","latitude":-33.904331896,"longitude":151.1432782933,"price_range":12.5,"rating":3.8,"cuisine_string":["Cafe Food","Coffee and Tea"],"photo":"https://b.zmtcdn.com/data/res_imagery/16570286_RESTAURANT_c4ab0f19ba7255d62d3d66dedb3e325b_c.JPG?fit=around%7C1200%3A464\u0026crop=1200%3A464%3B0%2C0","locality":"Dulwich Hill"},{"name":"Organic Bread Bar","vote":"47","reviews":"47","address":"356 South Dowling Street, PaddingtonPaddington","city":"Sydney","latitude":-33.8846225962,"longitude":151.2187439203,"price_range":17.5,"rating":4.0,"cuisine_string":["Bakery","Coffee and Tea"],"photo":"https://b.zmtcdn.com/data/res_imagery/16565148_RESTAURANT_df07063f41992f90f07fc669d293416e.jpg?fit=around%7C1200%3A464\u0026crop=1200%3A464%3B0%2C0","locality":"Paddington"},{"name":"The Hungry Bird Chicken Shop","vote":"32","reviews":"32","address":"10 Shaw Street, Bexley, SydneyBexleyNSW","city":"Sydney","latitude":-33.9380458834,"longitude":151.1136519536,"price_range":20.0,"rating":3.9,"cuisine_string":["American","Charcoal Chicken","Portuguese","Fried Chicken","Salad","Soul Food","Vegetarian"],"photo":"https://b.zmtcdn.com/data/pictures/chains/9/18425789/64b271fa4d1ca0cca01e08a0df121f33.jpg?resize=1204%3A803\u0026crop=1200%3A464%3B0%2C177","locality":"Bexley"},{"name":"David's Kitchen","vote":"29","reviews":"29","address":"The Passage, 320-324 Pitt Street, CBD, SydneyCBD","city":"Sydney","latitude":-33.8761616738,"longitude":151.2086155638,"price_range":27.5,"rating":3.9,"cuisine_string":["Malaysian","Thai"],"photo":"https://b.zmtcdn.com/data/res_imagery/16565897_RESTAURANT_86e5b6fb68641b546f1351d2bed163b2.jpg?fit=around%7C1200%3A464\u0026crop=1200%3A464%3B0%2C0","locality":"CBD"},{"name":"Xi'an Noodle House","vote":"35","reviews":"35","address":"Shop 2, SkyView Shopping Plaza, 531-551 George Street, CBD, SydneyCBD","city":"Sydney","latitude":-33.8758877661,"longitude":151.20567251,"price_range":22.5,"rating":3.5,"cuisine_string":["Chinese","Asian","Dumplings"],"photo":"https://b.zmtcdn.com/data/res_imagery/16564977_RESTAURANT_3e9bc28862b68205d72e297de9860057_c.jpg?fit=around%7C1200%3A464\u0026crop=1200%3A464%3B0%2C0","locality":"CBD"},{"name":"Plateia Where Friends Meet","vote":"30","reviews":"30","address":"Shop 5, 2-14 Bayswater Road, Potts Point, SydneyPotts PointNSW","city":"Sydney","latitude":-33.8747779297,"longitude":151.2230093032,"price_range":20.0,"rating":4.0,"cuisine_string":["European","Mediterranean","Street Food","Healthy Food","Greek","Grill"],"photo":"https://b.zmtcdn.com/data/pictures/chains/2/16570522/a6498c3a62276f0d8abc747c13fdfa1e.jpg?resize=1204%3A803\u0026crop=1200%3A464%3B0%2C181","locality":"Potts Point"},{"name":"Great Northern Hotel","vote":"51","reviews":"51","address":"522 Pacific Highway, Chatswood, SydneyChatswood","city":"Sydney","latitude":-33.8049620384,"longitude":151.1788990349,"price_range":30.0,"rating":3.1,"cuisine_string":["Steak","Modern Australian"],"photo":"https://b.zmtcdn.com/data/res_imagery/16557980_RESTAURANT_77af0ef4d5176756994c9b84d7045947.jpg?fit=around%7C1200%3A464\u0026crop=1200%3A464%3B0%2C0","locality":"Chatswood"},{"name":"Newmarket Hotel Bistro","vote":"43","reviews":"43","address":"Corner Gardener Road And Botany Road, Rosebery, SydneyRosebery","city":"Sydney","latitude":-33.9217542173,"longitude":151.1966301128,"price_range":40.0,"rating":4.0,"cuisine_string":["Pub Food"],"photo":"https://b.zmtcdn.com/data/res_imagery/16561116_RESTAURANT_582487979d7c00287ea60f5b80c93152_c.jpg?fit=around%7C1200%3A464\u0026crop=1200%3A464%3B0%2C0","locality":"Rosebery"},{"name":"Veloce Espresso","vote":"25","reviews":"25","address":"Near Gate 49, T2 Sydney Domestic Airport (After Security), Sydney Airport, SydneyNSW","city":"Sydney","latitude":-33.9342099834,"longitude":151.1776122451,"price_range":12.5,"rating":2.3,"cuisine_string":["Cafe Food","Coffee and Tea"],"photo":"https://b.zmtcdn.com/data/reviews_photos/146/c74ca0a41e02c39660a12060f688c146_1489398298.jpg?fit=around%7C1200%3A464\u0026crop=1200%3A464%3B%2A%2C%2A","locality":"Mascot"},{"name":"Niko’s Kitchen","vote":"17","reviews":"17","address":"237 Wardell Road, Dulwich Hill, SydneyDulwich Hill","city":"Sydney","latitude":-33.9104577716,"longitude":151.1415921897,"price_range":20.0,"rating":4.1,"cuisine_string":["Greek","Mediterranean"],"photo":"https://b.zmtcdn.com/data/pictures/2/17745912/f61bfc639c53ea9729624f1d45adede4.jpg?resize=1204%3A903\u0026crop=1200%3A464%3B1%2C200","locality":"Dulwich Hill"},{"name":"Trevi Italian Ristorante","vote":"42","reviews":"42","address":"22 Woodriff Street, Penrith, SydneyPenrithNSW","city":"Sydney","latitude":-33.7542308105,"longitude":150.6977177784,"price_range":40.0,"rating":3.7,"cuisine_string":["Italian"],"photo":"https://b.zmtcdn.com/data/res_imagery/16559548_RESTAURANT_80aee22886529f2253043ed3f2b58e1e.jpg?fit=around%7C1200%3A464\u0026crop=1200%3A464%3B0%2C0","locality":"Penrith"},{"name":"Woodlands Tandoori","vote":"33","reviews":"33","address":"238 George Street, Liverpool, SydneyLiverpool","city":"Sydney","latitude":-33.9234524082,"longitude":150.9248911589,"price_range":25.0,"rating":3.8,"cuisine_string":["Indian","Vegetarian"],"photo":"https://b.zmtcdn.com/data/res_imagery/16561700_RESTAURANT_43fb5a15a477870782a53d9390bd7586.jpg?fit=around%7C1200%3A464\u0026crop=1200%3A464%3B0%2C0","locality":"Liverpool"},{"name":"Emilia's Vegetarian Restaurant","vote":"50","reviews":"50","address":"41 Griffin Road, North North Curl Curl, SydneyNorth Curl CurlNSW","city":"Sydney","latitude":-33.7635051502,"longitude":151.2955469638,"price_range":25.0,"rating":3.6,"cuisine_string":["Healthy Food","Vegetarian"],"photo":"https://b.zmtcdn.com/data/res_imagery/16715675_RESTAURANT_256044b2fa29b0e1bc0dd3814f872e16.jpg?fit=around%7C1200%3A464\u0026crop=1200%3A464%3B0%2C0","locality":"North Curl Curl"},{"name":"The Chippo Hotel","vote":"13","reviews":"13","address":"89-91 Abercrombie Street, Chippendale, SydneyChippendale","city":"Sydney","latitude":-33.8874737967,"longitude":151.1986491457,"price_range":32.5,"rating":3.8,"cuisine_string":["Modern Australian"],"photo":"https://b.zmtcdn.com/data/res_imagery/16570452_RESTAURANT_02eb7039f7ebc0c5043d471467b0d3ac.jpg?fit=around%7C1200%3A464\u0026crop=1200%3A464%3B0%2C0","locality":"Chippendale"},{"name":"The Ginger Tiger","vote":"28","reviews":"28","address":"100 George Street @ Collector Hotel, Parramatta, SydneyParramatta","city":"Sydney","latitude":-33.8138010624,"longitude":151.0066576302,"price_range":25.0,"rating":3.8,"cuisine_string":["Thai","Vietnamese","Asian Fusion","Asian"],"photo":"https://b.zmtcdn.com/data/pictures/7/16562967/77891b746400cde249d16aca8b764d3f.jpg?resize=1204%3A803\u0026crop=1200%3A464%3B-13%2C151","locality":"Parramatta"},{"name":"Hanh Phuc","vote":"33","reviews":"33","address":"Shop 8, 242 Elizabeth Street, Surry Hills, SydneySurry HillsNSW","city":"Sydney","latitude":-33.8816905809,"longitude":151.2089783326,"price_range":17.5,"rating":3.9,"cuisine_string":["Vegetarian","Vietnamese"],"photo":"https://b.zmtcdn.com/data/res_imagery/16558564_RESTAURANT_ea91283b22381f87c05b82aa8bae1c66_c.jpg?fit=around%7C1200%3A464\u0026crop=1200%3A464%3B0%2C0","locality":"Surry Hills"},{"name":"Next Door Cronulla","vote":"15","reviews":"15","address":"4-6 Kingsway, Cronulla, SydneyCronulla","city":"Sydney","latitude":-34.0519980149,"longitude":151.155488044,"price_range":40.0,"rating":3.8,"cuisine_string":["Modern Australian"],"photo":"https://b.zmtcdn.com/data/reviews_photos/5f7/27d70061e03857b51351b9eb470cd5f7_1489718566.jpg?fit=around%7C1200%3A464\u0026crop=1200%3A464%3B%2A%2C%2A","locality":"Cronulla"},{"name":"Lloyd's Bistro- Dooleys Lidcombe","vote":"22","reviews":"22","address":"17 Church Street, Lidcombe, SydneyLidcombe","city":"Sydney","latitude":-33.8621275029,"longitude":151.044494547,"price_range":22.5,"rating":2.6,"cuisine_string":["Italian","American","Seafood"],"photo":"https://b.zmtcdn.com/data/res_imagery/16566996_RESTAURANT_f0a298f33d90539e1016f997c1520a83_c.jpg?fit=around%7C1200%3A464\u0026crop=1200%3A464%3B0%2C0","locality":"Lidcombe"},{"name":"Bianco Nero Espresso","vote":"46","reviews":"46","address":"Shop 1, 44 Gymea Bay Road, Gymea, SydneyGymea","city":"Sydney","latitude":-34.0346143146,"longitude":151.0853221268,"price_range":22.5,"rating":3.8,"cuisine_string":["Cafe Food","Coffee and Tea"],"photo":"https://b.zmtcdn.com/data/pictures/3/16562693/2300fdef82b899b8246e9c2b5db94633.jpg?resize=1204%3A903\u0026crop=1200%3A464%3B4%2C132","locality":"Gymea"},{"name":"A Man and His Monkey","vote":"31","reviews":"31","address":"149 Clovelly Road, Randwick, SydneyRandwick","city":"Sydney","latitude":-33.9097471202,"longitude":151.2508643791,"price_range":22.5,"rating":4.0,"cuisine_string":["Cafe Food","Coffee and Tea"],"photo":"https://b.zmtcdn.com/data/res_imagery/16569870_RESTAURANT_aa26bc2ca4c494ddbb735a4481193772_c.jpg?fit=around%7C1200%3A464\u0026crop=1200%3A464%3B0%2C0","locality":"Randwick"},{"name":"Wild Caktus","vote":"45","reviews":"45","address":"86 Yarrara Road, Pennant Hills, SydneyPennant Hills","city":"Sydney","latitude":-33.738154157,"longitude":151.0718493909,"price_range":25.0,"rating":3.6,"cuisine_string":["Pizza"],"photo":"https://b.zmtcdn.com/data/pictures/0/16559770/7dd5dd57254210d729ec536ed91594f4.jpg?resize=1204%3A992\u0026crop=1200%3A464%3B2%2C290","locality":"Pennant Hills"},{"name":"Persian Basement","vote":"45","reviews":"45","address":"54 Burns Bay Road, Lane Cove, SydneyLane Cove","city":"Sydney","latitude":-33.8147002633,"longitude":151.1679572985,"price_range":40.0,"rating":3.1,"cuisine_string":["Middle Eastern","Iranian"],"photo":"https://b.zmtcdn.com/data/res_imagery/16565688_RESTAURANT_ca9d024c544b9b7f9f7ddb504f7cda4b.jpg?fit=around%7C1200%3A464\u0026crop=1200%3A464%3B0%2C0","locality":"Lane Cove"},{"name":"Yees Yogurt 啵仔酸奶","vote":"","reviews":"13","address":"Shop 10, 405 Sussex Street, Chinatown, Haymarket, SydneyHaymarket","city":"Sydney","latitude":-33.878688,"longitude":151.204342,"price_range":7.5,"rating":0.0,"cuisine_string":["Beverages","Asian"],"photo":"https://b.zmtcdn.com/data/pictures/9/17747849/06a7e6e417601a5f5344d97d88c2d821.jpg?resize=1204%3A1491\u0026crop=1200%3A464%3B6%2C633","locality":"Haymarket"},{"name":"Small Bar \u0026 Kitchen","vote":"30","reviews":"30","address":"Shop 1, 1-3 Broughton Street, Kirribilli, SydneyKirribilliNSW","city":"Sydney","latitude":-33.8473213785,"longitude":151.2131283805,"price_range":20.0,"rating":3.9,"cuisine_string":["Tapas","Cafe Food","Coffee and Tea"],"photo":"https://b.zmtcdn.com/data/pictures/5/16568925/bfb59aaf306148437b112a28d522fb51.jpg?fit=around%7C1200%3A464\u0026crop=1200%3A464%3B0%2C408","locality":"Kirribilli"},{"name":"Philosophy Cafe","vote":"18","reviews":"18","address":"66 Stanley Street, Darlinghurst, SydneyDarlinghurst","city":"Sydney","latitude":-33.8756929125,"longitude":151.2153049931,"price_range":22.5,"rating":3.9,"cuisine_string":["Cafe Food","Coffee and Tea"],"photo":"https://b.zmtcdn.com/data/res_imagery/15547619_RESTAURANT_6ae88b49fe6d5afbf9870a463c84c701.jpg?fit=around%7C1200%3A464\u0026crop=1200%3A464%3B0%2C0","locality":"Darlinghurst"},{"name":"Cossies Cafe","vote":"38","reviews":"38","address":"638 Crown Street, Surry HillsSurry Hills","city":"Sydney","latitude":-33.8907409817,"longitude":151.2131273747,"price_range":22.5,"rating":3.8,"cuisine_string":["Cafe Food","Coffee and Tea"],"photo":"https://b.zmtcdn.com/data/res_imagery/16559504_RESTAURANT_880c6269cf90a807b47a4bf3fdd89ac8.jpg?fit=around%7C1200%3A464\u0026crop=1200%3A464%3B0%2C0","locality":"Surry Hills"},{"name":"Lemongrass Takrai","vote":"39","reviews":"39","address":"86 Union Street, Pyrmont, SydneyPyrmontNSW","city":"Sydney","latitude":-33.8698674193,"longitude":151.197341904,"price_range":15.0,"rating":2.9,"cuisine_string":["Thai"],"photo":"https://b.zmtcdn.com/data/res_imagery/16559761_RESTAURANT_fbdaf3ccc924c58b520e25e7d217a990.jpg?fit=around%7C1200%3A464\u0026crop=1200%3A464%3B0%2C0","locality":"Pyrmont"},{"name":"Blue Ocean Restaurant 南國厨房","vote":"20","reviews":"20","address":"17/19 Revesby Place, Revesby, SydneyRevesby","city":"Sydney","latitude":-33.9535854904,"longitude":151.0157392547,"price_range":27.5,"rating":3.9,"cuisine_string":["Asian","Cantonese","Chinese","Seafood","Vegetarian"],"photo":"https://b.zmtcdn.com/data/pictures/4/18692564/76c0734784ae75649a91376ca09c2fba.jpg?resize=1204%3A804\u0026crop=1200%3A464%3B-1%2C298","locality":"Revesby"},{"name":"Noodle City","vote":"43","reviews":"43","address":"729 Pacific Highway, Gordon, SydneyGordonNSW","city":"Sydney","latitude":-33.7562116431,"longitude":151.1530599743,"price_range":25.0,"rating":3.8,"cuisine_string":["Chinese"],"photo":"https://b.zmtcdn.com/data/pictures/8/16562418/9a95aff75e64c3734cb09b34885aa746.jpg?fit=around%7C1200%3A464\u0026crop=1200%3A464%3B%2A%2C%2A","locality":"Gordon"},{"name":"Yipin Handpulled Noodle","vote":"32","reviews":"32","address":"34-36 Burwood Road, Burwood, SydneyBurwood","city":"Sydney","latitude":-33.8774037119,"longitude":151.1030703038,"price_range":20.0,"rating":4.2,"cuisine_string":["Chinese","Cantonese"],"photo":"","locality":"Burwood"},{"name":"Mama \u0026 Papas Cucina Italiana","vote":"23","reviews":"23","address":"295 Church St, Parramatta, SydneyParramattaNSW","city":"Sydney","latitude":-33.81179064,"longitude":151.0039378703,"price_range":35.0,"rating":2.7,"cuisine_string":["Italian","Pizza"],"photo":"https://b.zmtcdn.com/data/reviews_photos/944/608a01ec18f059a27851be56351b4944_1502806626.jpg?fit=around%7C1200%3A464\u0026crop=1200%3A464%3B%2A%2C%2A","locality":"Parramatta"},{"name":"The Little Cup and Saucer","vote":"23","reviews":"23","address":"52 Northcote Street, Canterbury, SydneyCanterburyNSW","city":"Sydney","latitude":-33.9191517799,"longitude":151.1103991047,"price_range":25.0,"rating":4.0,"cuisine_string":["Cafe Food","Coffee and Tea"],"photo":"https://b.zmtcdn.com/data/reviews_photos/fc0/5d68208989d7944ea54e7157e47d9fc0_1477712365.jpg?fit=around%7C1200%3A464\u0026crop=1200%3A464%3B%2A%2C%2A","locality":"Canterbury"},{"name":"Thuy Huong Vietnamese Restaurant","vote":"25","reviews":"25","address":"304 Illawarra Road, Marrickville, SydneyMarrickville","city":"Sydney","latitude":-33.9124486211,"longitude":151.1547511071,"price_range":32.5,"rating":3.9,"cuisine_string":["Vietnamese"],"photo":"https://b.zmtcdn.com/data/res_imagery/16568923_RESTAURANT_3a9af9116e7562e496c839519b164495.jpg?fit=around%7C1200%3A464\u0026crop=1200%3A464%3B0%2C0","locality":"Marrickville"},{"name":"The Corner by McCafé","vote":"28","reviews":"28","address":"8B Missenden Road, Camperdown, SydneyCamperdownNSW","city":"Sydney","latitude":-33.8888292247,"longitude":151.1820010096,"price_range":10.0,"rating":3.9,"cuisine_string":["Meat Pie","Healthy Food","Sandwich","Cafe Food","Coffee and Tea"],"photo":"https://b.zmtcdn.com/data/res_imagery/16570436_RESTAURANT_f049779161c4dfb9e1e40ec9e1e38c07_c.jpg?fit=around%7C1200%3A464\u0026crop=1200%3A464%3B0%2C0","locality":"Camperdown"},{"name":"Lemon Tree Cafe","vote":"31","reviews":"31","address":"Shop 2, Newington Marketplace, 1 Avenue Of Europe, Newington, SydneyNewingtonNSW","city":"Sydney","latitude":-33.8338628614,"longitude":151.0566667467,"price_range":17.5,"rating":2.9,"cuisine_string":["Cafe Food","Coffee and Tea"],"photo":"https://b.zmtcdn.com/data/res_imagery/16569424_RESTAURANT_31e5b44c09d42bf0c1d6ef7cdd312035_c.jpg?fit=around%7C1200%3A464\u0026crop=1200%3A464%3B0%2C0","locality":"Newington"},{"name":"Pho Hanoi Pho","vote":"31","reviews":"31","address":"231 Glebe Point Road, Glebe, SydneyGlebeNSW","city":"Sydney","latitude":-33.8795011064,"longitude":151.1869181693,"price_range":17.5,"rating":3.6,"cuisine_string":["Vietnamese","Pho"],"photo":"https://b.zmtcdn.com/data/reviews_photos/973/18febe1c6acfbe1b3433ead6081ef973_1443080659.jpg?fit=around%7C1200%3A464\u0026crop=1200%3A464%3B0%2C300","locality":"Glebe"},{"name":"Caffe Cino","vote":"29","reviews":"29","address":"Hilton Sydney Hotel, 488 George Street, CBD, SydneyCBDNSW","city":"Sydney","latitude":-33.8722041226,"longitude":151.2076372281,"price_range":25.0,"rating":4.0,"cuisine_string":["Cafe Food","Coffee and Tea"],"photo":"https://b.zmtcdn.com/data/res_imagery/16562604_RESTAURANT_e6d29b4102074a16d6851e1ed23941da.jpg?fit=around%7C1200%3A464\u0026crop=1200%3A464%3B0%2C0","locality":"CBD"},{"name":"F \u0026 L Gourmet","vote":"28","reviews":"28","address":"Level 2, Macquarie Centre, Corner Of Herring Road And Waterloo Road, Macquarie Park, SydneyMacquarie Park","city":"Sydney","latitude":-33.7774367941,"longitude":151.1205837876,"price_range":20.0,"rating":2.8,"cuisine_string":["Asian","Chinese"],"photo":"https://b.zmtcdn.com/data/res_imagery/16716734_CHAIN_a0988a233852249936418da325bae494_c.jpg?fit=around%7C1200%3A464\u0026crop=1200%3A464%3B0%2C0","locality":"Macquarie Park"},{"name":"Rush Hotdogs and Burgers","vote":"31","reviews":"31","address":"240 Elizabeth Street,\tSurry HillsSurry Hills","city":"Sydney","latitude":-33.881158109,"longitude":151.2089015544,"price_range":17.5,"rating":2.4,"cuisine_string":["Burger","American"],"photo":"https://b.zmtcdn.com/data/res_imagery/16569550_RESTAURANT_fe2a4ac94c152538c8662c53e4984cb3_c.jpg?fit=around%7C1200%3A464\u0026crop=1200%3A464%3B0%2C0","locality":"Surry Hills"},{"name":"At Thai Cuisine (ร้านกินปลา)","vote":"21","reviews":"21","address":"Shop 209, Harbour Plaza, 25-29 Dixon Street, Chinatown, Haymarket, SydneyHaymarketNSW","city":"Sydney","latitude":-33.8777296674,"longitude":151.2036045268,"price_range":17.5,"rating":3.8,"cuisine_string":["Thai"],"photo":"https://b.zmtcdn.com/data/res_imagery/16564643_RESTAURANT_ca7cd3122ee1092c10dd605106f77de8_c.jpg?fit=around%7C1200%3A464\u0026crop=1200%3A464%3B0%2C0","locality":"Haymarket"},{"name":"UMU","vote":"34","reviews":"34","address":"81a Gould Street, Bondi Beach, SydneyBondi BeachNSW","city":"Sydney","latitude":-33.8905191655,"longitude":151.2736916542,"price_range":22.5,"rating":3.8,"cuisine_string":["Coffee and Tea","Healthy Food"],"photo":"https://b.zmtcdn.com/data/res_imagery/16557759_RESTAURANT_c2855fd9e3940bb618bf7ac5dc546832_c.jpeg?fit=around%7C1200%3A464\u0026crop=1200%3A464%3B0%2C0","locality":"Bondi Beach"},{"name":"The Loft At UTS","vote":"50","reviews":"50","address":"Building 1-9, 15 Broadway, Ultimo, SydneyUltimo","city":"Sydney","latitude":-33.8836893389,"longitude":151.201450713,"price_range":30.0,"rating":3.9,"cuisine_string":["Pizza"],"photo":"https://b.zmtcdn.com/data/res_imagery/16558359_RESTAURANT_2c98113af7674eabcc0d2b72a673e648_c.jpg?fit=around%7C1200%3A464\u0026crop=1200%3A464%3B0%2C0","locality":"Ultimo"},{"name":"Absolute Thai","vote":"49","reviews":"49","address":"Westfield Hornsby, Corner Of Burdett \u0026 Hunter Street, Hornsby, SydneyHornsby","city":"Sydney","latitude":-33.7033981419,"longitude":151.101336591,"price_range":22.5,"rating":3.9,"cuisine_string":["Thai"],"photo":"https://b.zmtcdn.com/data/reviews_photos/29c/5a7d91e59d268f359d81dd1bab7db29c_1465099227.jpg?resize=1204%3A681\u0026crop=1200%3A464%3B0%2C38","locality":"Hornsby"},{"name":"Nudefish Poké","vote":"27","reviews":"27","address":"The Plaza Level, Greenwood Plaza, 36 Blue St, North SydneyNorth SydneyNSW","city":"Sydney","latitude":-33.8407518129,"longitude":151.2075601146,"price_range":20.0,"rating":3.9,"cuisine_string":["Poké","Hawaiian","Japanese"],"photo":"https://b.zmtcdn.com/data/pictures/chains/7/17743117/ee49de9d98adc7abb22b9dfdc1a31b0c.jpg?resize=1204%3A803\u0026crop=1200%3A464%3B-2%2C206","locality":"North Sydney"},{"name":"Sankalp","vote":"24","reviews":"24","address":"Shop 17, Wentworthville Shopping Plaza, 326-336 Great Western Highway, Wentworthville, Parramatta, SydneyWentworthville","city":"Sydney","latitude":-33.8150938696,"longitude":150.972048752,"price_range":25.0,"rating":2.6,"cuisine_string":["Indian"],"photo":"https://b.zmtcdn.com/data/res_imagery/15544830_RESTAURANT_dab3a9289a25be4b0f49b73116ff857b_c.jpg?fit=around%7C1200%3A464\u0026crop=1200%3A464%3B0%2C0","locality":"Wentworthville"},{"name":"The Refinery","vote":"39","reviews":"39","address":"10 Coronation Street, Hornsby, SydneyHornsby","city":"Sydney","latitude":-33.7022065732,"longitude":151.0976666585,"price_range":17.5,"rating":3.7,"cuisine_string":["Cafe Food","Coffee and Tea"],"photo":"https://b.zmtcdn.com/data/res_imagery/16566840_RESTAURANT_c955541d2476d1d6c5265bdad8d3a89b.JPG?fit=around%7C1200%3A464\u0026crop=1200%3A464%3B0%2C0","locality":"Hornsby"},{"name":"The Sugar Hill Cafe","vote":"25","reviews":"25","address":"Shop G006, Lidcombe Shopping Centre, 92 Parramatta Road, Lidcombe, SydneyLidcombe","city":"Sydney","latitude":-33.8495921498,"longitude":151.0491518676,"price_range":20.0,"rating":3.9,"cuisine_string":["Desserts","Cafe Food","Coffee and Tea"],"photo":"https://b.zmtcdn.com/data/res_imagery/15545627_RESTAURANT_9724eacc322589977e66f1fcb8f985a6.jpg?fit=around%7C1200%3A464\u0026crop=1200%3A464%3B0%2C0","locality":"Lidcombe"},{"name":"Bayblu","vote":"44","reviews":"44","address":"741 Princes Highway, Blakehurst, SydneyBlakehurst","city":"Sydney","latitude":-33.9986768593,"longitude":151.1154587567,"price_range":35.0,"rating":3.9,"cuisine_string":["Seafood","Modern Australian"],"photo":"https://b.zmtcdn.com/data/reviews_photos/b07/b21f1935cd02c9434021b244b37b9b07.jpg?resize=1204%3A878\u0026crop=1200%3A464%3B0%2C137","locality":"Blakehurst"},{"name":"Hong Kong Seafood Cuisine","vote":"28","reviews":"28","address":"11 Amy Street, Campsie, SydneyCampsie","city":"Sydney","latitude":-33.9122307568,"longitude":151.1031303182,"price_range":32.5,"rating":3.8,"cuisine_string":["Chinese","Seafood"],"photo":"https://b.zmtcdn.com/data/res_imagery/15543434_RESTAURANT_5f12ac86185be8cbca6f3620b836e0c2.jpg?fit=around%7C1200%3A464\u0026crop=1200%3A464%3B0%2C0","locality":"Campsie"},{"name":"Organic Republic Bakery","vote":"45","reviews":"45","address":"98-100 Glenayr Avenue, Bondi Beach, SydneyBondi Beach","city":"Sydney","latitude":-33.8858547696,"longitude":151.2735665962,"price_range":12.5,"rating":3.9,"cuisine_string":["Bakery","Cafe Food","Coffee and Tea"],"photo":"https://b.zmtcdn.com/data/res_imagery/16562761_RESTAURANT_d3875409e924f1a50aded85e67f6d2d0.jpg?fit=around%7C1200%3A464\u0026crop=1200%3A464%3B0%2C0","locality":"Bondi Beach"},{"name":"Bai Bua","vote":"47","reviews":"47","address":"22 Woodriffe Street, Penrith, SydneyPenrithNSW","city":"Sydney","latitude":-33.7543158317,"longitude":150.6973687559,"price_range":25.0,"rating":3.9,"cuisine_string":["Thai"],"photo":"https://b.zmtcdn.com/data/res_imagery/16560669_RESTAURANT_d5a44bd8f4827001145ed2099977953b.jpg?fit=around%7C1200%3A464\u0026crop=1200%3A464%3B0%2C0","locality":"Penrith"},{"name":"Noodle Inn","vote":"39","reviews":"39","address":"150 Belmore Road, RandwickRandwick","city":"Sydney","latitude":-33.9163940108,"longitude":151.2407936901,"price_range":22.5,"rating":3.8,"cuisine_string":["Asian"],"photo":"https://b.zmtcdn.com/data/res_imagery/16567064_RESTAURANT_3cab553d602779c3ac95bdb64d6e6486.jpg?fit=around%7C1200%3A464\u0026crop=1200%3A464%3B0%2C0","locality":"Randwick"},{"name":"Buena Bar","vote":"39","reviews":"39","address":"76 Middle Head Road, Mosman, SydneyMosmanNSW","city":"Sydney","latitude":-33.8321614942,"longitude":151.2445202842,"price_range":42.5,"rating":3.8,"cuisine_string":["Tapas","Modern Australian"],"photo":"https://b.zmtcdn.com/data/pictures/1/16557421/33a9e42a21f4afb7608c33a8d96c335b.jpg?resize=1204%3A802\u0026crop=1200%3A464%3B3%2C195","locality":"Mosman"},{"name":"Friggitoria","vote":"32","reviews":"32","address":"12 Bayswater Road, Potts Point, SydneyPotts Point","city":"Sydney","latitude":-33.8747968585,"longitude":151.2231015042,"price_range":15.0,"rating":3.9,"cuisine_string":["Italian","Cafe Food","Coffee and Tea"],"photo":"https://b.zmtcdn.com/data/res_imagery/17849076_RESTAURANT_de0e66a08c622469e8b7513fa1b23a63.jpg?fit=around%7C1200%3A464\u0026crop=1200%3A464%3B0%2C0","locality":"Potts Point"},{"name":"Aalishaan Indian Cuisine","vote":"39","reviews":"39","address":"Shop 3, 100 Queen Street, Campbelltown, SydneyCampbelltown","city":"Sydney","latitude":-34.0642008418,"longitude":150.8167173341,"price_range":27.5,"rating":3.6,"cuisine_string":["Indian","Vegetarian"],"photo":"https://b.zmtcdn.com/data/res_imagery/16561690_RESTAURANT_49fbb1bd17f8f7c01eb1c0429caf9b3a.jpg?fit=around%7C1200%3A464\u0026crop=1200%3A464%3B0%2C0","locality":"Campbelltown"},{"name":"7ettimo","vote":"46","reviews":"46","address":"172 Norton Street, Leichhardt, SydneyLeichhardtNSW","city":"Sydney","latitude":-33.8812368805,"longitude":151.1566219479,"price_range":30.0,"rating":3.9,"cuisine_string":["Italian"],"photo":"https://b.zmtcdn.com/data/pictures/0/16560800/c32180d4b3ef5858a0bf616a571505b4.jpg?resize=1204%3A1605\u0026crop=1200%3A464%3B2%2C426","locality":"Leichhardt"},{"name":"The Wren","vote":"18","reviews":"18","address":"Unit 5/22 Kenthurst Road, Dural, SydneyDural","city":"Sydney","latitude":-33.6923096665,"longitude":151.0197578743,"price_range":25.0,"rating":3.9,"cuisine_string":["Cafe Food","Coffee and Tea"],"photo":"https://b.zmtcdn.com/data/reviews_photos/b5b/109fe639b91522b3665190d8e668ab5b_1506040454.JPG?resize=1204%3A903\u0026crop=1200%3A464%3B0%2C149","locality":"Dural"},{"name":"Agape Organic Food Truck","vote":"33","reviews":"33","address":"Various Locations, CBD, SydneyCBDNSW","city":"Sydney","latitude":-33.8668204782,"longitude":151.209827587,"price_range":15.0,"rating":4.0,"cuisine_string":["Healthy Food","Australian"],"photo":"https://b.zmtcdn.com/data/pictures/2/16565892/c57ee0d90acaa79c077832ece021e33e.jpg?resize=1204%3A1204\u0026crop=1200%3A464%3B-4%2C550","locality":"City of Sydney"},{"name":"Tomah Gardens Restaurant at Blue Mountains Botanic Garden","vote":"30","reviews":"30","address":"Bells Line of Road, Bilpin, SydneyBilpinNSW","city":"Sydney","latitude":-33.5035409,"longitude":150.5076591,"price_range":40.0,"rating":2.8,"cuisine_string":["British","European"],"photo":"https://b.zmtcdn.com/data/res_imagery/16565800_RESTAURANT_8c7cad2d5982694beae3c3fc44f16676.jpg?fit=around%7C1200%3A464\u0026crop=1200%3A464%3B0%2C0","locality":"Bilpin"},{"name":"Grand Pearl Seafood Restaurant","vote":"29","reviews":"29","address":"56 Canley Vale Road, Canley Vale, SydneyCanley Vale","city":"Sydney","latitude":-33.8866051425,"longitude":150.9403530881,"price_range":36.5,"rating":2.8,"cuisine_string":["Chinese","Seafood"],"photo":"https://b.zmtcdn.com/data/res_imagery/16563558_RESTAURANT_ee1a620f1079ada0207e6c36230f09d7.jpg?fit=around%7C1200%3A464\u0026crop=1200%3A464%3B0%2C0","locality":"Canley Vale"},{"name":"Hunter Gatherer","vote":"21","reviews":"21","address":"Greenwood Plaza Rooftop, 36 Blue Street, North Sydney, SydneyNorth Sydney","city":"Sydney","latitude":-33.8408300647,"longitude":151.2081220374,"price_range":50.0,"rating":4.0,"cuisine_string":["Modern Australian"],"photo":"https://b.zmtcdn.com/data/res_imagery/18308108_RESTAURANT_26244859b14b8bb5f7835ca196843792.jpg?fit=around%7C1200%3A464\u0026crop=1200%3A464%3B0%2C0","locality":"North Sydney"},{"name":"Kiyo Japanese Restaurant","vote":"21","reviews":"21","address":"48 Harris Street, Pirrama Park Cafe\nPyrmontPyrmont","city":"Sydney","latitude":-33.8667517155,"longitude":151.1923835054,"price_range":30.0,"rating":3.9,"cuisine_string":["Japanese"],"photo":"https://b.zmtcdn.com/data/res_imagery/18255031_CHAIN_b4ab9bd23960aaccf36ee4b4dc944c9b.jpg?fit=around%7C1200%3A464\u0026crop=1200%3A464%3B0%2C0","locality":"Pyrmont"},{"name":"Lusso Italian Restaurant","vote":"42","reviews":"42","address":"Shop 83, Ground Floor, Rouse Hill Town Centre, Rouse Hill, SydneyRouse HillNSW","city":"Sydney","latitude":-33.69135032,"longitude":150.9245897457,"price_range":35.0,"rating":2.9,"cuisine_string":["Italian"],"photo":"https://b.zmtcdn.com/data/res_imagery/16562226_RESTAURANT_9e1b5988f26c021541481addb4213b86_c.jpg?fit=around%7C1200%3A464\u0026crop=1200%3A464%3B0%2C0","locality":"Rouse Hill"},{"name":"Beef Life Hotpot 潮牛海記","vote":"35","reviews":"36","address":"615 George Street, Chinatown, Haymarket, SydneyHaymarketNSW","city":"Sydney","latitude":-33.8779785173,"longitude":151.2054981664,"price_range":45.0,"rating":3.8,"cuisine_string":["Chinese","Hot Pot"],"photo":"https://b.zmtcdn.com/data/pictures/1/17744011/7a68bfa3ded2fd3008f3e376ef6a5e13.jpg?resize=1204%3A904\u0026crop=1200%3A464%3B0%2C105","locality":"Haymarket"},{"name":"Fujiyama Japanese Cuisine","vote":"24","reviews":"24","address":"359 Chapel Rd, Bankstown, SydneyBankstown","city":"Sydney","latitude":-33.9166761354,"longitude":151.0333925486,"price_range":27.5,"rating":3.1,"cuisine_string":["Asian","Japanese","Fusion"],"photo":"https://b.zmtcdn.com/data/reviews_photos/7be/c8eaa59610f47363e7aa5b40625217be_1463326496.jpg?fit=around%7C1200%3A464\u0026crop=1200%3A464%3B%2A%2C%2A","locality":"Bankstown"},{"name":"Vincenzo's Pizzeria","vote":"15","reviews":"15","address":"33 Irrigation Road, South Wentworthville, SydneyNSW","city":"Sydney","latitude":-33.8285923843,"longitude":150.9653398767,"price_range":15.0,"rating":4.0,"cuisine_string":["Italian","Pizza"],"photo":"","locality":"Merrylands"},{"name":"Chan's Canton Village Restaurant","vote":"40","reviews":"40","address":"2405 Camden Valley Way, Casula, SydneyCasulaNSW","city":"Sydney","latitude":-33.9572881436,"longitude":150.8852866665,"price_range":25.0,"rating":3.8,"cuisine_string":["Chinese"],"photo":"https://b.zmtcdn.com/data/res_imagery/16561778_RESTAURANT_d372db2d332d46d3bd2871b5fbcf80d3.jpg?fit=around%7C1200%3A464\u0026crop=1200%3A464%3B0%2C0","locality":"Casula"},{"name":"The Creamery \u0026 Co","vote":"22","reviews":"22","address":"K2303, Corner of Herring \u0026 Waterloo Roads, Macquarie Park, SydneyMacquarie Park","city":"Sydney","latitude":-33.7775426934,"longitude":151.1218290031,"price_range":25.0,"rating":3.7,"cuisine_string":["Cafe Food","Coffee and Tea"],"photo":"https://b.zmtcdn.com/data/reviews_photos/289/49b94c63b788de0e74812be4c8011289_1511337906.jpg?resize=1204%3A1161\u0026crop=1200%3A464%3B0%2C278","locality":"Macquarie Park"},{"name":"The Cliff Dive","vote":"37","reviews":"37","address":"16 Oxford Square, Darlinghurst, SydneyDarlinghurstNSW","city":"Sydney","latitude":-33.8780984883,"longitude":151.2143172696,"price_range":40.0,"rating":3.8,"cuisine_string":["Drinks Only"],"photo":"https://b.zmtcdn.com/data/pictures/5/16567975/d8f81dc270710d8009ef8852d017eae2.jpg?resize=1204%3A809\u0026crop=1200%3A464%3B-2%2C250","locality":"Darlinghurst"},{"name":"Scary Canary","vote":"40","reviews":"40","address":"469 Kent Street, CBD, SydneyCBDNSW","city":"Sydney","latitude":-33.8737268147,"longitude":151.205275543,"price_range":40.0,"rating":2.8,"cuisine_string":["Pub Food","Burger","Pizza"],"photo":"https://b.zmtcdn.com/data/res_imagery/16558949_RESTAURANT_53b17e164723b5a7ade85337f70294ac_c.jpg?fit=around%7C1200%3A464\u0026crop=1200%3A464%3B0%2C0","locality":"CBD"},{"name":"Bik's Cafe","vote":"15","reviews":"15","address":"1120 Botany Road, Botany Bay, SydneyBotanyNSW","city":"Sydney","latitude":-33.9446018403,"longitude":151.196230799,"price_range":15.0,"rating":3.8,"cuisine_string":["Cafe Food"],"photo":"https://b.zmtcdn.com/data/reviews_photos/f46/eb428a5b9df449ed4ee3c61cb3094f46_1528192525.JPG?resize=1203%3A1278\u0026crop=1200%3A464%3B0%2C561","locality":"Botany"},{"name":"Kagoshima Master Yakiniku","vote":"16","reviews":"16","address":"18A Falcon Street, Crows Nest, SydneyCrows Nest","city":"Sydney","latitude":-33.8277540466,"longitude":151.2023693696,"price_range":0,"rating":3.9,"cuisine_string":["Asian","Japanese","Japanese BBQ"],"photo":"https://b.zmtcdn.com/data/pictures/7/17747757/d94a8633d7905ac31ccc4e1896d52a86.jpg?resize=1204%3A903\u0026crop=1200%3A464%3B-1%2C289","locality":"Crows Nest"},{"name":"Mellow Me","vote":"20","reviews":"20","address":"8/ 5 Australia Avenue, Sydney Olympic Park, SydneySydney Olympic Park","city":"Sydney","latitude":-33.8477643994,"longitude":151.0731988773,"price_range":25.0,"rating":3.8,"cuisine_string":["Cafe Food","Coffee and Tea"],"photo":"https://b.zmtcdn.com/data/reviews_photos/da5/f0d4fb87ef4dedc817517bf2cdc08da5_1494935709.jpg?fit=around%7C1200%3A464\u0026crop=1200%3A464%3B%2A%2C%2A","locality":"Sydney Olympic Park"},{"name":"Soju","vote":"14","reviews":"14","address":"Stockland Wetherill Park, 583 Polding Street, Wetherill Park, SydneyWetherill Park","city":"Sydney","latitude":-33.85879,"longitude":150.898751,"price_range":40.0,"rating":3.4,"cuisine_string":["Korean","Fried Chicken"],"photo":"https://b.zmtcdn.com/data/pictures/3/17747753/111cf4280f476f7d633d8447f3037f3b.jpg?resize=1204%3A1203\u0026crop=1200%3A464%3B-2%2C411","locality":"Wetherill Park"},{"name":"Mammas Woodfire Pizza","vote":"26","reviews":"26","address":"Shop 2/13 Kirketon Road, Darlinghurst, SydneyDarlinghurst","city":"Sydney","latitude":-33.8756205382,"longitude":151.2212983891,"price_range":35.0,"rating":4.0,"cuisine_string":["Pizza","Italian"],"photo":"https://b.zmtcdn.com/data/res_imagery/18416599_RESTAURANT_7eaaa559a57efdee9ed8e0844ec1fa7f.jpg?fit=around%7C1200%3A464\u0026crop=1200%3A464%3B0%2C0","locality":"Darlinghurst"},{"name":"The Shoe Chef Cafe","vote":"29","reviews":"29","address":"426 New Canterbury Road, Dulwich Hill, SydneyDulwich Hill","city":"Sydney","latitude":-33.9038223837,"longitude":151.1413967237,"price_range":20.0,"rating":3.9,"cuisine_string":["Cafe Food","Coffee and Tea"],"photo":"https://b.zmtcdn.com/data/res_imagery/18324181_RESTAURANT_f8cd05c0d088b53b185f6e4338d7d3d9.jpg?fit=around%7C1200%3A464\u0026crop=1200%3A464%3B0%2C0","locality":"Dulwich Hill"},{"name":"An Nhien","vote":"28","reviews":"28","address":"Shop 21.  180 Railway Parade, Cabramatta, SydneyCabramatta","city":"Sydney","latitude":-33.8937784414,"longitude":150.9381932393,"price_range":27.5,"rating":4.1,"cuisine_string":["Vegetarian"],"photo":"https://b.zmtcdn.com/data/reviews_photos/1f6/4c2c2df9cd92906f4bcae10cce5941f6_1499392192.jpg?fit=around%7C1200%3A464\u0026crop=1200%3A464%3B%2A%2C%2A","locality":"Cabramatta"},{"name":"Spice Thai Cuisine","vote":"28","reviews":"28","address":"8 Bourke Street, Mascot, Mascot, SydneyMascot","city":"Sydney","latitude":-33.9235873383,"longitude":151.1873966083,"price_range":32.5,"rating":2.5,"cuisine_string":["Thai"],"photo":"https://b.zmtcdn.com/data/pictures/2/15545612/4737b42c37eb605a23eca2d3344b8f23.jpg?fit=around%7C1200%3A464\u0026crop=1200%3A464%3B%2A%2C%2A","locality":"Mascot"},{"name":"Cafe De Palm","vote":"30","reviews":"30","address":"117a John Street, Cabramatta, SydneyCabramatta","city":"Sydney","latitude":-33.8948145594,"longitude":150.9338178858,"price_range":15.0,"rating":3.9,"cuisine_string":["Cafe Food","Coffee and Tea"],"photo":"https://b.zmtcdn.com/data/res_imagery/15546459_CHAIN_2bfe84e3d371f4794d340e3946edf5d3.jpg?fit=around%7C1200%3A464\u0026crop=1200%3A464%3B0%2C0","locality":"Cabramatta"},{"name":"Seed Kouzina","vote":"35","reviews":"35","address":"88 Audley Street, Petersham, SydneyPetersham","city":"Sydney","latitude":-33.8958815558,"longitude":151.1540101469,"price_range":35.0,"rating":4.0,"cuisine_string":["Greek"],"photo":"https://b.zmtcdn.com/data/res_imagery/16565359_RESTAURANT_5970fe977bc68a76583dea322d42ea7c.jpg?fit=around%7C1200%3A464\u0026crop=1200%3A464%3B0%2C0","locality":"Petersham"},{"name":"The Clove","vote":"45","reviews":"45","address":"100-102 Beach St, Coogee, Coogee, SydneyCoogee","city":"Sydney","latitude":-33.9172593011,"longitude":151.2587188929,"price_range":40.0,"rating":3.8,"cuisine_string":["Indian"],"photo":"https://b.zmtcdn.com/data/res_imagery/16569082_CHAIN_7fc6fc9748b33ebc3d042df94fa887d2.jpg?fit=around%7C1200%3A464\u0026crop=1200%3A464%3B0%2C0","locality":"Coogee"},{"name":"Marina Lunga","vote":"37","reviews":"37","address":"367 Darling Street, Balmain, SydneyBalmainNSW","city":"Sydney","latitude":-33.8564188581,"longitude":151.1779213697,"price_range":25.0,"rating":3.9,"cuisine_string":["Italian","Pizza"],"photo":"https://b.zmtcdn.com/data/res_imagery/16559612_CHAIN_16ea22f457f5cf2f02b0fa874ab9831b.jpg?fit=around%7C1200%3A464\u0026crop=1200%3A464%3B0%2C0","locality":"Balmain"},{"name":"Le Village","vote":"28","reviews":"28","address":"37 Alexandra Street, Hunters Hill, SydneyHunters HillNSW","city":"Sydney","latitude":-33.8353503115,"longitude":151.1558870226,"price_range":22.5,"rating":3.7,"cuisine_string":["Coffee and Tea","French","Cafe Food"],"photo":"https://b.zmtcdn.com/data/res_imagery/16566141_RESTAURANT_1c4ebd2f98fc0add7e683d325cc0161f.jpg?fit=around%7C1200%3A464\u0026crop=1200%3A464%3B0%2C0","locality":"Hunters Hill"},{"name":"One Seed Patisseries","vote":"23","reviews":"23","address":"160a Longueville Road, Lane Cove, SydneyLane Cove","city":"Sydney","latitude":-33.8151150402,"longitude":151.1701711267,"price_range":17.5,"rating":3.7,"cuisine_string":["Bakery","Desserts","Patisserie"],"photo":"https://b.zmtcdn.com/data/res_imagery/16569511_RESTAURANT_63c594e108a4a7d1022be8599678ae30.jpg?fit=around%7C1200%3A464\u0026crop=1200%3A464%3B0%2C0","locality":"Lane Cove"},{"name":"Pasta Pantry","vote":"18","reviews":"18","address":"Food Court, Level 5, Westfield Bondi Junction, 500 Oxford Street, Bondi Junction, SydneyBondi JunctionNSW","city":"Sydney","latitude":-33.8911512148,"longitude":151.2516770884,"price_range":30.0,"rating":3.9,"cuisine_string":["Italian"],"photo":"","locality":"Bondi Junction"},{"name":"Persian Rose","vote":"38","reviews":"38","address":"Level 1, 1380 Pacific Highway, Turramurra, SydneyTurramurraNSW","city":"Sydney","latitude":-33.7335600748,"longitude":151.1271267012,"price_range":40.0,"rating":3.7,"cuisine_string":["Iranian"],"photo":"https://b.zmtcdn.com/data/res_imagery/16566349_RESTAURANT_41a83d20926c51eb7c51a38ef3e92325_c.jpg?fit=around%7C1200%3A464\u0026crop=1200%3A464%3B0%2C0","locality":"Turramurra"},{"name":"Bellingen Gelato","vote":"33","reviews":"33","address":"688 Darling Street, Rozelle, SydneyRozelle","city":"Sydney","latitude":-33.8646846315,"longitude":151.1703290418,"price_range":5.0,"rating":4.2,"cuisine_string":["Ice Cream","Desserts"],"photo":"https://b.zmtcdn.com/data/res_imagery/16568395_RESTAURANT_23ca0529ad4dbd77185b7277c4b21562_c.jpg?fit=around%7C1200%3A464\u0026crop=1200%3A464%3B0%2C0","locality":"Rozelle"},{"name":"Imperial Hotel","vote":"39","reviews":"39","address":"252 Oxford Street, Paddington, SydneyPaddington","city":"Sydney","latitude":-33.8851650664,"longitude":151.2276441604,"price_range":40.0,"rating":3.6,"cuisine_string":["Modern Australian"],"photo":"https://b.zmtcdn.com/data/res_imagery/16558124_RESTAURANT_97d754b991af913be42268d9da524f3c.jpg?fit=around%7C1200%3A464\u0026crop=1200%3A464%3B0%2C0","locality":"Paddington"},{"name":"Mordeo Pasta \u0026 Panini Bar","vote":"27","reviews":"27","address":"2/126 Phillip Street, CBD, SydneyCBDNSW","city":"Sydney","latitude":-33.8666957587,"longitude":151.2120588496,"price_range":17.5,"rating":4.0,"cuisine_string":["Italian","Sandwich","Cafe Food","Coffee and Tea"],"photo":"https://b.zmtcdn.com/data/res_imagery/16567066_RESTAURANT_a3478bef4902341cc74eb4d3dd6eacdc.jpg?fit=around%7C1200%3A464\u0026crop=1200%3A464%3B0%2C0","locality":"CBD"},{"name":"Indian Kitchen","vote":"47","reviews":"47","address":"186 Lyons Road, Drummoyne, SydneyDrummoyneNSW","city":"Sydney","latitude":-33.8564419674,"longitude":151.1462086067,"price_range":30.0,"rating":3.5,"cuisine_string":["Indian"],"photo":"https://b.zmtcdn.com/data/reviews_photos/ba7/10c31b3da7d9e37df81cbc2915bd8ba7_1487495520.jpg?resize=1204%3A1605\u0026crop=1200%3A464%3B1%2C695","locality":"Drummoyne"},{"name":"Crown Dragon","vote":"25","reviews":"25","address":"St George Leagues Club, 124 Princes Highway, Beverley Park, SydneyBeverley ParkNSW","city":"Sydney","latitude":-33.9746487515,"longitude":151.1291155592,"price_range":50.0,"rating":3.7,"cuisine_string":["Chinese","Yum Cha"],"photo":"https://b.zmtcdn.com/data/res_imagery/16559055_RESTAURANT_406edb41db4cb18d36efdc0e7b1ea79b_c.jpg?fit=around%7C1200%3A464\u0026crop=1200%3A464%3B0%2C0","locality":"Beverley Park"},{"name":"Subterranean Greek Bar and Grill","vote":"31","reviews":"31","address":"Lower Ground Floor, GPO Grand, 1 Martin Place, \tCBDCBD","city":"Sydney","latitude":-33.8679215097,"longitude":151.2078353763,"price_range":40.0,"rating":4.0,"cuisine_string":["Greek","Mediterranean"],"photo":"https://b.zmtcdn.com/data/res_imagery/16562955_RESTAURANT_fd36dcfc313ff6b62cc4e26b211d7fc4_c.jpg?fit=around%7C1200%3A464\u0026crop=1200%3A464%3B0%2C0","locality":"CBD"},{"name":"Pakwaan Indian","vote":"36","reviews":"36","address":"FC09, Level 1, Harbourside Shopping Centre, 2-10 Darling Drive, Darling Harbour, SydneyDarling HarbourNSW","city":"Sydney","latitude":-33.871835833,"longitude":151.1990135908,"price_range":17.5,"rating":2.7,"cuisine_string":["Indian"],"photo":"https://b.zmtcdn.com/data/pictures/chains/6/16570156/37fd5c971e8de2bd3653f6b7cf0903c3.jpg?resize=1203%3A802\u0026crop=1200%3A464%3B0%2C223","locality":"Darling Harbour"},{"name":"I Love Manoush","vote":"17","reviews":"17","address":"2, 42-44 Railway Street, Lidcombe, SydneyLidcombe","city":"Sydney","latitude":-33.8644736052,"longitude":151.0451590642,"price_range":10.0,"rating":3.9,"cuisine_string":["Italian","Middle Eastern","Pizza"],"photo":"https://b.zmtcdn.com/data/reviews_photos/d9e/ea43682c5ff6d7328219e1dfb8c36d9e_1472352892.jpg?fit=around%7C1200%3A464\u0026crop=1200%3A464%3B%2A%2C%2A","locality":"Lidcombe"},{"name":"Soiree","vote":"15","reviews":"16","address":"102 Alfred Street, Milsons Point, SydneyMilsons PointNSW","city":"Sydney","latitude":-33.8447996518,"longitude":151.2108639255,"price_range":60.0,"rating":3.8,"cuisine_string":["Bakery","Desserts"],"photo":"https://b.zmtcdn.com/data/pictures/5/16714835/29a233cc08d688d3c01347a8d7741494.jpg?fit=around%7C1200%3A464\u0026crop=1200%3A464%3B%2A%2C%2A","locality":"Milsons Point"},{"name":"Jensens Restaurant","vote":"19","reviews":"19","address":"Kareela Village, Bates Drive, Kareela, SydneyKareelaNSW","city":"Sydney","latitude":-34.0171447928,"longitude":151.0805742815,"price_range":65.0,"rating":4.0,"cuisine_string":["Spanish"],"photo":"https://b.zmtcdn.com/data/reviews_photos/7cb/b70a4dc4ef776d9e58e7e8cd9900f7cb_1497092295.jpg?resize=1204%3A903\u0026crop=1200%3A464%3B0%2C195","locality":"Kareela"},{"name":"Atl Ayam Tulang Lunak Crispy","vote":"32","reviews":"32","address":"702-710 Botany Road, \tMascotMascot","city":"Sydney","latitude":-33.922741587,"longitude":151.1967427656,"price_range":15.0,"rating":3.8,"cuisine_string":["Indonesian"],"photo":"https://b.zmtcdn.com/data/res_imagery/16570287_RESTAURANT_4c2434f3f8a7b3214a4dfb42cfb111d1.jpg?fit=around%7C1200%3A464\u0026crop=1200%3A464%3B0%2C0","locality":"Mascot"},{"name":"Davo's Trattoria","vote":"37","reviews":"37","address":"Shop 9, 101 Nuwarra Road, Moorebank, SydneyMoorebankNSW","city":"Sydney","latitude":-33.9329924176,"longitude":150.953440927,"price_range":22.5,"rating":3.6,"cuisine_string":["Italian","Pizza"],"photo":"https://b.zmtcdn.com/data/res_imagery/16562150_RESTAURANT_2b495e063efe5ed6fb3b24fe08d72bbe_c.jpg?fit=around%7C1200%3A464\u0026crop=1200%3A464%3B0%2C0","locality":"Moorebank"},{"name":"Fusion Cafe","vote":"28","reviews":"28","address":"78-82, Burwood Road, Burwood, SydneyBurwood","city":"Sydney","latitude":-33.8731553212,"longitude":151.1048160866,"price_range":30.0,"rating":2.8,"cuisine_string":["Asian","Fusion","Coffee and Tea"],"photo":"https://b.zmtcdn.com/data/reviews_photos/bf9/55333d9de858fb510daa8883fb40ebf9_1501467293.jpg?resize=1204%3A1605\u0026crop=1200%3A464%3B0%2C442","locality":"Burwood"},{"name":"Sugarloaf Espresso","vote":"41","reviews":"41","address":"Shop 2, 95 O'Sullivan Road, Rose Bay, SydneyRose BayNSW","city":"Sydney","latitude":-33.8760057915,"longitude":151.2605790049,"price_range":22.5,"rating":3.8,"cuisine_string":["Cafe Food","Coffee and Tea"],"photo":"https://b.zmtcdn.com/data/res_imagery/16561077_RESTAURANT_d92e6dc3add7c34e5f9d2c35e53c626c.jpg?fit=around%7C1200%3A464\u0026crop=1200%3A464%3B0%2C0","locality":"Rose Bay"},{"name":"Frank's Original Philly Cheesesteak \u0026 Dogs","vote":"22","reviews":"22","address":"1003-1009 Canley Vale Road, Wetherill Park, SydneyWetherill Park","city":"Sydney","latitude":-33.8505310703,"longitude":150.8964208514,"price_range":12.5,"rating":4.1,"cuisine_string":["Fast Food"],"photo":"https://b.zmtcdn.com/data/reviews_photos/f82/e385a0ade9e4cd50bded81c44e28cf82_1503207507.JPG?fit=around%7C1200%3A464\u0026crop=1200%3A464%3B%2A%2C%2A","locality":"Wetherill Park"},{"name":"KOU Ramen","vote":"26","reviews":"26","address":"Shop 4008A, Level 4, Westpoint Shopping Centre, 17 Patrick Street, Blacktown, SydneyBlacktown","city":"Sydney","latitude":-33.7705329885,"longitude":150.9063225612,"price_range":30.0,"rating":3.9,"cuisine_string":["Japanese","Ramen"],"photo":"https://b.zmtcdn.com/data/reviews_photos/992/15da70233157dfaa8e54f9d8f736b992_1548076901.jpg?resize=1204%3A1605\u0026crop=1200%3A464%3B0%2C564","locality":"Blacktown"},{"name":"The End of King","vote":"36","reviews":"36","address":"609 - 611 King Street, Newtown, SydneyNewtown","city":"Sydney","latitude":-33.9062421924,"longitude":151.1809978634,"price_range":17.5,"rating":4.0,"cuisine_string":["Cafe Food","Coffee and Tea"],"photo":"https://b.zmtcdn.com/data/res_imagery/16570395_RESTAURANT_3e95c166d78c52bf7e1be88a003cdc8a_c.jpg?fit=around%7C1200%3A464\u0026crop=1200%3A464%3B0%2C0","locality":"Newtown"},{"name":"Burgercrave","vote":"37","reviews":"37","address":"Shop 4, 33 Bronte Road, Bondi Junction, SydneyBondi JunctionNSW","city":"Sydney","latitude":-33.8938201869,"longitude":151.2493395433,"price_range":15.0,"rating":3.8,"cuisine_string":["American","Burger"],"photo":"https://b.zmtcdn.com/data/res_imagery/16565009_RESTAURANT_a96b8b7f2ed660aa74a4058eb5d2caf3.jpg?fit=around%7C1200%3A464\u0026crop=1200%3A464%3B0%2C0","locality":"Bondi Junction"},{"name":"Haruki","vote":"27","reviews":"27","address":"20 Murray Street, Camden, SydneyCamden","city":"Sydney","latitude":-34.055992487,"longitude":150.6939247996,"price_range":25.0,"rating":3.8,"cuisine_string":["Japanese"],"photo":"https://b.zmtcdn.com/data/res_imagery/16566622_RESTAURANT_ee8977d3048fdcb6cf18784dac2cbb84_c.jpg?fit=around%7C1200%3A464\u0026crop=1200%3A464%3B0%2C0","locality":"Camden"},{"name":"Georgia's Kitchen","vote":"35","reviews":"35","address":"527 Illawarra Road, Marrickville, SydneyMarrickville","city":"Sydney","latitude":-33.9191862792,"longitude":151.1461278051,"price_range":27.5,"rating":3.5,"cuisine_string":["Greek","Modern Australian"],"photo":"https://b.zmtcdn.com/data/pictures/chains/0/16568440/c546981b0b68598f96dee0a35e8dbaf6.jpg?resize=1204%3A677\u0026crop=1200%3A464%3B1%2C121","locality":"Marrickville"},{"name":"Dymocks Cafe","vote":"30","reviews":"30","address":"428 George Street, CBD, SydneyCBD","city":"Sydney","latitude":-33.8703133855,"longitude":151.2075845897,"price_range":25.0,"rating":4.0,"cuisine_string":["Cafe Food","Coffee and Tea"],"photo":"https://b.zmtcdn.com/data/pictures/1/16563181/fadd85a35aeaf7373227c37ee9982fbc.jpg?resize=1204%3A899\u0026crop=1200%3A464%3B-1%2C149","locality":"CBD"},{"name":"Dinoni Cafe","vote":"14","reviews":"14","address":"8 Railway Parade, Thornleigh, Sydney, SydneyThornleigh","city":"Sydney","latitude":-33.7309577584,"longitude":151.079862155,"price_range":17.5,"rating":3.7,"cuisine_string":["Cafe Food","Coffee and Tea"],"photo":"https://b.zmtcdn.com/data/res_imagery/18469196_RESTAURANT_af80058c18daea50f785548d4c68a129.jpg?fit=around%7C1200%3A464\u0026crop=1200%3A464%3B0%2C0","locality":"Thornleigh"},{"name":"Nara Japanese Seafood Restaurant","vote":"32","reviews":"32","address":"37 Beecroft Road, Epping, SydneyEpping","city":"Sydney","latitude":-33.7737090534,"longitude":151.0820082575,"price_range":32.5,"rating":2.5,"cuisine_string":["Japanese","Seafood"],"photo":"https://b.zmtcdn.com/data/pictures/8/16561008/6f6e3d529bc4506fae0bafca2e90a5cd.jpg?fit=around%7C1200%3A464\u0026crop=1200%3A464%3B%2A%2C%2A","locality":"Epping"},{"name":"Sushi Maru","vote":"17","reviews":"17","address":"Norton Plaza Shopping Centre, 55 Norton Street, Leichhardt, SydneyLeichhardt","city":"Sydney","latitude":-33.8860187055,"longitude":151.1575010419,"price_range":20.0,"rating":3.5,"cuisine_string":["Sushi","Japanese"],"photo":"https://b.zmtcdn.com/data/res_imagery/17849060_RESTAURANT_25a9a293beddb6c03479f13688044fd4.jpg?fit=around%7C1200%3A464\u0026crop=1200%3A464%3B0%2C0","locality":"Leichhardt"},{"name":"Torinos Pizza Restaurant","vote":"45","reviews":"45","address":"155 Enmore Road, Enmore, SydneyEnmore","city":"Sydney","latitude":-33.8993802307,"longitude":151.1736811325,"price_range":20.0,"rating":3.5,"cuisine_string":["Italian","Pizza"],"photo":"https://b.zmtcdn.com/data/res_imagery/16559958_RESTAURANT_12e97a145e190cf160579756885c1312.jpg?fit=around%7C1200%3A464\u0026crop=1200%3A464%3B0%2C0","locality":"Enmore"},{"name":"Hotel Mosman","vote":"50","reviews":"50","address":"634 Military Road, Mosman, SydneyMosman","city":"Sydney","latitude":-33.8242786175,"longitude":151.239602454,"price_range":45.0,"rating":3.9,"cuisine_string":["Modern Australian"],"photo":"https://b.zmtcdn.com/data/res_imagery/16558072_RESTAURANT_3a4973f53aa9b47c88d062eadf7e5a60.jpg?fit=around%7C1200%3A464\u0026crop=1200%3A464%3B0%2C0","locality":"Mosman"},{"name":"Chez Pascal","vote":"41","reviews":"41","address":"440 Rocky Point Road, Sans Souci, SydneySans SouciNSW","city":"Sydney","latitude":-33.9893360279,"longitude":151.1340558529,"price_range":50.0,"rating":3.9,"cuisine_string":["French"],"photo":"https://b.zmtcdn.com/data/res_imagery/16557566_RESTAURANT_6a5247db4f5f9b2ec65aa2793a2c81c9.jpg?fit=around%7C1200%3A464\u0026crop=1200%3A464%3B0%2C0","locality":"Sans Souci"},{"name":"5 Star Thaitanic","vote":"37","reviews":"37","address":"28 Casula Road, Casula, SydneyNSW","city":"Sydney","latitude":-33.94537,"longitude":150.889755,"price_range":20.0,"rating":2.7,"cuisine_string":["Thai"],"photo":"https://b.zmtcdn.com/data/res_imagery/16561777_RESTAURANT_7a965506b4f796381b557890670170b9.jpg?fit=around%7C1200%3A464\u0026crop=1200%3A464%3B0%2C0","locality":"Prestons"},{"name":"Yatai Bento","vote":"36","reviews":"36","address":"Shop 83A, 1-55 West Parade, West Ryde, SydneyWest RydeNSW","city":"Sydney","latitude":-33.8069489414,"longitude":151.0899432376,"price_range":22.5,"rating":3.9,"cuisine_string":["Japanese","Sushi"],"photo":"https://b.zmtcdn.com/data/res_imagery/16566057_RESTAURANT_bc4592b2b879a8029c4ebea0ac834ad3_c.jpg?fit=around%7C1200%3A464\u0026crop=1200%3A464%3B0%2C0","locality":"West Ryde"},{"name":"Thainabox","vote":"39","reviews":"39","address":"148 Curlewis Street, Bondi Beach, SydneyBondi BeachNSW","city":"Sydney","latitude":-33.8893396616,"longitude":151.2750636041,"price_range":30.0,"rating":3.8,"cuisine_string":["Thai"],"photo":"https://b.zmtcdn.com/data/res_imagery/16561103_CHAIN_6ccf675dbb5f25e52151327226198f15_c.jpg?fit=around%7C1200%3A464\u0026crop=1200%3A464%3B0%2C0","locality":"Bondi Beach"},{"name":"Quay \u0026 Co","vote":"29","reviews":"29","address":"Ground Floor, Gateway Building, Alfred Street \u0026 Loftus Street, CBD, SydneyCBDNSW","city":"Sydney","latitude":-33.861856891,"longitude":151.2097675726,"price_range":35.0,"rating":3.9,"cuisine_string":["Greek"],"photo":"https://b.zmtcdn.com/data/res_imagery/18441408_RESTAURANT_c07ef1648ba72361c16922cd2c961503.jpg?fit=around%7C1200%3A464\u0026crop=1200%3A464%3B0%2C0","locality":"CBD"},{"name":"Chatswood BBQ \u0026 Hot Pot","vote":"34","reviews":"34","address":"377 Victoria Avenue, Chatswood, SydneyChatswood","city":"Sydney","latitude":-33.7954383606,"longitude":151.1854650825,"price_range":20.0,"rating":3.6,"cuisine_string":["Chinese","BBQ","Hot Pot"],"photo":"https://b.zmtcdn.com/data/reviews_photos/643/959e59e297eac9230038f2261838f643_1501988194.jpg?resize=1204%3A1605\u0026crop=1200%3A464%3B2%2C705","locality":"Chatswood"},{"name":"JP McCaffrey's","vote":"29","reviews":"29","address":"143-145 Dolphin Street, Coogee, SydneyCoogee","city":"Sydney","latitude":-33.9188337729,"longitude":151.2575799599,"price_range":17.5,"rating":2.5,"cuisine_string":["Fish and Chips"],"photo":"https://b.zmtcdn.com/data/reviews_photos/ea7/eb99e9db811bfad305ffeec463cf3ea7_1481977727.jpg?fit=around%7C1200%3A464\u0026crop=1200%3A464%3B%2A%2C%2A","locality":"Coogee"},{"name":"Le Castella","vote":"32","reviews":"32","address":"Shop 15A, Burray Place Arcade, 122-133 Burwood Road, Burwood, SydneyBurwood","city":"Sydney","latitude":-33.8779131038,"longitude":151.102979444,"price_range":12.5,"rating":2.8,"cuisine_string":["Taiwanese"],"photo":"https://b.zmtcdn.com/data/reviews_photos/986/2cee3688ea7aec2eda778debb5403986_1520750351.jpg?resize=1204%3A1605\u0026crop=1200%3A464%3B34%2C714","locality":"Burwood"},{"name":"Tany's Japanese","vote":"39","reviews":"39","address":"92 Redfern Street, Redfern, SydneyRedfern","city":"Sydney","latitude":-33.8930041972,"longitude":151.2054106593,"price_range":31.0,"rating":3.8,"cuisine_string":["Japanese"],"photo":"https://b.zmtcdn.com/data/reviews_photos/e93/eaede561a90cd88da8ce42fb03e67e93_1534997153.jpg?resize=1204%3A903\u0026crop=1200%3A464%3B2%2C225","locality":"Redfern"},{"name":"Little Greece","vote":"22","reviews":"22","address":"Shop 9, 15 Phillip Street, Parramatta, SydneyParramatta","city":"Sydney","latitude":-33.8122463808,"longitude":151.0034202039,"price_range":15.0,"rating":3.9,"cuisine_string":["Greek"],"photo":"https://b.zmtcdn.com/data/res_imagery/15545703_CHAIN_c85132795887f0cf55caa045c3fa41c8.jpg?fit=around%7C1200%3A464\u0026crop=1200%3A464%3B0%2C0","locality":"Parramatta"},