[{"name":"Mister Gee Burger Truck","vote":"239","reviews":"239","address":"Location VariesNSW","city":"Sydney","latitude":-33.8748233033,"longitude":151.1283920333,"price_range":15,"rating":4.6,"cuisine_string":["American","Burger"],"photo":"https://b.zmtcdn.com/data/reviews_photos/370/9f4367e41228d4f2e061bc0a99507370.jpg?fit=around%7C1200%3A464\u0026crop=1200%3A464%3B0%2C318","locality":"Inner West"},{"name":"Indigo","vote":"219","reviews":"219","address":"1 Transvaal Avenue, Double Bay, SydneyDouble Bay","city":"Sydney","latitude":-33.8763537428,"longitude":151.2441196293,"price_range":25,"rating":4.4,"cuisine_string":["Modern Australian","Coffee and Tea","Cafe Food"],"photo":"https://b.zmtcdn.com/data/pictures/2/16563162/995737fa82359049cdba6c018c664bc4.jpg?resize=1204%3A1204\u0026crop=1200%3A464%3B-4%2C340","locality":"Double Bay"},{"name":"V Lounge","vote":"182","reviews":"182","address":"Shop 3, 239 Canley Vale Road, Canley Heights, SydneyCanley Heights","city":"Sydney","latitude":-33.8835334703,"longitude":150.9242494404,"price_range":25,"rating":4.2,"cuisine_string":["Italian","Cafe Food","Coffee and Tea"],"photo":"https://b.zmtcdn.com/data/res_imagery/16567236_RESTAURANT_d4efa18a3824e5101a712d99557c4cf3_c.jpg?fit=around%7C1200%3A464\u0026crop=1200%3A464%3B0%2C0","locality":"Canley Heights"},{"name":"Efendy Restaurant - Meze Bar","vote":"285","reviews":"286","address":"79 Elliott Street, Balmain, SydneyBalmainNSW","city":"Sydney","latitude":-33.8564929192,"longitude":151.1725324765,"price_range":50,"rating":4.4,"cuisine_string":["Turkish"],"photo":"https://b.zmtcdn.com/data/pictures/8/16557778/8ab1a384c29185fdda04de73f583b1f1.jpg?resize=1204%3A802\u0026crop=1200%3A464%3B-3%2C232","locality":"Balmain"},{"name":"Two Sis \u0026 Co.","vote":"161","reviews":"161","address":"306 Harris street, Pyrmont, SydneyPyrmontNSW","city":"Sydney","latitude":-33.8730069494,"longitude":151.1960420385,"price_range":20,"rating":4.2,"cuisine_string":["Coffee and Tea","Cafe Food"],"photo":"https://b.zmtcdn.com/data/pictures/4/17744374/27c8cea8ad448eb0ef1c01fd1bc92bb7.jpg?resize=1204%3A1505\u0026crop=1200%3A464%3B-2%2C489","locality":"Pyrmont"},{"name":"Prime Steak Restaurant","vote":"213","reviews":"213","address":"Lower Ground Floor, GPO Grand, 1 Martin Place, CBD, SydneyCBDNSW","city":"Sydney","latitude":-33.8678691727,"longitude":151.2080787867,"price_range":100,"rating":4.5,"cuisine_string":["French","Steak"],"photo":"https://b.zmtcdn.com/data/pictures/2/16558782/e894873074cf14554a4fa5e605f917f8.jpg?resize=1204%3A1204\u0026crop=1200%3A464%3B-2%2C401","locality":"CBD"},{"name":"Butter Sydney","vote":"228","reviews":"228","address":"6 Hunt Street, \tSurry HillsSurry Hills","city":"Sydney","latitude":-33.8791765495,"longitude":151.2106399611,"price_range":17,"rating":4.4,"cuisine_string":["American","Fried Chicken"],"photo":"https://b.zmtcdn.com/data/res_imagery/18269271_RESTAURANT_982b50d1257fb64325ee29bb2fc4327c.jpg?fit=around%7C1200%3A464\u0026crop=1200%3A464%3B0%2C0","locality":"Surry Hills"},{"name":"Marukame Udon","vote":"246","reviews":"247","address":"332 Victoria Avenue, Chatswood, SydneyChatswood","city":"Sydney","latitude":-33.7959120203,"longitude":151.1848572269,"price_range":15,"rating":4.3,"cuisine_string":["Japanese","Fast Food"],"photo":"https://b.zmtcdn.com/data/res_imagery/16568225_RESTAURANT_001ff10c81ef3aa364dbf04bd2840bc2_c.jpg?fit=around%7C1200%3A464\u0026crop=1200%3A464%3B0%2C0","locality":"Chatswood"},{"name":"Il Baretto","vote":"388","reviews":"388","address":"496 Bourke Street, Surry Hills, SydneySurry Hills","city":"Sydney","latitude":-33.8876179685,"longitude":151.2154883891,"price_range":35,"rating":4.3,"cuisine_string":["Italian"],"photo":"https://b.zmtcdn.com/data/res_imagery/16558103_RESTAURANT_4e42c92e2fce6fcbbfbbe01cb3ee2d31.jpg?fit=around%7C1200%3A464\u0026crop=1200%3A464%3B0%2C0","locality":"Surry Hills"},{"name":"Riley St Garage","vote":"212","reviews":"212","address":"55 Riley Street, Woolloomooloo, SydneyWoolloomoolooNSW","city":"Sydney","latitude":-33.8736683572,"longitude":151.2153955177,"price_range":50,"rating":4.4,"cuisine_string":["Seafood","Modern Australian","Brasserie"],"photo":"https://b.zmtcdn.com/data/res_imagery/16567594_RESTAURANT_ab8f96a6dfe95c674394c4c4adeba3d2_c.jpg?fit=around%7C1200%3A464\u0026crop=1200%3A464%3B0%2C0","locality":"Woolloomooloo"},{"name":"The Spice Room","vote":"243","reviews":"243","address":"Ground Floor, The Quay Building, 2 Phillip Street, Circular Quay, SydneyCircular QuayNSW","city":"Sydney","latitude":-33.8617355052,"longitude":151.2123609334,"price_range":40,"rating":4.3,"cuisine_string":["Indian","Pakistani"],"photo":"https://b.zmtcdn.com/data/pictures/chains/7/16569497/fb864d083f02a3470d057de34f37d0d9.jpg?resize=1204%3A802\u0026crop=1200%3A464%3B2%2C292","locality":"Circular Quay"},{"name":"Bar Reggio","vote":"371","reviews":"371","address":"135 Crown Street, Darlinghurst, SydneyDarlinghurst","city":"Sydney","latitude":-33.8761313325,"longitude":151.2157928199,"price_range":30,"rating":4.3,"cuisine_string":["Italian","Pizza"],"photo":"https://b.zmtcdn.com/data/res_imagery/16557244_RESTAURANT_af586ed2eff3aa86d4ba0a8010311253.jpg?fit=around%7C1200%3A464\u0026crop=1200%3A464%3B0%2C0","locality":"Darlinghurst"},{"name":"The Baron","vote":"266","reviews":"266","address":"Shop 461, 4-16 Castle Street, \tCastle HillCastle Hill","city":"Sydney","latitude":-33.7316188708,"longitude":151.0064021498,"price_range":25,"rating":4.2,"cuisine_string":["Australian","Cafe Food","Coffee and Tea"],"photo":"https://b.zmtcdn.com/data/reviews_photos/1f1/d8109a5ba67e85be5f97415e0acc71f1_1486819804.jpg?resize=1204%3A803\u0026crop=1200%3A464%3B-7%2C171","locality":"Castle Hill"},{"name":"Textbook Boulangerie-Patisserie","vote":"177","reviews":"177","address":"274 Botany Road, Alexandria, SydneyAlexandria","city":"Sydney","latitude":-33.9035224072,"longitude":151.2024243549,"price_range":17,"rating":4.5,"cuisine_string":["Bakery","Desserts"],"photo":"https://b.zmtcdn.com/data/pictures/7/15545067/39c58587525293cf67c7bb629342c994.jpg?resize=1204%3A963\u0026crop=1200%3A464%3B0%2C163","locality":"Alexandria"},{"name":"Ampersand Cafe","vote":"222","reviews":"222","address":"78 Oxford Street, Paddington, SydneyPaddington","city":"Sydney","latitude":-33.8833027286,"longitude":151.2212427333,"price_range":22,"rating":4.4,"cuisine_string":["Sandwich","Cafe Food","Coffee and Tea"],"photo":"https://b.zmtcdn.com/data/pictures/chains/2/16562172/7b701e69fe08fd7071f9da53f0a776ad.jpg?resize=1204%3A1806\u0026crop=1200%3A464%3B-5%2C1067","locality":"Paddington"},{"name":"Casa Ristorante Italiano","vote":"255","reviews":"255","address":"42-48 The Promenade, Darling Harbour, Sydney NSW 2000Darling HarbourNSW","city":"Sydney","latitude":-33.8682700507,"longitude":151.2015432492,"price_range":50,"rating":3.8,"cuisine_string":["Italian"],"photo":"https://b.zmtcdn.com/data/res_imagery/16557520_RESTAURANT_1dd9e3a2e8d35c8b834f1b30a2692884_c.jpg?fit=around%7C1200%3A464\u0026crop=1200%3A464%3B0%2C0","locality":"Darling Harbour"},{"name":"The Usual Cafe","vote":"223","reviews":"223","address":"Shop 8, 46 Hill Street, Cabramatta, SydneyCabramatta","city":"Sydney","latitude":-33.8941469145,"longitude":150.9347362071,"price_range":17,"rating":4.4,"cuisine_string":["Cafe Food","Coffee and Tea"],"photo":"https://b.zmtcdn.com/data/res_imagery/18233496_RESTAURANT_3b438e8134a957946e0f66dda13897ba.jpg?fit=around%7C1200%3A464\u0026crop=1200%3A464%3B0%2C0","locality":"Cabramatta"},{"name":"Local Mbassy","vote":"238","reviews":"239","address":"310 Wattle Street, Pirrama Park Cafe UltimoUltimoNSW","city":"Sydney","latitude":-33.878717547,"longitude":151.1958147213,"price_range":22,"rating":4.2,"cuisine_string":["Modern Australian"],"photo":"https://b.zmtcdn.com/data/reviews_photos/44f/f6ef0cd23967b9a143d644805a49c44f_1508294412.jpg?resize=1204%3A1605\u0026crop=1200%3A464%3B-1%2C726","locality":"Ultimo"},{"name":"Guylian Belgian Chocolate Café","vote":"292","reviews":"292","address":"91 George Street, The Rocks, SydneyThe Rocks","city":"Sydney","latitude":-33.8593656623,"longitude":151.208694689,"price_range":17,"rating":3.9,"cuisine_string":["Coffee and Tea","Desserts","Belgian","Cafe Food"],"photo":"https://b.zmtcdn.com/data/pictures/4/16560204/d31821ea730b003f420e9f7d2e76dbf8.jpg?resize=1204%3A602\u0026crop=1200%3A464%3B2%2C119","locality":"The Rocks"},{"name":"Nazimi","vote":"262","reviews":"262","address":"Lower ground, 141 York Street, CBDCBD","city":"Sydney","latitude":-33.8725712971,"longitude":151.207274124,"price_range":25,"rating":4.2,"cuisine_string":["Japanese","Sushi","Asian","Hot Pot","Seafood","Steak","Teriyaki","Healthy Food"],"photo":"https://b.zmtcdn.com/data/res_imagery/16560310_RESTAURANT_fd4c2da22c359f5e34b09a9655ac03ce.jpg?fit=around%7C1200%3A464\u0026crop=1200%3A464%3B0%2C0","locality":"CBD"},{"name":"Brasserie Bread","vote":"240","reviews":"240","address":"1737 Botany Road, Botany Bay, SydneyNSW","city":"Sydney","latitude":-33.9594597691,"longitude":151.2096327916,"price_range":20,"rating":4.5,"cuisine_string":["Bakery","Cafe Food","Coffee and Tea"],"photo":"https://b.zmtcdn.com/data/res_imagery/16557404_RESTAURANT_bd291f4aabe087b99335a23cc99636b8.jpg?fit=around%7C1200%3A464\u0026crop=1200%3A464%3B0%2C0","locality":"Banksmeadow"},{"name":"Chef's Palette","vote":"189","reviews":"189","address":"Shops 3-4, 12 Churchill Avenue, Strathfield, SydneyStrathfield","city":"Sydney","latitude":-33.8726124962,"longitude":151.0935588554,"price_range":25,"rating":4.0,"cuisine_string":["Coffee and Tea","Cafe Food"],"photo":"https://b.zmtcdn.com/data/res_imagery/15546427_RESTAURANT_5522e7f677f157f38c2d73d58e8267c2.jpg?fit=around%7C1200%3A464\u0026crop=1200%3A464%3B0%2C0","locality":"Strathfield"},{"name":"Brickfields","vote":"287","reviews":"287","address":"206 Cleveland Street, Chippendale, SydneyChippendale","city":"Sydney","latitude":-33.8885954358,"longitude":151.199824959,"price_range":15,"rating":4.3,"cuisine_string":["Bakery","Cafe Food","Coffee and Tea"],"photo":"https://b.zmtcdn.com/data/reviews_photos/180/bfe5c3cba83e2352991a00c411a6a180_1525440094.jpg?resize=1204%3A803\u0026crop=1200%3A464%3B7%2C187","locality":"Chippendale"},{"name":"Lynn Shanghai Cuisine","vote":"276","reviews":"276","address":"199 Castlereagh Street, CBD, SydneyCBDNSW","city":"Sydney","latitude":-33.8736753164,"longitude":151.2095647305,"price_range":35,"rating":4.1,"cuisine_string":["Chinese","Asian","Dumplings","Seafood","Sichuan","Shanghai"],"photo":"https://b.zmtcdn.com/data/res_imagery/16564294_RESTAURANT_04f9991e8b5ccf919e4a25a14770f416_c.JPG?fit=around%7C1200%3A464\u0026crop=1200%3A464%3B0%2C0","locality":"CBD"},{"name":"Hunter \u0026 Barrel","vote":"219","reviews":"219","address":"Roof Terrace, Level 2, Cockle Bay Wharf, Darling Harbour, SydneyDarling HarbourNSW","city":"Sydney","latitude":-33.8713127644,"longitude":151.2024310604,"price_range":30,"rating":4.3,"cuisine_string":["Steak"],"photo":"https://b.zmtcdn.com/data/res_imagery/15545861_RESTAURANT_57ca00f55657c7cbf7325c2f92380300.jpg?fit=around%7C1200%3A464\u0026crop=1200%3A464%3B0%2C0","locality":"Darling Harbour"},{"name":"Badde Manors","vote":"320","reviews":"320","address":"37 Glebe Point Road, Glebe, SydneyGlebe","city":"Sydney","latitude":-33.8836294965,"longitude":151.1920582876,"price_range":22,"rating":4.2,"cuisine_string":["Vegetarian","Cafe Food","Coffee and Tea"],"photo":"https://b.zmtcdn.com/data/pictures/chains/4/16557194/87b0b54ff635733734b9a85e9b736f3c.jpg?resize=1204%3A803\u0026crop=1200%3A464%3B-5%2C270","locality":"Glebe"},{"name":"Cavalier 2.0","vote":"181","reviews":"181","address":"96-97/ 545 Pacific Hwy, St Leonards, 2065\n(Entry via Clarke Lane)St LeonardsNSW","city":"Sydney","latitude":-33.8246437698,"longitude":151.1984456331,"price_range":20,"rating":4.4,"cuisine_string":["Cafe Food","Coffee and Tea"],"photo":"https://b.zmtcdn.com/data/res_imagery/18220345_RESTAURANT_d29d836cd9b93a882359f96829422052.jpg?fit=around%7C1200%3A464\u0026crop=1200%3A464%3B0%2C0","locality":"St Leonards"},{"name":"The Butler","vote":"238","reviews":"238","address":"123 Victoria Street, Potts Point, Potts Point, SydneyPotts PointNSW","city":"Sydney","latitude":-33.8716988723,"longitude":151.2227011845,"price_range":47,"rating":4.6,"cuisine_string":["Contemporary","Modern Australian"],"photo":"https://b.zmtcdn.com/data/pictures/4/16569974/56ac817899651b812088a25a7d611497.jpeg?resize=1204%3A801\u0026crop=1200%3A464%3B0%2C92","locality":"Potts Point"},{"name":"Mama's Buoi","vote":"211","reviews":"211","address":"116 Devonshire Street, Surry HillsSurry Hills","city":"Sydney","latitude":-33.8866942071,"longitude":151.2088690326,"price_range":62,"rating":4.2,"cuisine_string":["Vietnamese","Salad"],"photo":"https://b.zmtcdn.com/data/res_imagery/16569741_RESTAURANT_aaac924f04499820e2343c623b1cb816_c.jpg?fit=around%7C1200%3A464\u0026crop=1200%3A464%3B0%2C0","locality":"Surry Hills"},{"name":"Kid Kyoto","vote":"171","reviews":"171","address":"17-19 Bridge Street, CBD, SydneyCBDNSW","city":"Sydney","latitude":-33.8638254894,"longitude":151.2081827223,"price_range":50,"rating":4.4,"cuisine_string":["Japanese","Fusion"],"photo":"https://b.zmtcdn.com/data/pictures/chains/7/17743577/b1e065f5074b62add6c962ec82df65a7.jpeg?resize=1204%3A801\u0026crop=1200%3A464%3B-2%2C191","locality":"CBD"},{"name":"360 Bar and Dining","vote":"220","reviews":"220","address":"Sydney Tower Dining, Level 4 Westfield Sydney, Between Pitt \u0026 Castlereagh Streets, Sydney, NSW","city":"Sydney","latitude":-33.8704598133,"longitude":151.2090691924,"price_range":100,"rating":4.1,"cuisine_string":["Modern Australian"],"photo":"https://b.zmtcdn.com/data/pictures/3/16557063/e81e1604b8081711d8c53b00a5144418.jpg?resize=1204%3A803\u0026crop=1200%3A464%3B0%2C154","locality":"CBD"},{"name":"Harry's Bondi","vote":"219","reviews":"219","address":"Shop 2, 136 Wairoa Avenue, Bondi Beach, SydneyBondi BeachNSW","city":"Sydney","latitude":-33.8883187847,"longitude":151.2784492225,"price_range":42,"rating":4.5,"cuisine_string":["Coffee and Tea","Cafe Food"],"photo":"https://b.zmtcdn.com/data/res_imagery/16565708_RESTAURANT_0434d247c58f991a68b7b58dce7b6a2e.jpg?fit=around%7C1200%3A464\u0026crop=1200%3A464%3B0%2C0","locality":"Bondi Beach"},{"name":"Song Kitchen","vote":"114","reviews":"114","address":"5/11 Wentworth Avenue, CBD, SydneyCBDNSW","city":"Sydney","latitude":-33.877327,"longitude":151.211649,"price_range":25,"rating":4.8,"cuisine_string":["Mediterranean","Modern Australian"],"photo":"https://b.zmtcdn.com/data/pictures/2/15548982/0dc50fd79bd52463c26a25b5aabb4bfe.jpg?resize=1204%3A492\u0026crop=1200%3A464%3B-2%2C15","locality":"CBD"},{"name":"House of Crabs","vote":"237","reviews":"237","address":"The Norfolk, Level 1, 305 Cleveland Street, Redfern, SydneyRedfernNSW","city":"Sydney","latitude":-33.890586,"longitude":151.209282,"price_range":55,"rating":3.9,"cuisine_string":["American","Seafood"],"photo":"https://b.zmtcdn.com/data/res_imagery/16567659_RESTAURANT_88fcefd97a2d0859847fcd14ff02955f.jpg?fit=around%7C1200%3A464\u0026crop=1200%3A464%3B0%2C0","locality":"Redfern"},{"name":"Mas.Que","vote":"111","reviews":"111","address":"Shop 2, Ground Floor, 38-46 Albany Street, St Leonards, SydneySt LeonardsNSW","city":"Sydney","latitude":-33.8237251762,"longitude":151.1984902248,"price_range":40,"rating":4.6,"cuisine_string":["Coffee and Tea","Fusion","Cafe Food","Asian Fusion","Desserts","Taiwanese"],"photo":"https://b.zmtcdn.com/data/res_imagery/15548010_RESTAURANT_d6dd6078dc1e898fe1086696f2ef1359.jpg?fit=around%7C1200%3A464\u0026crop=1200%3A464%3B0%2C0","locality":"St Leonards"},{"name":"Dos Senoritas","vote":"322","reviews":"322","address":"2/3-7 Cowell Street, Gladesville, SydneyGladesville","city":"Sydney","latitude":-33.832726021,"longitude":151.1279270053,"price_range":37,"rating":4.3,"cuisine_string":["Mexican"],"photo":"https://b.zmtcdn.com/data/res_imagery/16562970_RESTAURANT_ca07f2232dd0aea4e9be7f3ca6c2fc1d_c.jpg?fit=around%7C1200%3A464\u0026crop=1200%3A464%3B0%2C0","locality":"Gladesville"},{"name":"Zeus Street Greek","vote":"256","reviews":"256","address":"187-189 Lyons Road, Drummoyne, SydneyDrummoyneNSW","city":"Sydney","latitude":-33.856617932,"longitude":151.1463266239,"price_range":27,"rating":4.2,"cuisine_string":["Greek"],"photo":"https://b.zmtcdn.com/data/pictures/chains/2/16569012/331b0cc409914ac95a5b01534b2c7ff9.jpg?resize=1204%3A902\u0026crop=1200%3A464%3B0%2C291","locality":"Drummoyne"},{"name":"Yok Yor","vote":"259","reviews":"259","address":"Shop G06, 323 Castlereagh Street, Haymafket, Sydney, Haymarket, SydneyHaymarket","city":"Sydney","latitude":-33.879661436,"longitude":151.20786421,"price_range":27,"rating":4.2,"cuisine_string":["Thai"],"photo":"https://b.zmtcdn.com/data/reviews_photos/c75/8cc1791e690d6fc291432d6e7e5c0c75_1538119069.jpg?resize=1204%3A1204\u0026crop=1200%3A464%3B1%2C331","locality":"Haymarket"},{"name":"Rice Workshop","vote":"298","reviews":"298","address":"Level 5, Westfield Pitt Street Mall, 188 Pitt Street, CBD, SydneyCBDNSW","city":"Sydney","latitude":-33.8705455542,"longitude":151.209884584,"price_range":10,"rating":4.1,"cuisine_string":["Japanese"],"photo":"https://b.zmtcdn.com/data/res_imagery/15544529_RESTAURANT_b6c69c1462ab428ecf1ff2e2107d62c5.jpg?fit=around%7C1200%3A464\u0026crop=1200%3A464%3B0%2C0","locality":"CBD"},{"name":"Candelori's","vote":"233","reviews":"233","address":"685 The Horsley Drive, Smithfield, SydneySmithfieldNSW","city":"Sydney","latitude":-33.8532734277,"longitude":150.9396000579,"price_range":55,"rating":4.2,"cuisine_string":["Italian","Pizza","Seafood"],"photo":"https://b.zmtcdn.com/data/reviews_photos/247/80a5783975f7574a23d6bf1f5ff59247_1494418981.jpg?resize=1204%3A1605\u0026crop=1200%3A464%3B0%2C500","locality":"Smithfield"},{"name":"The Missing Piece Cafe","vote":"245","reviews":"245","address":"Level 3, Macquarie Centre, Corner Of Herring Road And Waterloo Road, Macquarie Park, SydneyMacquarie Park","city":"Sydney","latitude":-33.7778425551,"longitude":151.1225505173,"price_range":22,"rating":4.1,"cuisine_string":["Cafe Food","Coffee and Tea"],"photo":"https://b.zmtcdn.com/data/reviews_photos/c6d/9bb6ca362c8777c1f07b50c4e61dcc6d_1507712465.JPG?resize=1204%3A840\u0026crop=1200%3A464%3B0%2C118","locality":"Macquarie Park"},{"name":"Watsons Bay Boutique Hotel","vote":"217","reviews":"217","address":"1 Military Road, Watsons Bay, NSWWatsons BayNSW","city":"Sydney","latitude":-33.8429587108,"longitude":151.2825476378,"price_range":55,"rating":4.1,"cuisine_string":["Seafood","Modern Australian"],"photo":"https://b.zmtcdn.com/data/res_imagery/16567897_RESTAURANT_dfa143547b721d73990ab94b9298bf6b.jpg?fit=around%7C1200%3A464\u0026crop=1200%3A464%3B0%2C0","locality":"Watsons Bay"},{"name":"Espresso Organica","vote":"251","reviews":"251","address":"43 Majors Bay Road, Concord, SydneyConcord","city":"Sydney","latitude":-33.8567677245,"longitude":151.1036087573,"price_range":25,"rating":4.0,"cuisine_string":["Australian","Italian","Pizza","Salad"],"photo":"https://b.zmtcdn.com/data/res_imagery/16564007_RESTAURANT_1769031086ad81e4c83cd1407eda5668.jpg?fit=around%7C1200%3A464\u0026crop=1200%3A464%3B0%2C0","locality":"Concord"},{"name":"Monopole","vote":"226","reviews":"226","address":"71A Macleay Street, Potts Point, SydneyPotts PointNSW","city":"Sydney","latitude":-33.8693838691,"longitude":151.2253119797,"price_range":55,"rating":4.3,"cuisine_string":["Modern Australian"],"photo":"https://b.zmtcdn.com/data/res_imagery/16565620_RESTAURANT_62d7dc9adf8136886e188704460a84b7_c.jpg?fit=around%7C1200%3A464\u0026crop=1200%3A464%3B0%2C0","locality":"Potts Point"},{"name":"Blackwood Pantry","vote":"166","reviews":"166","address":"5/33 Surf Lane, Cronulla, SydneyCronulla","city":"Sydney","latitude":-34.0540355525,"longitude":151.1530509219,"price_range":30,"rating":4.7,"cuisine_string":["Coffee and Tea","Cafe Food"],"photo":"https://b.zmtcdn.com/data/reviews_photos/4b9/3153a9029484cbf12f0fc58f0d7ec4b9_1530975884.jpg?resize=1204%3A903\u0026crop=1200%3A464%3B3%2C221","locality":"Cronulla"},{"name":"Shortstop Coffee \u0026 Donuts","vote":"195","reviews":"195","address":"Shop 3, 23 Barangaroo Avenue, Barangaroo, SydneyBarangaroo","city":"Sydney","latitude":-33.8643405303,"longitude":151.2014242262,"price_range":7,"rating":4.5,"cuisine_string":["Desserts","Coffee and Tea","American"],"photo":"https://b.zmtcdn.com/data/res_imagery/15547077_RESTAURANT_95df18a0b55bae7339e6acbab3db6191.jpg?fit=around%7C1200%3A464\u0026crop=1200%3A464%3B0%2C0","locality":"Barangaroo"},{"name":"Oscillate Wildly","vote":"208","reviews":"208","address":"275 Australia Street, Newtown, SydneyNewtown","city":"Sydney","latitude":-33.8970072587,"longitude":151.1784494296,"price_range":130,"rating":4.3,"cuisine_string":["Contemporary"],"photo":"https://b.zmtcdn.com/data/pictures/4/16558644/5e9fe4fb5207c33a3aee6f44130fa20c.jpg?resize=1204%3A559\u0026crop=1200%3A464%3B-5%2C39","locality":"Newtown"},{"name":"Jugemu \u0026 Shimbashi","vote":"253","reviews":"253","address":"246 Military Road, Neutral Bay, SydneyNeutral Bay","city":"Sydney","latitude":-33.8310212891,"longitude":151.2242605537,"price_range":30,"rating":4.3,"cuisine_string":["Japanese"],"photo":"https://b.zmtcdn.com/data/res_imagery/16558194_RESTAURANT_cb0fbb7d55d121d9b5a6d5f68585667c.jpg?fit=around%7C1200%3A464\u0026crop=1200%3A464%3B0%2C0","locality":"Neutral Bay"},{"name":"Workshop Espresso","vote":"373","reviews":"373","address":"Shop RG01A, 500 George Street, CBD, SydneyCBD","city":"Sydney","latitude":-33.8728273997,"longitude":151.2072654069,"price_range":12,"rating":4.3,"cuisine_string":["Coffee and Tea","Cafe Food"],"photo":"https://b.zmtcdn.com/data/res_imagery/16562081_RESTAURANT_bf27f21b41f1ee074a931eae5d8f719b.jpg?fit=around%7C1200%3A464\u0026crop=1200%3A464%3B0%2C0","locality":"CBD"},{"name":"Five Points Burgers","vote":"333","reviews":"333","address":"124 Walker Street, North Sydney, SydneyNorth Sydney","city":"Sydney","latitude":-33.8373050394,"longitude":151.2089863792,"price_range":20,"rating":4.6,"cuisine_string":["Burger","American"],"photo":"https://b.zmtcdn.com/data/reviews_photos/0f5/a8d5d180cf923418bb0d0b0453a880f5_1536015550.jpg?resize=1204%3A1605\u0026crop=1200%3A464%3B2%2C583","locality":"North Sydney"},{"name":"Sushi Bar Makoto Chatswood","vote":"268","reviews":"268","address":"336 Victoria Avenue, Chatswood, SydneyChatswood","city":"Sydney","latitude":-33.795960222,"longitude":151.1847549677,"price_range":20,"rating":4.2,"cuisine_string":["Japanese","Sushi"],"photo":"https://b.zmtcdn.com/data/pictures/chains/2/16558412/558f8dfe9b10a27668a806f61999d781.jpg?resize=1204%3A825\u0026crop=1200%3A464%3B0%2C110","locality":"Chatswood"},{"name":"Braza","vote":"314","reviews":"314","address":"Shop 18-19, Darling Quarter, 1-25 Harbour Street, Darling Harbour, SydneyDarling HarbourNSW","city":"Sydney","latitude":-33.8757446879,"longitude":151.2025309727,"price_range":42,"rating":4.2,"cuisine_string":["BBQ","Brazilian","Salad"],"photo":"https://b.zmtcdn.com/data/pictures/7/16564217/4bd09689f70f10175357b6b23f67aae4.jpg?resize=1216%3A507\u0026crop=1200%3A464%3B7%2C31","locality":"Darling Harbour"},{"name":"Faheem Fast Food","vote":"347","reviews":"347","address":"196 Enmore Road, Enmore, SydneyEnmore","city":"Sydney","latitude":-33.8992875616,"longitude":151.171794869,"price_range":0,"rating":4.2,"cuisine_string":["Pakistani","Indian"],"photo":"https://b.zmtcdn.com/data/res_imagery/16557827_RESTAURANT_dedf29010f1ebdcdd7ba18996310e18a.jpg?fit=around%7C1200%3A464\u0026crop=1200%3A464%3B0%2C0","locality":"Enmore"},{"name":"The Font Cafe","vote":"102","reviews":"102","address":"2/8 Central Park Avenue, Chippendale, SydneyChippendale","city":"Sydney","latitude":-33.885726738,"longitude":151.1989052966,"price_range":25,"rating":4.6,"cuisine_string":["Cafe Food","Coffee and Tea","Desserts","Healthy Food","Salad","Sandwich","Vegetarian","Vegan"],"photo":"https://b.zmtcdn.com/data/pictures/chains/6/17745706/b234e7bcbb082541052138717577d245.jpeg?resize=1204%3A803\u0026crop=1200%3A464%3B-1%2C192","locality":"Chippendale"},{"name":"Iron Chef Chinese Seafood Restaurant","vote":"271","reviews":"271","address":"The Stardust Hotel, 84 Broomfield Street, Cabramatta, SydneyCabramatta","city":"Sydney","latitude":-33.8950399823,"longitude":150.9401462227,"price_range":60,"rating":4.2,"cuisine_string":["Yum Cha","Chinese"],"photo":"https://b.zmtcdn.com/data/pictures/7/16560587/9aead7ba22e384bd46c0108b10ec1010.jpg?resize=1204%3A1235\u0026crop=1200%3A464%3B3%2C300","locality":"Cabramatta"},{"name":"Ze Pickle","vote":"220","reviews":"220","address":"17–51 Foveaux Street, Surry Hills, SydneySurry Hills","city":"Sydney","latitude":-33.8842254134,"longitude":151.2097088993,"price_range":27,"rating":4.3,"cuisine_string":["American","Burger"],"photo":"https://b.zmtcdn.com/data/pictures/4/15547014/0537d053a212de24e000241eee6de3ad.jpg?resize=1217%3A609\u0026crop=1200%3A464%3B5%2C63","locality":"Surry Hills"},{"name":"LP's Quality Meats","vote":"227","reviews":"227","address":"Suite 1, 12-16 Chippen Street, Chippendale, SydneyChippendale","city":"Sydney","latitude":-33.8873866812,"longitude":151.2008465454,"price_range":37,"rating":4.5,"cuisine_string":["Australian"],"photo":"https://b.zmtcdn.com/data/res_imagery/16569240_RESTAURANT_8b250ed2506c46a7b8637e6b0f7be3fa.jpg?fit=around%7C1200%3A464\u0026crop=1200%3A464%3B0%2C0","locality":"Chippendale"},{"name":"The Cut Bar \u0026 Grill","vote":"257","reviews":"257","address":"The Rocks Centre, 16 Argyle Street, The Rocks, SydneyThe Rocks","city":"Sydney","latitude":-33.8589928627,"longitude":151.2077324465,"price_range":100,"rating":4.2,"cuisine_string":["Seafood","Steak"],"photo":"https://b.zmtcdn.com/data/res_imagery/16562923_RESTAURANT_3961ebd27a7bc8a309f84e4aa49e0d3f_c.jpg?fit=around%7C1200%3A464\u0026crop=1200%3A464%3B0%2C0","locality":"The Rocks"},{"name":"Masala Theory","vote":"135","reviews":"135","address":"545 Crown Street, Surry Hills, SydneySurry Hills","city":"Sydney","latitude":-33.8903621962,"longitude":151.2129724771,"price_range":37,"rating":4.6,"cuisine_string":["Indian"],"photo":"https://b.zmtcdn.com/data/res_imagery/18472203_RESTAURANT_ab95f2d19f9b9d34ed1ba1d2034f9f73.jpg?fit=around%7C1200%3A464\u0026crop=1200%3A464%3B0%2C0","locality":"Surry Hills"},{"name":"Brown Sugar","vote":"320","reviews":"320","address":"106 Curlewis Street, Bondi Beach, SydneyBondi Beach","city":"Sydney","latitude":-33.8879923131,"longitude":151.2731404603,"price_range":57,"rating":4.3,"cuisine_string":["Mediterranean","Modern Australian"],"photo":"https://b.zmtcdn.com/data/res_imagery/16557417_RESTAURANT_863300b9e23db17864ad699d8392c9ed.jpg?fit=around%7C1200%3A464\u0026crop=1200%3A464%3B0%2C0","locality":"Bondi Beach"},{"name":"It's Time For Thai","vote":"261","reviews":"261","address":"2/309 Anzac Parade, Kingsford, SydneyKingsford","city":"Sydney","latitude":-33.9228806914,"longitude":151.2270534039,"price_range":0,"rating":4.2,"cuisine_string":["Thai","Malaysian"],"photo":"https://b.zmtcdn.com/data/pictures/chains/7/16563827/dd9b9dcbbcacb5c9cc7b59c6ee75f874.png?resize=1204%3A718\u0026crop=1200%3A464%3B0%2C124","locality":"Kingsford"},{"name":"Harry's Cafe de Wheels","vote":"320","reviews":"320","address":"Cowper Wharf Rd, Sydney, Woolloomooloo, SydneyWoolloomooloo","city":"Sydney","latitude":-33.8692591533,"longitude":151.2211740017,"price_range":15,"rating":4.3,"cuisine_string":["Meat Pie","Fast Food"],"photo":"https://b.zmtcdn.com/data/pictures/6/16558026/7d4a50101d91e817242cf7809fa76b41.jpg?resize=1204%3A963\u0026crop=1200%3A464%3B-1%2C212","locality":"Woolloomooloo"},{"name":"Opera Kitchen","vote":"266","reviews":"266","address":"Lower Concourse Level, Sydney Opera House, CBD, SydneyCBDNSW","city":"Sydney","latitude":-33.858127538,"longitude":151.2141405791,"price_range":35,"rating":4.2,"cuisine_string":["Seafood","Japanese","Sushi","Burger"],"photo":"https://b.zmtcdn.com/data/res_imagery/16563241_RESTAURANT_b5f87b391f41db5eaece16d3abdc4c5e.jpg?fit=around%7C1200%3A464\u0026crop=1200%3A464%3B0%2C0","locality":"CBD"},{"name":"I Love Pho","vote":"169","reviews":"169","address":"47 Willoughby Road, Crows Nest, SydneyCrows NestNSW","city":"Sydney","latitude":-33.8263633906,"longitude":151.2013632059,"price_range":27,"rating":4.3,"cuisine_string":["Vietnamese","Pho"],"photo":"https://b.zmtcdn.com/data/pictures/0/16564780/105996a9a2bd9cc1fd405001dae68951.jpg?resize=1204%3A803\u0026crop=1200%3A464%3B-12%2C213","locality":"Crows Nest"},{"name":"The Tiny Giant","vote":"185","reviews":"185","address":"110 Audley Street, Petersham, SydneyPetersham","city":"Sydney","latitude":-33.8952523245,"longitude":151.1540533975,"price_range":20,"rating":4.3,"cuisine_string":["Cafe Food","Coffee and Tea"],"photo":"https://b.zmtcdn.com/data/pictures/2/15547382/c3d7e47701d2b0ab8c47bf158e7ba25c.jpg?resize=1204%3A792\u0026crop=1200%3A464%3B0%2C220","locality":"Petersham"},{"name":"Fat Panda","vote":"227","reviews":"229","address":"233c Canley Valey Road, Canley Heights, SydneyCanley HeightsNSW","city":"Sydney","latitude":-33.8836425784,"longitude":150.9248804301,"price_range":30,"rating":4.3,"cuisine_string":["Sushi","Japanese","Asian"],"photo":"https://b.zmtcdn.com/data/res_imagery/16562181_RESTAURANT_086a9c45030a5d62e5cfe0c5fa1d7401.jpg?fit=around%7C1200%3A464\u0026crop=1200%3A464%3B0%2C0","locality":"Canley Heights"},{"name":"i-Creamy Artisan Gelato","vote":"207","reviews":"207","address":"Shop 13, Skyview Plaza, 537-551 George Street, Sydney, CBD, SydneyCBD","city":"Sydney","latitude":-33.8761625089,"longitude":151.2063159049,"price_range":7,"rating":4.4,"cuisine_string":["Ice Cream"],"photo":"https://b.zmtcdn.com/data/res_imagery/18342093_RESTAURANT_62fe6f9130147cb0b085c58bd3b5b8c4.jpg?fit=around%7C1200%3A464\u0026crop=1200%3A464%3B0%2C0","locality":"CBD"},{"name":"The Q on Harris","vote":"175","reviews":"176","address":"597 Harris Street, UltimoUltimo","city":"Sydney","latitude":-33.8795512094,"longitude":151.1993931234,"price_range":17,"rating":4.6,"cuisine_string":["Cafe Food","Coffee and Tea"],"photo":"https://b.zmtcdn.com/data/pictures/2/16568592/857c28842c26643e4a25055ae5cc7a29.jpg?resize=1204%3A803\u0026crop=1200%3A464%3B3%2C214","locality":"Ultimo"},{"name":"Matcha-Ya","vote":"167","reviews":"167","address":"5/10 Steam Mill Lane, Haymarket, SydneyHaymarket","city":"Sydney","latitude":-33.8783762859,"longitude":151.2012642995,"price_range":25,"rating":4.4,"cuisine_string":["Cafe Food","Coffee and Tea","Japanese"],"photo":"https://b.zmtcdn.com/data/pictures/7/17745427/7fba87177f37189f61adbf648106766c.jpg?resize=1204%3A803\u0026crop=1200%3A464%3B-2%2C138","locality":"Haymarket"},{"name":"Qube on Bay","vote":"136","reviews":"137","address":"56 Bay Street, UltimoUltimo","city":"Sydney","latitude":-33.8824106513,"longitude":151.195034869,"price_range":17,"rating":4.4,"cuisine_string":["Sandwich","Cafe Food","Coffee and Tea"],"photo":"https://b.zmtcdn.com/data/pictures/4/16560054/1db8531ad042210f807a64ee4f28b416.jpg?resize=1204%3A806\u0026crop=1200%3A464%3B1%2C111","locality":"Ultimo"},{"name":"Niji Sushi Bar","vote":"220","reviews":"220","address":"333 Anzac Parade, Kingsford, SydneyKingsford","city":"Sydney","latitude":-33.9233964886,"longitude":151.2274634466,"price_range":30,"rating":4.2,"cuisine_string":["Japanese","Seafood","Sushi"],"photo":"https://b.zmtcdn.com/data/pictures/3/16565563/141ebdddd8790bec3d47bb147f271961.jpg?resize=1204%3A1199\u0026crop=1200%3A464%3B1%2C356","locality":"Kingsford"},{"name":"Deus Cafe","vote":"264","reviews":"264","address":"98-104 Parramatta Road, Camperdown, SydneyCamperdownNSW","city":"Sydney","latitude":-33.8859797394,"longitude":151.1792631447,"price_range":15,"rating":4.2,"cuisine_string":["Australian"],"photo":"https://b.zmtcdn.com/data/res_imagery/16557710_RESTAURANT_94dccad829f044baa52d431b9c2f164a.jpg?fit=around%7C1200%3A464\u0026crop=1200%3A464%3B0%2C0","locality":"Camperdown"},{"name":"Hai Au Lang Nuong","vote":"160","reviews":"160","address":"48 Canley Vale Road, Canley Vale, SydneyCanley Vale","city":"Sydney","latitude":-33.8868837474,"longitude":150.9412643686,"price_range":22,"rating":4.3,"cuisine_string":["BBQ","Seafood","Vietnamese"],"photo":"https://b.zmtcdn.com/data/res_imagery/16561301_RESTAURANT_d45c35b84effd9d92aa68f025f18eb02.jpg?fit=around%7C1200%3A464\u0026crop=1200%3A464%3B0%2C0","locality":"Canley Vale"},{"name":"Nishiki Wagyu Yakiniku","vote":"215","reviews":"215","address":"270 Pacific Highway, Crows Nest, SydneyCrows Nest","city":"Sydney","latitude":-33.8288929027,"longitude":151.2015060335,"price_range":45,"rating":4.1,"cuisine_string":["Japanese BBQ"],"photo":"https://b.zmtcdn.com/data/reviews_photos/117/3beb45b3ccf19c74379c347a59a95117_1541928239.jpg?resize=1204%3A838\u0026crop=1200%3A464%3B0%2C162","locality":"Crows Nest"},{"name":"Nel. Restaurant","vote":"187","reviews":"187","address":"75 Wentworth Avenue, CBD, SydneyCBD","city":"Sydney","latitude":-33.8793847559,"longitude":151.2095322087,"price_range":110,"rating":4.6,"cuisine_string":["British","Australian"],"photo":"https://b.zmtcdn.com/data/res_imagery/16570503_RESTAURANT_fb601cb70a17280fff2157956d30e6a5_c.jpg?fit=around%7C1200%3A464\u0026crop=1200%3A464%3B0%2C0","locality":"CBD"},{"name":"Fish Market Cafe","vote":"210","reviews":"210","address":"Shop 4, Sydney Fish Market, Bank Street, PyrmontPyrmont","city":"Sydney","latitude":-33.8730247651,"longitude":151.1925310269,"price_range":25,"rating":4.2,"cuisine_string":["Seafood","Fish and Chips"],"photo":"https://b.zmtcdn.com/data/res_imagery/16564277_RESTAURANT_84979f83d7abc170ad7ccae3fb6b3862.jpg?fit=around%7C1200%3A464\u0026crop=1200%3A464%3B0%2C0","locality":"Pyrmont"},{"name":"Hale \u0026 Hearty","vote":"174","reviews":"174","address":"859 Bourke Street, Waterloo, NSW 2017Waterloo","city":"Sydney","latitude":-33.8974171834,"longitude":151.2131833658,"price_range":20,"rating":4.3,"cuisine_string":["Burger","Healthy Food","Cafe Food","Coffee and Tea"],"photo":"https://b.zmtcdn.com/data/pictures/chains/3/15546353/17c5f62be02487104951f3111a0deb07.jpg?resize=1204%3A1204\u0026crop=1200%3A464%3B1%2C479","locality":"Waterloo"},{"name":"At Restaurant","vote":"176","reviews":"176","address":"417 Pacific Highway, Crows Nest, SydneyCrows Nest","city":"Sydney","latitude":-33.8282509229,"longitude":151.2009229884,"price_range":40,"rating":4.3,"cuisine_string":["Sushi","Japanese"],"photo":"https://b.zmtcdn.com/data/reviews_photos/044/78374bef74ffea366153374b2519a044_1511995161.jpg?resize=1204%3A1204\u0026crop=1200%3A464%3B3%2C143","locality":"Crows Nest"},{"name":"Urban Tadka","vote":"96","reviews":"98","address":"321 Mona Vale Road, Terrey Hills, SydneyTerrey HillsNSW","city":"Sydney","latitude":-33.6976942496,"longitude":151.2164855003,"price_range":47,"rating":4.3,"cuisine_string":["Indian"],"photo":"https://b.zmtcdn.com/data/pictures/chains/4/16563984/d9be77f92708f757070d42fd817db454.jpg?resize=1204%3A804\u0026crop=1200%3A464%3B1%2C259","locality":"Terrey Hills"},{"name":"Hello Auntie","vote":"147","reviews":"147","address":"278 Illawarra Road, Marrickville, SydneyMarrickville","city":"Sydney","latitude":-33.9119310882,"longitude":151.1554535106,"price_range":50,"rating":4.2,"cuisine_string":["Vietnamese","Pho","Contemporary","Asian"],"photo":"https://b.zmtcdn.com/data/pictures/7/15545047/ee2b9b05f7be990ed5d737e349f4dc7d.jpg?resize=1204%3A771\u0026crop=1200%3A464%3B2%2C0","locality":"Marrickville"},{"name":"Hakata-Maru Ramen","vote":"190","reviews":"190","address":"475 Victoria Avenue, Chatswood, SydneyChatswood","city":"Sydney","latitude":-33.797223208,"longitude":151.1793670803,"price_range":15,"rating":4.4,"cuisine_string":["Japanese","Ramen"],"photo":"https://b.zmtcdn.com/data/res_imagery/16570507_RESTAURANT_d62867d23dc7509dc685d1dc6d4f2a62_c.JPG?fit=around%7C1200%3A464\u0026crop=1200%3A464%3B0%2C0","locality":"Chatswood"},{"name":"Ume Burger","vote":"199","reviews":"199","address":"Wulugul Walk, Barangaroo, SydneyBarangaroo","city":"Sydney","latitude":-33.8653683755,"longitude":151.2013702467,"price_range":22,"rating":4.4,"cuisine_string":["Burger"],"photo":"https://b.zmtcdn.com/data/pictures/chains/9/15547449/e42aa35952350129713357fc5fbc43a1.jpg?resize=1204%3A836\u0026crop=1200%3A464%3B0%2C177","locality":"Barangaroo"},{"name":"Bitton Gourmet Cafe","vote":"291","reviews":"291","address":"36/37A Copeland Street, Alexandria, SydneyAlexandria","city":"Sydney","latitude":-33.9004647017,"longitude":151.1906611919,"price_range":42,"rating":4.2,"cuisine_string":["French","Vegetarian","Cafe Food","Coffee and Tea"],"photo":"https://b.zmtcdn.com/data/pictures/chains/4/16557344/30ae8452820d0a97e79d23a0979e1829.jpg?resize=1204%3A806\u0026crop=1200%3A464%3B1%2C215","locality":"Alexandria"},{"name":"Una's Café \u0026 Restaurant","vote":"354","reviews":"354","address":"340 Victoria Street, Darlinghurst, SydneyDarlinghurst","city":"Sydney","latitude":-33.8776183249,"longitude":151.2217050791,"price_range":40,"rating":4.2,"cuisine_string":["Austrian","Hungarian","German","Beverages","European","Belgian","Swiss"],"photo":"https://b.zmtcdn.com/data/pictures/6/16559286/028a409dab19f895ac8ec94ba0f80c35.jpg?resize=1204%3A803\u0026crop=1200%3A464%3B5%2C152","locality":"Darlinghurst"},{"name":"Joe Black","vote":"301","reviews":"301","address":"27 Commonwealth Street, \tCBDCBDNSW","city":"Sydney","latitude":-33.8780909727,"longitude":151.211132817,"price_range":15,"rating":4.2,"cuisine_string":["Sandwich","Australian","Modern Australian","Coffee and Tea","Cafe Food"],"photo":"https://b.zmtcdn.com/data/pictures/chains/7/16564237/2b4a014d28d3b540677c39dbcf7275cb.jpg?resize=1204%3A804\u0026crop=1200%3A464%3B0%2C100","locality":"CBD"},{"name":"Abhi's Indian","vote":"217","reviews":"217","address":"163 Concord Rd, North StrathfieldNorth StrathfieldNSW","city":"Sydney","latitude":-33.8580746382,"longitude":151.0922529548,"price_range":30,"rating":4.3,"cuisine_string":["Indian"],"photo":"https://b.zmtcdn.com/data/res_imagery/16557077_RESTAURANT_c370ccfdcd2f4fa51546843f37dfd124.JPG?fit=around%7C1200%3A464\u0026crop=1200%3A464%3B0%2C0","locality":"North Strathfield"},{"name":"Umi Sushi \u0026 Bar","vote":"194","reviews":"194","address":"Shop 1, Lower Ground Floor, Sydney Central, 477 Pitt Street, Haymarket, SydneyHaymarketNSW","city":"Sydney","latitude":-33.880082578,"longitude":151.2062340975,"price_range":30,"rating":4.1,"cuisine_string":["Japanese","Sushi"],"photo":"https://b.zmtcdn.com/data/res_imagery/16559283_RESTAURANT_54275958a78559cd3257e5d3b8447988_c.jpg?fit=around%7C1200%3A464\u0026crop=1200%3A464%3B0%2C0","locality":"Haymarket"},{"name":"El Topo Mexican","vote":"210","reviews":"210","address":"The Eastern Hotel, 500 Oxford Street, Level 5 Westfield Bondi Junction, Bondi Junction, SydneyBondi JunctionNSW","city":"Sydney","latitude":-33.8921709446,"longitude":151.2511054426,"price_range":40,"rating":4.2,"cuisine_string":["Mexican","Bar Food"],"photo":"https://b.zmtcdn.com/data/pictures/chains/8/16566178/ecab50d2a1a0958cb109a921295316b0.jpg?resize=1204%3A802\u0026crop=1200%3A464%3B0%2C99","locality":"Bondi Junction"},{"name":"The Wooden Whisk","vote":"208","reviews":"209","address":"Shop 7, Albany Street, St Leonards, SydneySt LeonardsNSW","city":"Sydney","latitude":-33.8237190485,"longitude":151.198756434,"price_range":31,"rating":4.5,"cuisine_string":["Cafe Food","Coffee and Tea"],"photo":"https://b.zmtcdn.com/data/res_imagery/16566286_RESTAURANT_962a6476d86dcb7439a70be9440c8bc4_c.jpg?fit=around%7C1200%3A464\u0026crop=1200%3A464%3B0%2C0","locality":"St Leonards"},{"name":"Superbowl Chinese Restaurant","vote":"236","reviews":"236","address":"41 Dixon Street, HaymarketHaymarketNSW","city":"Sydney","latitude":-33.8783014086,"longitude":151.203931421,"price_range":32,"rating":4.0,"cuisine_string":["Chinese"],"photo":"https://b.zmtcdn.com/data/res_imagery/16559094_RESTAURANT_9a13b9d750a5735e8478553646ee0947_c.jpg?fit=around%7C1200%3A464\u0026crop=1200%3A464%3B0%2C0","locality":"Haymarket"},{"name":"@ Bangkok","vote":"185","reviews":"185","address":"Shop G11, Capitol Square, 730-742 George Street, Chinatown, Haymarket, SydneyHaymarketNSW","city":"Sydney","latitude":-33.8794688178,"longitude":151.2059102207,"price_range":17,"rating":4.2,"cuisine_string":["Thai"],"photo":"https://b.zmtcdn.com/data/pictures/0/16559950/192ec578d9dd60026059c46ff12bf286.jpg?resize=1204%3A903\u0026crop=1200%3A464%3B-1%2C208","locality":"Haymarket"},{"name":"Top Impression Bakery \u0026 Patisserie Cafe","vote":"137","reviews":"138","address":"Discovery Point, Brodie Spark Drive, Wolli Creek, Arncliffe, SydneyWolli CreekNSW","city":"Sydney","latitude":-33.9289960534,"longitude":151.1537328735,"price_range":12,"rating":4.3,"cuisine_string":["Bakery","Desserts","Cafe Food","Coffee and Tea"],"photo":"https://b.zmtcdn.com/data/res_imagery/17849101_RESTAURANT_ddeeaad4f7bd4c0a221c64dfa0195e10.jpg?fit=around%7C1200%3A464\u0026crop=1200%3A464%3B0%2C0","locality":"Wolli Creek"},{"name":"Copo Cafe \u0026 Diner","vote":"221","reviews":"221","address":"156 Formosa Street, Drummoyne, SydneyDrummoyneNSW","city":"Sydney","latitude":-33.8533021066,"longitude":151.1564402282,"price_range":30,"rating":4.1,"cuisine_string":["Cafe Food","Coffee and Tea"],"photo":"https://b.zmtcdn.com/data/res_imagery/16563438_RESTAURANT_d13384e9fa13857181d0b92b1952b72a_c.jpg?fit=around%7C1200%3A464\u0026crop=1200%3A464%3B0%2C0","locality":"Drummoyne"},{"name":"Automata","vote":"175","reviews":"175","address":"5 Kensington Street, Chippendale, SydneyChippendale","city":"Sydney","latitude":-33.8847957194,"longitude":151.2017199397,"price_range":90,"rating":4.7,"cuisine_string":["Modern Australian"],"photo":"https://b.zmtcdn.com/data/pictures/chains/7/16570147/40c9e317d57f457896fc93d607fdaccb.jpg?resize=1204%3A802\u0026crop=1200%3A464%3B0%2C99","locality":"Chippendale"},{"name":"The Botanist","vote":"249","reviews":"249","address":"17 Willoughby Street, Kirribilli, SydneyKirribilliNSW","city":"Sydney","latitude":-33.8454465196,"longitude":151.2126630172,"price_range":47,"rating":4.3,"cuisine_string":["Tapas","Modern Australian"],"photo":"https://b.zmtcdn.com/data/pictures/4/16565994/25c6907a9a1f6e482f2a893cb0e2c1ca.jpeg?resize=1204%3A806\u0026crop=1200%3A464%3B-3%2C245","locality":"Kirribilli"},{"name":"Contessa Balmain","vote":"193","reviews":"193","address":"371b Darling Street, Balmain, SydneyBalmainNSW","city":"Sydney","latitude":-33.8562415009,"longitude":151.1776632071,"price_range":30,"rating":4.5,"cuisine_string":["Modern Australian"],"photo":"https://b.zmtcdn.com/data/res_imagery/16565128_RESTAURANT_0dd89143ff6ddac8aea9225ff0498604.jpg?fit=around%7C1200%3A464\u0026crop=1200%3A464%3B0%2C0","locality":"Balmain"},{"name":"Sails on Lavender Bay","vote":"162","reviews":"162","address":"2 Henry Lawson Avenue, McMahons Point, SydneyMcMahons PointNSW","city":"Sydney","latitude":-33.8485479645,"longitude":151.2061697245,"price_range":65,"rating":4.4,"cuisine_string":["Seafood","Modern Australian"],"photo":"https://b.zmtcdn.com/data/pictures/6/16558926/9ce6c2a2588f7308efc3f4c71cbcf921.jpg?resize=1204%3A788\u0026crop=1200%3A464%3B3%2C124","locality":"McMahons Point"},{"name":"Ristretto \u0026 Co Cafe","vote":"188","reviews":"188","address":"156-158 Northumberland Street, Liverpool, Liverpool, SydneyLiverpoolNSW","city":"Sydney","latitude":-33.9211107099,"longitude":150.9229482338,"price_range":20,"rating":4.3,"cuisine_string":["Cafe Food","Coffee and Tea"],"photo":"https://b.zmtcdn.com/data/res_imagery/16567451_RESTAURANT_111bca68727218aab9df15ec6e33829f_c.jpg?fit=around%7C1200%3A464\u0026crop=1200%3A464%3B0%2C0","locality":"Liverpool"},{"name":"Long Chim Sydney","vote":"129","reviews":"129","address":"Corner of Pitt Street and Angel Place, CBD, SydneyCBDNSW","city":"Sydney","latitude":-33.8671459173,"longitude":151.2083594129,"price_range":55,"rating":4.2,"cuisine_string":["Thai","Street Food"],"photo":"https://b.zmtcdn.com/data/pictures/9/15547349/33ebc282e8c5f6dcd0079c32ddf51e0e.jpg?resize=1204%3A1715\u0026crop=1200%3A464%3B1%2C515","locality":"CBD"},{"name":"Cafe Felix","vote":"306","reviews":"306","address":"191 Missenden Road, Newtown, SydneyNewtown","city":"Sydney","latitude":-33.8929496492,"longitude":151.1831503362,"price_range":25,"rating":4.3,"cuisine_string":["Coffee and Tea","Cafe Food"],"photo":"https://b.zmtcdn.com/data/pictures/chains/6/16562006/ac075f5dc90a46d54c7dbd3ea6104b7d.jpg?resize=1204%3A585\u0026crop=1200%3A464%3B-4%2C66","locality":"Newtown"},{"name":"Jasmin1","vote":"205","reviews":"205","address":"22 Civic Road, Auburn, SydneyAuburnNSW","city":"Sydney","latitude":-33.8509091973,"longitude":151.0335960612,"price_range":20,"rating":4.4,"cuisine_string":["Middle Eastern","Seafood","Arabian","BBQ","Falafel","Lebanese","Sandwich","Salad"],"photo":"https://b.zmtcdn.com/data/reviews_photos/72e/9d8cd32b01566c77fa8c11842553172e_1546142268.jpg?resize=1204%3A1603\u0026crop=1200%3A464%3B4%2C674","locality":"Auburn"},{"name":"Pizza Autentico","vote":"206","reviews":"206","address":"15 Brisbane Street, \tSurry HillsSurry Hills","city":"Sydney","latitude":-33.8779576406,"longitude":151.2122603506,"price_range":35,"rating":4.2,"cuisine_string":["Italian","Pizza"],"photo":"https://b.zmtcdn.com/data/pictures/chains/2/16568782/a2581d1e8eaf02af333cfe81bd1f4267.jpg?resize=1204%3A803\u0026crop=1200%3A464%3B2%2C50","locality":"Surry Hills"},{"name":"Churrasco","vote":"294","reviews":"294","address":"238/240 Coogee Bay Road, Coogee, SydneyCoogee","city":"Sydney","latitude":-33.9205551139,"longitude":151.255629994,"price_range":55,"rating":4.4,"cuisine_string":["BBQ","Brazilian"],"photo":"https://b.zmtcdn.com/data/pictures/0/16557590/154bf41d05405f4c334cb69cbe5fa594.jpg?resize=1204%3A1651\u0026crop=1200%3A464%3B-1%2C799","locality":"Coogee"},{"name":"TeaPlus","vote":"200","reviews":"200","address":"183C Burwood Road, Burwood, SydneyBurwood","city":"Sydney","latitude":-33.879737147,"longitude":151.1029968783,"price_range":15,"rating":4.3,"cuisine_string":["Taiwanese","Cafe Food","Coffee and Tea"],"photo":"https://b.zmtcdn.com/data/pictures/2/16567842/0dfd53e88d0fb003a9fedecff6344e51.jpg?resize=1204%3A803\u0026crop=1200%3A464%3B1%2C234","locality":"Burwood"},{"name":"Lucio Pizzeria","vote":"292","reviews":"292","address":"248 Palmer Street, Republic 2 Courtyard, Darlinghurst, SydneyDarlinghurst","city":"Sydney","latitude":-33.8780673125,"longitude":151.2167681381,"price_range":37,"rating":4.3,"cuisine_string":["Italian","Pizza"],"photo":"https://b.zmtcdn.com/data/pictures/chains/1/16560471/beb2ad7ce0f5ebd77cb55a6e305272df.jpg?resize=1289%3A468\u0026crop=1200%3A464%3B4%2C1","locality":"Darlinghurst"},{"name":"The Dining Room - Park Hyatt","vote":"145","reviews":"145","address":"7 Hickson Road, Circular Quay, SydneyCircular QuayNSW","city":"Sydney","latitude":-33.8557910063,"longitude":151.2093890458,"price_range":145,"rating":4.5,"cuisine_string":["Modern Australian","Seafood"],"photo":"https://b.zmtcdn.com/data/res_imagery/16566373_RESTAURANT_315cc6351129088af1ac682188f4e010.jpg?fit=around%7C1200%3A464\u0026crop=1200%3A464%3B0%2C0","locality":"Circular Quay"},{"name":"The Butcher's Block","vote":"215","reviews":"215","address":"15 Redleaf Avenue, Wahroonga, SydneyWahroongaNSW","city":"Sydney","latitude":-33.7187528928,"longitude":151.1172809824,"price_range":30,"rating":4.2,"cuisine_string":["Cafe Food","Coffee and Tea"],"photo":"https://b.zmtcdn.com/data/reviews_photos/6e1/f0616126f9386d54ead6bb57109346e1_1516144303.jpg?resize=1204%3A902\u0026crop=1200%3A464%3B5%2C188","locality":"Wahroonga"},{"name":"Malabar","vote":"281","reviews":"281","address":"274 Victoria Street, Darlinghurst, SydneyDarlinghurst","city":"Sydney","latitude":-33.876083176,"longitude":151.2221224979,"price_range":40,"rating":4.3,"cuisine_string":["Indian"],"photo":"https://b.zmtcdn.com/data/pictures/4/16558414/ced139aa72a7ebfee4717bca59ff8654.jpg?fit=around%7C1200%3A464\u0026crop=1200%3A464%3B0%2C190","locality":"Darlinghurst"},{"name":"Wagyu House","vote":"215","reviews":"215","address":"668-670 Parramatta Road, Croydon, SydneyCroydonNSW","city":"Sydney","latitude":-33.8716175866,"longitude":151.1228150502,"price_range":35,"rating":4.2,"cuisine_string":["Korean BBQ"],"photo":"https://b.zmtcdn.com/data/reviews_photos/3db/f4bf8befad65b1378b9635a49db073db_1502241673.jpg?resize=1204%3A903\u0026crop=1200%3A464%3B0%2C205","locality":"Croydon"},{"name":"Indu","vote":"198","reviews":"198","address":"Basement Level, 350 George Street, CBD, SydneyCBDNSW","city":"Sydney","latitude":-33.8669641281,"longitude":151.2074203044,"price_range":55,"rating":4.3,"cuisine_string":["Indian","Pakistani","Sri Lankan","Vegetarian"],"photo":"https://b.zmtcdn.com/data/pictures/1/15546751/89d418b103850fc07e6cadc52b844470.jpg?resize=1204%3A803\u0026crop=1200%3A464%3B2%2C266","locality":"CBD"},{"name":"Merchants of Ultimo","vote":"105","reviews":"105","address":"1 Bay Street Broadway, Glebe, SydneyGlebeNSW","city":"Sydney","latitude":-33.8837558613,"longitude":151.1946865171,"price_range":22,"rating":4.3,"cuisine_string":["Cafe Food","Coffee and Tea"],"photo":"https://b.zmtcdn.com/data/pictures/chains/9/15548419/2a71e55d7c323f0d6ed1b723049cb0f2.jpg?resize=1204%3A502\u0026crop=1200%3A464%3B-2%2C4","locality":"Glebe"},{"name":"Gazebo Wine Bar \u0026 Dining","vote":"260","reviews":"260","address":"2 Elizabeth Bay Road, Elizabeth Bay, Near, Potts Point, SydneyElizabeth BayNSW","city":"Sydney","latitude":-33.8726191772,"longitude":151.2261069194,"price_range":35,"rating":4.3,"cuisine_string":["Modern Australian"],"photo":"https://b.zmtcdn.com/data/pictures/chains/5/16557925/1a54c134bd7d6cd09748b58aa590de07.jpg?resize=1204%3A873\u0026crop=1200%3A464%3B-2%2C245","locality":"Elizabeth Bay"},{"name":"Red Lantern","vote":"244","reviews":"244","address":"60 Riley Street, Darlinghurst, SydneyDarlinghurst","city":"Sydney","latitude":-33.8747464744,"longitude":151.2154042348,"price_range":75,"rating":4.3,"cuisine_string":["Vietnamese","Asian"],"photo":"https://b.zmtcdn.com/data/res_imagery/16565418_RESTAURANT_67145a1bbae15063b5aea153efae07ca.jpg?fit=around%7C1200%3A464\u0026crop=1200%3A464%3B0%2C0","locality":"Darlinghurst"},{"name":"SoCal","vote":"199","reviews":"199","address":"1 Young Street, Neutral Bay, SydneyNeutral Bay","city":"Sydney","latitude":-33.8309229757,"longitude":151.2214254588,"price_range":45,"rating":4.1,"cuisine_string":["American","Mexican"],"photo":"https://b.zmtcdn.com/data/res_imagery/16567815_RESTAURANT_62b3fb84f4bba6210949e3f1e0b191a1.jpg?fit=around%7C1200%3A464\u0026crop=1200%3A464%3B0%2C0","locality":"Neutral Bay"},{"name":"Bondi Pizza","vote":"211","reviews":"211","address":"320 Church Street, Parramatta, SydneyParramatta","city":"Sydney","latitude":-33.8117939829,"longitude":151.0042781755,"price_range":30,"rating":4.1,"cuisine_string":["Italian","Pizza"],"photo":"https://b.zmtcdn.com/data/res_imagery/16564298_CHAIN_13a4405f66022fc130fdbfece4e34659_c.jpg?fit=around%7C1200%3A464\u0026crop=1200%3A464%3B0%2C0","locality":"Parramatta"},{"name":"A Brewer's Tale Café","vote":"159","reviews":"159","address":"112B Burton Street, Darlinghurst, SydneyDarlinghurst","city":"Sydney","latitude":-33.8789251979,"longitude":151.2192706391,"price_range":22,"rating":4.3,"cuisine_string":["Coffee and Tea","Cafe Food"],"photo":"https://b.zmtcdn.com/data/pictures/chains/4/15546384/84eb9e2818f55def79fd3159451330e3.jpg?resize=1203%3A962\u0026crop=1200%3A464%3B0%2C178","locality":"Darlinghurst"},{"name":"Dulcet Cakes \u0026 Sweets","vote":"176","reviews":"176","address":"Level 1, Emerald Square, 27-31 Belmore Street, Burwood, SydneyBurwoodNSW","city":"Sydney","latitude":-33.8786905468,"longitude":151.1025174335,"price_range":7,"rating":4.3,"cuisine_string":["Bakery","Coffee and Tea","Desserts","Ice Cream","Fusion","Japanese","Cafe Food"],"photo":"https://b.zmtcdn.com/data/pictures/chains/1/18437031/3979f4678988fa4b990ca69d08d16f4f.jpg?resize=1204%3A1806\u0026crop=1200%3A464%3B-1%2C1188","locality":"Burwood"},{"name":"Izakaya Samurai","vote":"179","reviews":"179","address":"Shop 5, 197 Military Road, Neutral Bay, SydneyNeutral Bay","city":"Sydney","latitude":-33.8316646407,"longitude":151.2240942568,"price_range":22,"rating":4.2,"cuisine_string":["Japanese","Sushi"],"photo":"https://b.zmtcdn.com/data/res_imagery/16559441_RESTAURANT_fb577f809bc084901cc1d36c73bc7702.jpg?fit=around%7C1200%3A464\u0026crop=1200%3A464%3B0%2C0","locality":"Neutral Bay"},{"name":"Firedoor","vote":"175","reviews":"175","address":"23-33 Mary Street, Surry Hills, SydneySurry Hills","city":"Sydney","latitude":-33.8816073563,"longitude":151.2099824846,"price_range":115,"rating":4.5,"cuisine_string":["Grill","Seafood","Modern Australian"],"photo":"https://b.zmtcdn.com/data/pictures/chains/1/15544551/ac0ca86433d4f2889c9630d8b4f81f11.jpg?resize=1204%3A803\u0026crop=1200%3A464%3B0%2C99","locality":"Surry Hills"},{"name":"Thai Terrace Exclusive","vote":"221","reviews":"221","address":"Shop 204, 107-121 Quay Street, Haymarket, SydneyHaymarketNSW","city":"Sydney","latitude":-33.882263409,"longitude":151.2035766989,"price_range":25,"rating":4.2,"cuisine_string":["Thai"],"photo":"https://b.zmtcdn.com/data/res_imagery/16562435_RESTAURANT_77681238bca43e53ebedb07d920d4757_c.jpg?fit=around%7C1200%3A464\u0026crop=1200%3A464%3B0%2C0","locality":"Haymarket"},{"name":"Sweet Belem Cake Boutique","vote":"196","reviews":"196","address":"35B New Canterbury Road, NSW, Petersham, SydneyPetersham","city":"Sydney","latitude":-33.8962233035,"longitude":151.1537586898,"price_range":12,"rating":4.5,"cuisine_string":["Desserts","Portuguese","Cafe Food","Coffee and Tea"],"photo":"https://b.zmtcdn.com/data/pictures/3/16560893/c33bf10f54ef77c23085ec959fe73764.jpg?resize=1204%3A1204\u0026crop=1200%3A464%3B-4%2C351","locality":"Petersham"},{"name":"Big Daddy's Burger Bar","vote":"144","reviews":"145","address":"227 King Street, Newtown, SydneyNewtown","city":"Sydney","latitude":-33.8953221775,"longitude":151.1814783141,"price_range":25,"rating":4.0,"cuisine_string":["American","Burger"],"photo":"https://b.zmtcdn.com/data/pictures/chains/5/18269335/5e559674ecb10b2e94028aac046ab9e0.jpg?resize=1204%3A800\u0026crop=1200%3A464%3B2%2C206","locality":"Newtown"},{"name":"10 William Street","vote":"210","reviews":"212","address":"10 William Street Paddington, Paddington, SydneyPaddington","city":"Sydney","latitude":-33.8859107138,"longitude":151.2295428291,"price_range":50,"rating":4.3,"cuisine_string":["Italian"],"photo":"https://b.zmtcdn.com/data/res_imagery/16563073_CHAIN_e9d6ae668018ba59a1f8ae0a37433590_c.jpg?fit=around%7C1200%3A464\u0026crop=1200%3A464%3B0%2C0","locality":"Paddington"},{"name":"The Moody Chef","vote":"176","reviews":"176","address":"30 Atchison Street, St Leonards, SydneySt LeonardsNSW","city":"Sydney","latitude":-33.8228143717,"longitude":151.197273843,"price_range":20,"rating":4.3,"cuisine_string":["Salad","Cafe Food","Coffee and Tea"],"photo":"https://b.zmtcdn.com/data/pictures/chains/3/16561763/2ce648dff1169e58d2d26c7865960afc.jpg?resize=1204%3A802\u0026crop=1200%3A464%3B-3%2C178","locality":"St Leonards"},{"name":"The Henson","vote":"213","reviews":"213","address":"91 Illawarra Road, Marrickville, SydneyMarrickville","city":"Sydney","latitude":-33.9058579105,"longitude":151.1623219773,"price_range":32,"rating":4.3,"cuisine_string":["Bar Food","Fried Chicken"],"photo":"https://b.zmtcdn.com/data/res_imagery/16567260_RESTAURANT_706b1b00991a0c62c9d80891888fb8a2_c.jpg?fit=around%7C1200%3A464\u0026crop=1200%3A464%3B0%2C0","locality":"Marrickville"},{"name":"The Glenmore Hotel","vote":"247","reviews":"247","address":"96 Cumberland Street, The Rocks, SydneyThe Rocks","city":"Sydney","latitude":-33.8587258603,"longitude":151.2074739486,"price_range":40,"rating":4.3,"cuisine_string":["Pub Food"],"photo":"https://b.zmtcdn.com/data/reviews_photos/543/8c0ceae7f3970585a093ba6448dd4543_1472987486.jpg?resize=1204%3A803\u0026crop=1200%3A464%3B0%2C99","locality":"The Rocks"},{"name":"Spicy Joint","vote":"145","reviews":"146","address":"Harbour Plaza, 25-29 Dixon Street, Chinatown, Haymarket, SydneyHaymarketNSW","city":"Sydney","latitude":-33.8776976565,"longitude":151.2036303431,"price_range":0,"rating":4.4,"cuisine_string":["Chinese","Sichuan"],"photo":"https://b.zmtcdn.com/data/reviews_photos/ea1/f914cec4e9956490421e597bf844cea1_1502034930.jpg?resize=1204%3A2416\u0026crop=1200%3A464%3B0%2C906","locality":"Haymarket"},{"name":"Delhi 'O' Delhi","vote":"265","reviews":"265","address":"3 Newtown Road, Newtown, SydneyNewtownNSW","city":"Sydney","latitude":-33.897255774,"longitude":151.1806381121,"price_range":0,"rating":4.3,"cuisine_string":["Indian"],"photo":"https://b.zmtcdn.com/data/res_imagery/16557705_RESTAURANT_51cc6f877111c02f4a3c33af78884540_c.jpg?fit=around%7C1200%3A464\u0026crop=1200%3A464%3B0%2C0","locality":"Newtown"},{"name":"Cafe Del Mar","vote":"176","reviews":"177","address":"35 Wheat Road, The Roof Terrace, Cockle Bay Wharf, Darling Harbour, SydneyDarling HarbourNSW","city":"Sydney","latitude":-33.8714733877,"longitude":151.2024035677,"price_range":110,"rating":4.2,"cuisine_string":["Mediterranean","Modern Australian"],"photo":"https://b.zmtcdn.com/data/pictures/chains/2/16567642/9a31bf35b2010988907e0fdc00e1fd78.jpg?resize=1204%3A803\u0026crop=1200%3A464%3B0%2C251","locality":"Darling Harbour"},{"name":"12-Micron","vote":"129","reviews":"129","address":"Level 2, 100 Barangaroo Avenue, Barangaroo, SydneyBarangaroo","city":"Sydney","latitude":-33.8639062258,"longitude":151.2017377093,"price_range":27,"rating":4.4,"cuisine_string":["Modern Australian"],"photo":"https://b.zmtcdn.com/data/pictures/chains/9/17741799/45b815d3ad25664c6dcdda9b9c6e5554.jpg?resize=1204%3A802\u0026crop=1200%3A464%3B0%2C197","locality":"Barangaroo"},{"name":"The Weston Eatery","vote":"154","reviews":"154","address":"2/4 Canley Vale Road, Canley Vale, SydneyCanley ValeNSW","city":"Sydney","latitude":-33.8873329646,"longitude":150.9430218861,"price_range":25,"rating":4.3,"cuisine_string":["Cafe Food","Coffee and Tea"],"photo":"https://b.zmtcdn.com/data/reviews_photos/500/d6c12f493324ac80afa6cfa2555e9500_1501759264.jpg?resize=1204%3A836\u0026crop=1200%3A464%3B-5%2C237","locality":"Canley Vale"},{"name":"Mother Chu's Taiwanese Gourmet","vote":"189","reviews":"189","address":"Shop 1-5/86-88 Dixon Street, HaymarketHaymarketNSW","city":"Sydney","latitude":-33.8791534463,"longitude":151.2042170763,"price_range":25,"rating":4.1,"cuisine_string":["Taiwanese"],"photo":"https://b.zmtcdn.com/data/pictures/5/16560155/40f1752561fec726486c5d8e43e21ab7.jpg?resize=1204%3A1156\u0026crop=1200%3A464%3B0%2C276","locality":"Haymarket"},{"name":"Hawa Charcoal Chicken","vote":"186","reviews":"186","address":"43-45 South Street, Granville, SydneyGranvilleNSW","city":"Sydney","latitude":-33.8342677979,"longitude":151.0112354904,"price_range":15,"rating":4.4,"cuisine_string":["Lebanese","Charcoal Chicken"],"photo":"https://b.zmtcdn.com/data/res_imagery/16566427_RESTAURANT_8172b4e210284cb53a76f284456709b2.jpg?fit=around%7C1200%3A464\u0026crop=1200%3A464%3B0%2C0","locality":"Granville"},{"name":"Salmon \u0026 Bear","vote":"183","reviews":"183","address":"6 Defries Avenue, Zetland, SydneyZetland","city":"Sydney","latitude":-33.9065736029,"longitude":151.2126164138,"price_range":32,"rating":4.5,"cuisine_string":["Seafood","Poké"],"photo":"https://b.zmtcdn.com/data/pictures/chains/4/17985854/72f15d8f3389b6bd2cfd853a1f1c80fe.jpg?resize=1204%3A803\u0026crop=1200%3A464%3B1%2C255","locality":"Zetland"},{"name":"Hong Kong Bing Sutt","vote":"137","reviews":"137","address":"17 Deane Street, Burwood, SydneyBurwoodNSW","city":"Sydney","latitude":-33.8768394804,"longitude":151.1047963053,"price_range":15,"rating":3.8,"cuisine_string":["Asian","Chinese"],"photo":"https://b.zmtcdn.com/data/res_imagery/18468913_RESTAURANT_c3a5b973bcaca9af11f446db7f550c4f.jpg?fit=around%7C1200%3A464\u0026crop=1200%3A464%3B0%2C0","locality":"Burwood"},{"name":"Sea Bay Restaurant","vote":"313","reviews":"313","address":"372 Pitt Street, CBD, SydneyCBD","city":"Sydney","latitude":-33.8776177682,"longitude":151.2077844143,"price_range":30,"rating":4.3,"cuisine_string":["Chinese","Asian","Dumplings","Vegetarian"],"photo":"https://b.zmtcdn.com/data/pictures/chains/4/16558954/cb8e2ea47bec75296a3f407ba0954e1e.jpg?resize=1204%3A803\u0026crop=1200%3A464%3B-1%2C179","locality":"CBD"},{"name":"Vine And Grind","vote":"127","reviews":"127","address":"Level 2, Westfield Liverpool, Macquarie Street, Liverpool, SydneyLiverpool","city":"Sydney","latitude":-33.9196901354,"longitude":150.9242980555,"price_range":15,"rating":4.4,"cuisine_string":["Coffee and Tea","Cafe Food"],"photo":"https://b.zmtcdn.com/data/reviews_photos/07d/88e60ee121300ca0cbc994e50903b07d_1528505372.jpg?resize=1204%3A1446\u0026crop=1200%3A464%3B-6%2C265","locality":"Liverpool"},{"name":"Elbow Room Espresso","vote":"187","reviews":"188","address":"6A Spring Street, Chatswood, SydneyChatswood","city":"Sydney","latitude":-33.796250546,"longitude":151.1843620241,"price_range":20,"rating":4.2,"cuisine_string":["Cafe Food","Coffee and Tea"],"photo":"https://b.zmtcdn.com/data/res_imagery/16568665_RESTAURANT_80431fd0705f8cc68634144a9d3cb30e_c.jpg?fit=around%7C1200%3A464\u0026crop=1200%3A464%3B0%2C0","locality":"Chatswood"},{"name":"Shenkin Espresso Bar","vote":"322","reviews":"323","address":"239A King Street, Newtown, SydneyNewtown","city":"Sydney","latitude":-33.8955720893,"longitude":151.1811963469,"price_range":15,"rating":4.3,"cuisine_string":["Cafe Food","Coffee and Tea"],"photo":"","locality":"Newtown"},{"name":"Radio Cairo","vote":"328","reviews":"328","address":"83 Spofforth Street, Mosman, SydneyMosmanNSW","city":"Sydney","latitude":-33.8285124502,"longitude":151.2305050716,"price_range":30,"rating":4.2,"cuisine_string":["African","Caribbean","Indian","Sri Lankan"],"photo":"https://b.zmtcdn.com/data/res_imagery/16558804_RESTAURANT_60419e4929a3b1d5410532629d6cd964.jpg?fit=around%7C1200%3A464\u0026crop=1200%3A464%3B0%2C0","locality":"Mosman"},{"name":"Hong Ha Bakery","vote":"309","reviews":"309","address":"1151 Botany Road, Mascot, SydneyMascot","city":"Sydney","latitude":-33.9301797379,"longitude":151.194730103,"price_range":7,"rating":4.4,"cuisine_string":["Vietnamese","Bakery"],"photo":"https://b.zmtcdn.com/data/reviews_photos/15e/5cf33a6b28c72e699faaf31941a0915e_1441008891.jpg?resize=1204%3A1204\u0026crop=1200%3A464%3B-1%2C304","locality":"Mascot"},{"name":"Passion Tree","vote":"188","reviews":"188","address":"T67, Chatswood Interchange, 436 Victoria Avenue, Chatswood, SydneyChatswood","city":"Sydney","latitude":-33.7972017544,"longitude":151.1812851951,"price_range":17,"rating":3.9,"cuisine_string":["Desserts"],"photo":"https://b.zmtcdn.com/data/res_imagery/15545497_RESTAURANT_b93e726e1f2441e7d3d5955d4a2513fe.jpg?fit=around%7C1200%3A464\u0026crop=1200%3A464%3B0%2C0","locality":"Chatswood"},{"name":"Sushi Suma","vote":"285","reviews":"285","address":"425 Cleveland Street, Surry Hills, SydneySurry Hills","city":"Sydney","latitude":-33.8917829811,"longitude":151.2137188017,"price_range":25,"rating":4.3,"cuisine_string":["Japanese","Sushi"],"photo":"https://b.zmtcdn.com/data/reviews_photos/92b/df35a61aa0de23818965083536ed692b_1517920076.jpg?resize=1204%3A676\u0026crop=1200%3A464%3B-2%2C204","locality":"Surry Hills"},{"name":"Hattrick","vote":"134","reviews":"135","address":"Level 1, Shop L30, Macquarie Centre, Corner Of Herring \u0026 Waterloo Road, Macquarie Park, SydneyMacquarie ParkNSW","city":"Sydney","latitude":-33.7788098526,"longitude":151.1202676222,"price_range":32,"rating":4.3,"cuisine_string":["American","Cafe Food","Coffee and Tea"],"photo":"https://b.zmtcdn.com/data/reviews_photos/8af/b9b262976ddf7fd6a0b9eb1b7138e8af_1538695118.jpg?resize=1204%3A903\u0026crop=1200%3A464%3B-2%2C227","locality":"Macquarie Park"},{"name":"Feast – Sheraton Grand Sydney Hyde Park","vote":"128","reviews":"128","address":"161 Elizabeth Street, CBD, SydneyCBDNSW","city":"Sydney","latitude":-33.8717512069,"longitude":151.210061945,"price_range":60,"rating":4.1,"cuisine_string":["Modern Australian"],"photo":"https://b.zmtcdn.com/data/pictures/chains/3/16557393/dc2c87c065440da8f81ef44455338e09.jpg?resize=1204%3A803\u0026crop=1200%3A464%3B1%2C331","locality":"CBD"},{"name":"SaltVine","vote":"125","reviews":"125","address":"535 Crown St, Surry Hills, SydneySurry Hills","city":"Sydney","latitude":-33.889950011,"longitude":151.2129825354,"price_range":40,"rating":4.3,"cuisine_string":["Bar Food","Lebanese","Tapas"],"photo":"https://b.zmtcdn.com/data/pictures/6/17744336/d08875d2ea13fec343fff77daddef737.jpg?resize=1204%3A1204\u0026crop=1200%3A464%3B2%2C366","locality":"Surry Hills"},{"name":"The Soda Factory","vote":"269","reviews":"269","address":"16 Wentworth Avenue, Surry Hills, SydneySurry HillsNSW","city":"Sydney","latitude":-33.8779401043,"longitude":151.2117674947,"price_range":37,"rating":4.2,"cuisine_string":["American","Fried Chicken"],"photo":"https://b.zmtcdn.com/data/res_imagery/16566603_RESTAURANT_d69c8bee71ae1c42c091961ca5d3e81c_c.jpg?fit=around%7C1200%3A464\u0026crop=1200%3A464%3B0%2C0","locality":"Surry Hills"},{"name":"Mr Stonepot","vote":"116","reviews":"116","address":"Shop 18, 427/441 Victoria Avenue, Chatswood, SydneyChatswood","city":"Sydney","latitude":-33.7960725067,"longitude":151.1822574958,"price_range":30,"rating":4.2,"cuisine_string":["Chinese"],"photo":"https://b.zmtcdn.com/data/reviews_photos/587/f4d01405a976f8f44757e03a230eb587_1503238191.jpg?fit=around%7C1200%3A464\u0026crop=1200%3A464%3B%2A%2C%2A","locality":"Chatswood"},{"name":"The Pig \u0026 Pastry","vote":"217","reviews":"217","address":"1 Station Street, Petersham, SydneyPetersham","city":"Sydney","latitude":-33.8903958722,"longitude":151.1491939053,"price_range":30,"rating":4.3,"cuisine_string":["Cafe Food","Coffee and Tea"],"photo":"https://b.zmtcdn.com/data/pictures/1/16567261/3a3f3da6972383282056cd01ce538bf4.jpg?resize=1204%3A1204\u0026crop=1200%3A464%3B-1%2C623","locality":"Petersham"},{"name":"The Meat \u0026 Wine Co - InterContinental Sydney","vote":"182","reviews":"182","address":"Intercontinental Sydney, 117 Macquarie Street, CBD, SydneyCBDNSW","city":"Sydney","latitude":-33.8635406844,"longitude":151.2118922174,"price_range":50,"rating":4.1,"cuisine_string":["BBQ","Steak","Modern Australian"],"photo":"https://b.zmtcdn.com/data/pictures/chains/0/16567400/dbb05a8527afa1ca213e018e13fa42be.jpg?resize=1204%3A802\u0026crop=1200%3A464%3B-1%2C142","locality":"CBD"},{"name":"Two Good Eggs Cafe","vote":"261","reviews":"261","address":"Shop 2, No. 148, Corner of Goulburn Street and Brisbane Street, \tSurry HillsSurry Hills","city":"Sydney","latitude":-33.8785805974,"longitude":151.211784929,"price_range":25,"rating":4.1,"cuisine_string":["Cafe Food","Coffee and Tea"],"photo":"https://b.zmtcdn.com/data/res_imagery/16559276_RESTAURANT_48b676981b19ad63845eb26f230a61b8_c.jpg?fit=around%7C1200%3A464\u0026crop=1200%3A464%3B0%2C0","locality":"Surry Hills"},{"name":"Maya Da Dhaba","vote":"289","reviews":"289","address":"431 Cleveland Street, Surry Hills, SydneySurry Hills","city":"Sydney","latitude":-33.891812482,"longitude":151.213910915,"price_range":25,"rating":4.1,"cuisine_string":["Indian"],"photo":"https://b.zmtcdn.com/data/res_imagery/16558458_RESTAURANT_6f717e0095b0920b04b44bade0ed6c76.jpg?fit=around%7C1200%3A464\u0026crop=1200%3A464%3B0%2C0","locality":"Surry Hills"},{"name":"Jimmy's Recipe","vote":"244","reviews":"244","address":"The Galeries, 500 George Street, CBD, SydneyCBD","city":"Sydney","latitude":-33.8725712971,"longitude":151.207998991,"price_range":10,"rating":4.2,"cuisine_string":["Malaysian","Street Food","Asian","Cantonese","Chinese","Satay"],"photo":"https://b.zmtcdn.com/data/res_imagery/16559902_CHAIN_c88c605b4665dd278547cdee3be1c25d.jpg?fit=around%7C1200%3A464\u0026crop=1200%3A464%3B0%2C0","locality":"CBD"},{"name":"Gibbons Street Cafe","vote":"128","reviews":"128","address":"Shop 1, 7-9 Gibbons Street, Redfern, SydneyRedfernNSW","city":"Sydney","latitude":-33.8930843493,"longitude":151.1994373798,"price_range":20,"rating":4.5,"cuisine_string":["Asian","Cafe Food","Coffee and Tea"],"photo":"https://b.zmtcdn.com/data/pictures/3/17742983/375dc361a34b587f90680334f5e42a0f.jpg?resize=1204%3A963\u0026crop=1200%3A464%3B0%2C316","locality":"Redfern"},{"name":"Grano","vote":"221","reviews":"221","address":"Horsley Dr And Canley Vale Road, Wetherill Park, SydneyWetherill ParkNSW","city":"Sydney","latitude":-33.8507084394,"longitude":150.8964691311,"price_range":40,"rating":3.9,"cuisine_string":["Italian","Pizza"],"photo":"https://b.zmtcdn.com/data/reviews_photos/42d/aa24822c0c2efc93d476944da4d8d42d_1503207728.JPG?resize=1204%3A803\u0026crop=1200%3A464%3B-17%2C136","locality":"Wetherill Park"},{"name":"Bubble Nini Tea","vote":"152","reviews":"152","address":"180/8 Central Park Avenue, Chippendale, SydneyChippendale","city":"Sydney","latitude":-33.8860287253,"longitude":151.1988429353,"price_range":7,"rating":4.7,"cuisine_string":["Bubble Tea"],"photo":"https://b.zmtcdn.com/data/pictures/3/17745593/2a0d941a5c71cc9e6b1a67b336dfe2a6.jpg?resize=1204%3A903\u0026crop=1200%3A464%3B-3%2C389","locality":"Chippendale"},{"name":"The Oaks Hotel","vote":"225","reviews":"225","address":"118 Military Road, Neutral Bay, SydneyNeutral Bay","city":"Sydney","latitude":-33.8301696067,"longitude":151.2192776799,"price_range":60,"rating":4.2,"cuisine_string":["Pub Food","Pizza"],"photo":"https://b.zmtcdn.com/data/pictures/6/16558606/82b12f6ad828d0ab9b5882f84c53b6ec.jpg?resize=1204%3A802\u0026crop=1200%3A464%3B-5%2C131","locality":"Neutral Bay"},{"name":"Hard Rock Cafe","vote":"257","reviews":"257","address":"Level 2, Harbourside Shopping Centre, 2-10 Darling Drive, Darling Harbour, SydneyDarling HarbourNSW","city":"Sydney","latitude":-33.8732068198,"longitude":151.1993139982,"price_range":50,"rating":3.5,"cuisine_string":["Modern Australian"],"photo":"https://b.zmtcdn.com/data/res_imagery/16564193_CHAIN_5649be01c7c6178587add52c46a32b61.jpg?fit=around%7C1200%3A464\u0026crop=1200%3A464%3B0%2C0","locality":"Darling Harbour"},{"name":"Mjølner","vote":"128","reviews":"128","address":"267 Cleveland Street, Redfern, SydneyRedfernNSW","city":"Sydney","latitude":-33.8901083727,"longitude":151.2075420097,"price_range":40,"rating":4.7,"cuisine_string":["BBQ","Modern Australian"],"photo":"https://b.zmtcdn.com/data/pictures/chains/5/17741945/dcce6e796b555a50227cd771420a5a02.jpg?resize=1204%3A803\u0026crop=1200%3A464%3B0%2C137","locality":"Redfern"},{"name":"Paddock on Crown","vote":"127","reviews":"127","address":"509 Crown Street, Surry HillsSurry Hills","city":"Sydney","latitude":-33.8889864752,"longitude":151.2131981179,"price_range":35,"rating":4.6,"cuisine_string":["Coffee and Tea","Cafe Food"],"photo":"https://b.zmtcdn.com/data/pictures/1/15546721/81ae1d5d64b1c2f93030e8fcfb58b7d7.jpg?resize=1204%3A1204\u0026crop=1200%3A464%3B3%2C429","locality":"Surry Hills"},{"name":"Outback Steakhouse","vote":"215","reviews":"215","address":"3 George Street, North Strathfield, SydneyNorth StrathfieldNSW","city":"Sydney","latitude":-33.8637124584,"longitude":151.0885696113,"price_range":40,"rating":3.9,"cuisine_string":["Steak"],"photo":"https://b.zmtcdn.com/data/pictures/chains/7/16562087/8b4d37ab72beb380af93398f72ce6852.jpg?resize=1204%3A803\u0026crop=1200%3A464%3B-1%2C208","locality":"North Strathfield"},{"name":"The Mews","vote":"156","reviews":"156","address":"Shop 4, Myahgah Mews, 3-5 Myahgah Road, Mosman, SydneyMosman","city":"Sydney","latitude":-33.8250392801,"longitude":151.240808107,"price_range":22,"rating":4.7,"cuisine_string":["Cafe Food","Coffee and Tea"],"photo":"https://b.zmtcdn.com/data/pictures/3/16568703/4eaed75c6d543cd311b165fb04a14dea.jpg?resize=1204%3A748\u0026crop=1200%3A464%3B0%2C72","locality":"Mosman"},{"name":"Gumption by Coffee Alchemy","vote":"241","reviews":"241","address":"Shop 11, Level 1, The Strand Arcade, 412-414 George Street, CBD, SydneyCBD","city":"Sydney","latitude":-33.8694570838,"longitude":151.2076097354,"price_range":10,"rating":4.6,"cuisine_string":["Coffee and Tea"],"photo":"https://b.zmtcdn.com/data/reviews_photos/2e4/e07a4ca56c989c0bfcaf4eada3abd2e4_1501389238.jpg?resize=1204%3A1204\u0026crop=1200%3A464%3B-7%2C242","locality":"CBD"},{"name":"CeCi Korean Restaurant","vote":"197","reviews":"197","address":"37 The Boulevarde, Strathfield, SydneyStrathfield","city":"Sydney","latitude":-33.8735934758,"longitude":151.0940171778,"price_range":37,"rating":4.0,"cuisine_string":["Korean BBQ","Asian"],"photo":"https://b.zmtcdn.com/data/reviews_photos/69a/09b43cdd926cbb61f6e5caa61242969a_1511661834.jpg?resize=1204%3A1605\u0026crop=1200%3A464%3B2%2C349","locality":"Strathfield"},{"name":"The Rook","vote":"200","reviews":"200","address":"Level R, 56-58 York Street, \tCBDCBD","city":"Sydney","latitude":-33.8698668625,"longitude":151.2063088641,"price_range":40,"rating":4.1,"cuisine_string":["Burger","Seafood"],"photo":"https://b.zmtcdn.com/data/pictures/chains/4/16566314/d20a67a18b14df45c8d749361b761cea.jpg?resize=1204%3A803\u0026crop=1200%3A464%3B0%2C333","locality":"CBD"},{"name":"The Coffee Emporium Restaurant \u0026 Bar","vote":"154","reviews":"154","address":"51 Phillip Street, Parramatta, SydneyParramattaNSW","city":"Sydney","latitude":-33.8126865192,"longitude":151.0047770664,"price_range":47,"rating":4.1,"cuisine_string":["Mediterranean","Modern Australian"],"photo":"https://b.zmtcdn.com/data/pictures/1/15544541/c3d913097d2bff0eefc0da0b2c1ca9fe.jpg?resize=1204%3A803\u0026crop=1200%3A464%3B30%2C47","locality":"Parramatta"},{"name":"Contrabando","vote":"171","reviews":"171","address":"131 Macquarie St, CBD, SydneyCBDNSW","city":"Sydney","latitude":-33.8640774422,"longitude":151.2126288191,"price_range":40,"rating":4.4,"cuisine_string":["Latin American","Mexican"],"photo":"https://b.zmtcdn.com/data/res_imagery/16568374_RESTAURANT_f4c37d555d5dbdaf093fdafa061ffaea.jpg?fit=around%7C1200%3A464\u0026crop=1200%3A464%3B0%2C0","locality":"CBD"},{"name":"Cafe Opera - InterContinental Sydney","vote":"160","reviews":"160","address":"InterContinental Sydney, 117 Macquarie Street, CBD, SydneyCBDNSW","city":"Sydney","latitude":-33.8635746495,"longitude":151.2116866931,"price_range":30,"rating":4.1,"cuisine_string":["Modern Australian","Asian","International","Seafood"],"photo":"https://b.zmtcdn.com/data/pictures/1/16557471/94b5e9055a5b4341341ade5af7b1ad17.jpg?resize=1204%3A502\u0026crop=1200%3A464%3B0%2C9","locality":"CBD"},{"name":"Mojo's Tapas Bar","vote":"211","reviews":"211","address":"32 Campbell Parade, Bondi Beach, SydneyBondi Beach","city":"Sydney","latitude":-33.8941329994,"longitude":151.2729557231,"price_range":40,"rating":4.4,"cuisine_string":["Spanish","Tapas","European"],"photo":"https://b.zmtcdn.com/data/pictures/1/16558511/91f0463253c928214bf2c3bb34f2cfc2.jpg?resize=1204%3A1331\u0026crop=1200%3A464%3B0%2C479","locality":"Bondi Beach"},{"name":"Manjit's @ The Wharf","vote":"128","reviews":"128","address":"49 Lime street, King Street Wharf, Darling Harbour, SydneyDarling HarbourNSW","city":"Sydney","latitude":-33.8684757783,"longitude":151.201893948,"price_range":50,"rating":4.5,"cuisine_string":["Seafood","Indian","Vegetarian"],"photo":"https://b.zmtcdn.com/data/pictures/9/15544999/820db0a6fbfc744f6406e132740827f8.jpg?resize=1204%3A802\u0026crop=1200%3A464%3B-1%2C118","locality":"Darling Harbour"},{"name":"Shanghai Night Chinese Restaurant","vote":"250","reviews":"250","address":"275 Liverpool Road, Ashfield, SydneyAshfield","city":"Sydney","latitude":-33.8882631204,"longitude":151.1242627725,"price_range":20,"rating":4.3,"cuisine_string":["Chinese","Asian","Dumplings","Shanghai","Sichuan"],"photo":"https://b.zmtcdn.com/data/reviews_photos/a99/04fe7bba55cedc35a3da7ec9e6a62a99_1478829997.jpg?resize=1204%3A1204\u0026crop=1200%3A464%3B0%2C300","locality":"Ashfield"},{"name":"Harry's Singapore Chilli Crab","vote":"165","reviews":"165","address":"188 Elizabeth Street, CBD, SydneyCBDNSW","city":"Sydney","latitude":-33.8793591477,"longitude":151.2094805762,"price_range":60,"rating":4.0,"cuisine_string":["Asian","Malaysian","Seafood"],"photo":"https://b.zmtcdn.com/data/pictures/chains/8/16558028/7a401fb5296899e3d7f142f949f3402f.jpg?resize=1216%3A1621\u0026crop=1200%3A464%3B6%2C883","locality":"CBD"},{"name":"La Grilla","vote":"166","reviews":"166","address":"Shop2, 237 Canley Vale Road, Canley Heights, SydneyCanley Heights","city":"Sydney","latitude":-33.883615858,"longitude":150.924622938,"price_range":25,"rating":3.9,"cuisine_string":["Korean BBQ","Tapas"],"photo":"https://b.zmtcdn.com/data/res_imagery/16566177_RESTAURANT_6998c37b2801cdd7954fe31b6e514f06.jpg?fit=around%7C1200%3A464\u0026crop=1200%3A464%3B0%2C0","locality":"Canley Heights"},{"name":"Moretti","vote":"169","reviews":"169","address":"99 Norton Street, Leichhardt, SydneyLeichhardtNSW","city":"Sydney","latitude":-33.884956039,"longitude":151.1573494971,"price_range":47,"rating":4.4,"cuisine_string":["Italian","Pizza","Salad"],"photo":"https://b.zmtcdn.com/data/pictures/chains/9/16557489/f83ec334ddb34ebb7c12a9d580fe185b.jpg?resize=1204%3A963\u0026crop=1200%3A464%3B-2%2C199","locality":"Leichhardt"},{"name":"Izakaya Fujiyama","vote":"208","reviews":"208","address":"Shop G09 51 Waterloo Street, \tSurry HillsSurry Hills","city":"Sydney","latitude":-33.886885974,"longitude":151.2103123963,"price_range":40,"rating":4.4,"cuisine_string":["Japanese","Sushi","Tapas"],"photo":"https://b.zmtcdn.com/data/res_imagery/16563680_RESTAURANT_0bc92bc3cacf0cc17436dfab4199ce9d_c.jpg?fit=around%7C1200%3A464\u0026crop=1200%3A464%3B0%2C0","locality":"Surry Hills"},{"name":"Anason","vote":"100","reviews":"100","address":"Shop 5/23 Barangaroo Avenue, Barangaroo, SydneyBarangaroo","city":"Sydney","latitude":-33.8646077935,"longitude":151.201313585,"price_range":45,"rating":4.4,"cuisine_string":["Turkish"],"photo":"https://b.zmtcdn.com/data/reviews_photos/0bb/d1fdc1f1f33031e0f916d98c480380bb_1510886834.jpg?resize=1204%3A1204\u0026crop=1200%3A464%3B-1%2C190","locality":"Barangaroo"},{"name":"Frango's","vote":"264","reviews":"264","address":"98 New Canterbury Road, Petersham, SydneyPetersham","city":"Sydney","latitude":-33.896531,"longitude":151.153486,"price_range":20,"rating":4.2,"cuisine_string":["Portuguese","Charcoal Chicken"],"photo":"https://b.zmtcdn.com/data/reviews_photos/e2f/dc0b185562faa641721ea7e48c030e2f_1489672536.jpg?resize=1204%3A903\u0026crop=1200%3A464%3B0%2C149","locality":"Petersham"},{"name":"Nook Urban Fresh Bar","vote":"186","reviews":"186","address":"Shop 4, 83 Clarence Street, CBD, SydneyCBDNSW","city":"Sydney","latitude":-33.8662380811,"longitude":151.2046576291,"price_range":22,"rating":4.2,"cuisine_string":["Sandwich","Cafe Food","Coffee and Tea"],"photo":"https://b.zmtcdn.com/data/res_imagery/16564532_RESTAURANT_efd40151bd6e92edd629657dc60d430b.jpg?fit=around%7C1200%3A464\u0026crop=1200%3A464%3B0%2C0","locality":"CBD"},{"name":"Al Aseel","vote":"219","reviews":"219","address":"183 Waterloo Road, Greenacre, SydneyGreenacreNSW","city":"Sydney","latitude":-33.9062830971,"longitude":151.0574824736,"price_range":40,"rating":4.3,"cuisine_string":["Lebanese"],"photo":"https://b.zmtcdn.com/data/res_imagery/16557097_RESTAURANT_f4b5e6bdda12aaf9f68dac813e861d60.jpg?fit=around%7C1200%3A464\u0026crop=1200%3A464%3B0%2C0","locality":"Greenacre"},{"name":"Rosso Pomodoro","vote":"307","reviews":"307","address":"20-24 Buchanan Street, Balmain, SydneyBalmainNSW","city":"Sydney","latitude":-33.8633978639,"longitude":151.1801207811,"price_range":30,"rating":4.3,"cuisine_string":["Italian","Pizza","Vegetarian"],"photo":"https://b.zmtcdn.com/data/reviews_photos/eb4/8be327729d7dde1057eadf28ce3f0eb4_1500804287.jpg?resize=1204%3A880\u0026crop=1200%3A464%3B0%2C138","locality":"Balmain"},{"name":"Pho Tau Bay","vote":"222","reviews":"222","address":"Shop 12, 117 John Street, Cabramatta, SydneyCabramatta","city":"Sydney","latitude":-33.8946417348,"longitude":150.9341853485,"price_range":22,"rating":4.5,"cuisine_string":["Vietnamese","Pho"],"photo":"https://b.zmtcdn.com/data/res_imagery/16560596_RESTAURANT_24fa930bdee189dc5964ac2c5f228639_c.jpg?fit=around%7C1200%3A464\u0026crop=1200%3A464%3B0%2C0","locality":"Cabramatta"},{"name":"Bambini Trust Wine Room","vote":"281","reviews":"281","address":"185 Elizabeth Street, CBD, SydneyCBD","city":"Sydney","latitude":-33.8724438022,"longitude":151.2100039423,"price_range":60,"rating":4.4,"cuisine_string":["Italian","Cafe Food","Coffee and Tea"],"photo":"https://b.zmtcdn.com/data/res_imagery/16557214_RESTAURANT_c9f011651c630a53b50df35f2a526152.jpg?fit=around%7C1200%3A464\u0026crop=1200%3A464%3B0%2C0","locality":"CBD"},{"name":"Mercado","vote":"124","reviews":"124","address":"4 Ash Street, CBD, SydneyCBDNSW","city":"Sydney","latitude":-33.8669407433,"longitude":151.2075463682,"price_range":30,"rating":4.5,"cuisine_string":["BBQ","Modern Australian"],"photo":"https://b.zmtcdn.com/data/pictures/chains/0/15545360/52f55e152f3cba05d73427afb6649852.jpg?resize=1204%3A803\u0026crop=1200%3A464%3B0%2C216","locality":"CBD"},{"name":"Mekong","vote":"118","reviews":"118","address":"Upper level, 14 Kensington Street, Chippendale, SydneyChippendale","city":"Sydney","latitude":-33.8847870911,"longitude":151.2017259747,"price_range":30,"rating":4.6,"cuisine_string":["Asian"],"photo":"https://b.zmtcdn.com/data/reviews_photos/3ef/fb554d4f99293e274034bde98cdeb3ef_1539486406.jpg?resize=1204%3A781\u0026crop=1200%3A464%3B3%2C125","locality":"Chippendale"},{"name":"Two Sticks: George St","vote":"196","reviews":"196","address":"694 George Street, Haymarket, SydneyHaymarketNSW","city":"Sydney","latitude":-33.8780712095,"longitude":151.2058441714,"price_range":20,"rating":4.1,"cuisine_string":["Chinese","Asian","Hot Pot","Dumplings"],"photo":"https://b.zmtcdn.com/data/pictures/chains/7/16569837/40643c0f8fb3ed2a8c55e9e4a15215d1.jpg?resize=1204%3A803\u0026crop=1200%3A464%3B3%2C185","locality":"Haymarket"},{"name":"Muum Maam","vote":"236","reviews":"236","address":"Shop 1, 50 Holt Street, \tSurry HillsSurry Hills","city":"Sydney","latitude":-33.8861709513,"longitude":151.2093172967,"price_range":40,"rating":4.2,"cuisine_string":["Thai"],"photo":"https://b.zmtcdn.com/data/res_imagery/16563265_RESTAURANT_8058e31a1c7293422c45922781fce3d0.jpg?fit=around%7C1200%3A464\u0026crop=1200%3A464%3B0%2C0","locality":"Surry Hills"},{"name":"Cafe Kentaro","vote":"126","reviews":"127","address":"616 Bourke Street, Surry Hills, SydneySurry Hills","city":"Sydney","latitude":-33.8907515576,"longitude":151.2149392068,"price_range":20,"rating":4.5,"cuisine_string":["Japanese","Fusion","Cafe Food","Coffee and Tea"],"photo":"https://b.zmtcdn.com/data/res_imagery/15548300_RESTAURANT_240deb282bbb9ed7f85fd6824de7adff.jpg?fit=around%7C1200%3A464\u0026crop=1200%3A464%3B0%2C0","locality":"Surry Hills"},{"name":"Vic's Meat Market","vote":"145","reviews":"145","address":"Sydney Fish Market, Bank Street, Pirrama Park Cafe, PyrmontPyrmont","city":"Sydney","latitude":-33.8716766022,"longitude":151.1914313212,"price_range":30,"rating":4.5,"cuisine_string":["Burger","Steak"],"photo":"https://b.zmtcdn.com/data/pictures/chains/8/16570268/d5c5a5aca4a09e716046e30f18688587.jpg?resize=1204%3A1806\u0026crop=1200%3A464%3B3%2C728","locality":"Pyrmont"},{"name":"Peter's Seafood","vote":"121","reviews":"121","address":"Shop 13, Sydney Fish Market, Bank Street, \tPyrmontPyrmont","city":"Sydney","latitude":-33.8732594318,"longitude":151.1922460422,"price_range":32,"rating":4.3,"cuisine_string":["Seafood"],"photo":"https://b.zmtcdn.com/data/reviews_photos/361/b341ef4cfb5791cd730907d5fe5ca361_1502109672.jpg?resize=1204%3A1605\u0026crop=1200%3A464%3B0%2C500","locality":"Pyrmont"},{"name":"Inferno Grill \u0026 Cafe","vote":"147","reviews":"147","address":"Shop 3, 944 Anzac Parade, Maroubra, SydneyMaroubra","city":"Sydney","latitude":-33.943522103,"longitude":151.240112409,"price_range":32,"rating":4.6,"cuisine_string":["Greek","Burger","Fish and Chips","Modern Australian","Charcoal Chicken","Salad"],"photo":"https://b.zmtcdn.com/data/pictures/6/16568356/38a213e6ecfe4644d9df5f4ecef0c945.jpg?resize=1214%3A911\u0026crop=1200%3A464%3B3%2C280","locality":"Maroubra"},{"name":"Bondi Hardware","vote":"253","reviews":"253","address":"39 Hall Street, Bondi Beach, SydneyBondi BeachNSW","city":"Sydney","latitude":-33.8903711022,"longitude":151.2727726623,"price_range":47,"rating":4.3,"cuisine_string":["Pizza","Tapas"],"photo":"https://b.zmtcdn.com/data/res_imagery/16564757_RESTAURANT_42630353c763585780cba42898c5aed0.jpg?fit=around%7C1200%3A464\u0026crop=1200%3A464%3B0%2C0","locality":"Bondi Beach"},{"name":"Meat District Co.","vote":"142","reviews":"142","address":"R3/11 Lime Street, Sydney, NSW, AUNSW","city":"Sydney","latitude":-33.8664638579,"longitude":151.2016230449,"price_range":55,"rating":4.3,"cuisine_string":["Burger","Steak"],"photo":"https://b.zmtcdn.com/data/res_imagery/16570223_RESTAURANT_0cf27a7d326bd3faed45105efef9e1d9_c.jpg?fit=around%7C1200%3A464\u0026crop=1200%3A464%3B0%2C0","locality":"Darling Harbour"},{"name":"Alice's Makan","vote":"178","reviews":"178","address":"Food Court, Pavilion On George, 580 George Street, CBD, SydneyCBDNSW","city":"Sydney","latitude":-33.8748199629,"longitude":151.2073009461,"price_range":12,"rating":4.3,"cuisine_string":["Malaysian","Satay","Street Food","Desserts"],"photo":"https://b.zmtcdn.com/data/pictures/chains/6/16557106/a647104dd6877780f1d05c2b52f73c45.jpg?resize=1204%3A803\u0026crop=1200%3A464%3B-2%2C123","locality":"CBD"},{"name":"Jonah's","vote":"157","reviews":"157","address":"69 Bynya Road, Whale Beach, SydneyNSW","city":"Sydney","latitude":-33.607328,"longitude":151.329524,"price_range":115,"rating":4.4,"cuisine_string":["Modern Australian"],"photo":"https://b.zmtcdn.com/data/res_imagery/16560599_RESTAURANT_f4d3e80dd9b30426f7fba58935b98594.jpeg?fit=around%7C1200%3A464\u0026crop=1200%3A464%3B0%2C0","locality":"Palm Beach"},{"name":"Pompei's","vote":"264","reviews":"264","address":"130 Roscoe Street, Bondi Beach, SydneyBondi BeachNSW","city":"Sydney","latitude":-33.8901417706,"longitude":151.2744426727,"price_range":40,"rating":4.2,"cuisine_string":["Pizza","Italian","Ice Cream"],"photo":"https://b.zmtcdn.com/data/pictures/chains/4/16558764/d86773a6fc9436d35c57a9a90d2f5fe3.jpg?resize=1210%3A808\u0026crop=1200%3A464%3B3%2C202","locality":"Bondi Beach"},{"name":"Lox, Stock \u0026 Barrel","vote":"208","reviews":"208","address":"140 Glenayr Avenue, Bondi Beach, SydneyBondi Beach","city":"Sydney","latitude":-33.887728463,"longitude":151.2717980146,"price_range":25,"rating":4.3,"cuisine_string":["Vegetarian","Cafe Food","Coffee and Tea"],"photo":"https://b.zmtcdn.com/data/reviews_photos/6fb/9904c0e26a06bf1ec2eb4a4e2f60a6fb_1489547398.jpg?resize=1204%3A1228\u0026crop=1200%3A464%3B-3%2C135","locality":"Bondi Beach"},{"name":"Tella Balls Dessert Bar","vote":"149","reviews":"149","address":"Shop 5, 370 New Canterbury Road, Dulwich Hill, SydneyDulwich HillNSW","city":"Sydney","latitude":-33.9026469596,"longitude":151.1443303898,"price_range":17,"rating":4.0,"cuisine_string":["Desserts"],"photo":"https://b.zmtcdn.com/data/reviews_photos/d15/53e583e453865dee0dd2e304dfcb5d15_1540205836.jpg?resize=1204%3A1204\u0026crop=1200%3A464%3B-1%2C304","locality":"Dulwich Hill"},{"name":"Sub-Station Cafe","vote":"151","reviews":"151","address":"124 McEvoy Street, Alexandria, SydneyAlexandria","city":"Sydney","latitude":-33.902808637,"longitude":151.1956635118,"price_range":17,"rating":4.4,"cuisine_string":["Sandwich","Cafe Food","Coffee and Tea"],"photo":"https://b.zmtcdn.com/data/reviews_photos/e5c/290e21c3a17ca636caad1aee0518ae5c_1523763891.jpg?resize=1204%3A904\u0026crop=1200%3A464%3B6%2C202","locality":"Alexandria"},{"name":"Lao Village","vote":"185","reviews":"185","address":"29 Dale Street, Fairfield, SydneyFairfield","city":"Sydney","latitude":-33.8730125168,"longitude":150.9569851309,"price_range":15,"rating":4.2,"cuisine_string":["Laotian","Thai","Salad"],"photo":"https://b.zmtcdn.com/data/res_imagery/16558289_RESTAURANT_9f6d526362772e4d1f7166777fadf748.jpg?fit=around%7C1200%3A464\u0026crop=1200%3A464%3B0%2C0","locality":"Fairfield"},{"name":"La Disfida Enoteca Pizza","vote":"221","reviews":"221","address":"109 Ramsay Street, Haberfield, SydneyHaberfieldNSW","city":"Sydney","latitude":-33.8814756998,"longitude":151.1395349354,"price_range":37,"rating":4.3,"cuisine_string":["Italian","Pizza"],"photo":"https://b.zmtcdn.com/data/reviews_photos/542/d10f25b1bd12a05b432aa59d651b8542_1532172645.jpg?resize=1204%3A903\u0026crop=1200%3A464%3B0%2C174","locality":"Haberfield"},{"name":"Cirrus Dining","vote":"125","reviews":"125","address":"10/23 Barangaroo Avenue, Barangaroo, SydneyBarangaroo","city":"Sydney","latitude":-33.8639580083,"longitude":151.2011935562,"price_range":60,"rating":4.5,"cuisine_string":["Modern Australian"],"photo":"https://b.zmtcdn.com/data/res_imagery/15547826_RESTAURANT_1cd60cb2a791eadb9458c73670b2db91.jpg?fit=around%7C1200%3A464\u0026crop=1200%3A464%3B0%2C0","locality":"Barangaroo"},{"name":"Jean's Chilli Chicken","vote":"194","reviews":"195","address":"115 Rowe Street, Eastwood, SydneyEastwoodnsw","city":"Sydney","latitude":-33.7910641291,"longitude":151.0831703246,"price_range":40,"rating":4.3,"cuisine_string":["Korean","Bar Food","Fried Chicken"],"photo":"https://b.zmtcdn.com/data/res_imagery/16563342_RESTAURANT_27fbeed573936fbe01db6a02d28bbfe3_c.JPG?fit=around%7C1200%3A464\u0026crop=1200%3A464%3B0%2C0","locality":"Eastwood"},{"name":"Sushi on Stanley","vote":"256","reviews":"256","address":"85 Stanley Street, Darlinghurst, SydneyDarlinghurst","city":"Sydney","latitude":-33.875923118,"longitude":151.2156925723,"price_range":17,"rating":4.2,"cuisine_string":["Japanese","Sushi"],"photo":"https://b.zmtcdn.com/data/res_imagery/16559447_RESTAURANT_c8b96ac39167a36f0040e6d3f206d564_c.jpg?fit=around%7C1200%3A464\u0026crop=1200%3A464%3B0%2C0","locality":"Darlinghurst"},{"name":"The Norfolk","vote":"233","reviews":"233","address":"305 Cleveland Street, Surry HillsSurry Hills","city":"Sydney","latitude":-33.8906254815,"longitude":151.2092716992,"price_range":32,"rating":4.2,"cuisine_string":["Mexican","Pub Food"],"photo":"https://b.zmtcdn.com/data/res_imagery/16559968_RESTAURANT_1259b6f03279767e7a68442693f4f086.jpg?fit=around%7C1200%3A464\u0026crop=1200%3A464%3B0%2C0","locality":"Surry Hills"},{"name":"Izakaya Masuya","vote":"153","reviews":"153","address":"Ground Floor, 12 O'Connell Street, CBD, SydneyCBDNSW","city":"Sydney","latitude":-33.8651453798,"longitude":151.2098963186,"price_range":35,"rating":4.3,"cuisine_string":["Japanese","Hot Pot"],"photo":"https://b.zmtcdn.com/data/res_imagery/16566971_CHAIN_c699e51e1af72796813f227d7f6a06d2_c.jpg?fit=around%7C1200%3A464\u0026crop=1200%3A464%3B0%2C0","locality":"CBD"},{"name":"Biang Biang","vote":"129","reviews":"129","address":"39/2, 1 Dixon Street, Chinatown, CBD, SydneyCBDNSW","city":"Sydney","latitude":-33.8767136621,"longitude":151.20375406,"price_range":17,"rating":4.7,"cuisine_string":["Chinese"],"photo":"https://b.zmtcdn.com/data/reviews_photos/c71/21b58731a2aa093cd61d7f659d11fc71_1502940620.jpeg?fit=around%7C1200%3A464\u0026crop=1200%3A464%3B%2A%2C%2A","locality":"CBD"},{"name":"Badmanner Thymes","vote":"135","reviews":"135","address":"1 Horwood Place, Parramatta, SydneyParramatta","city":"Sydney","latitude":-33.8133063307,"longitude":151.0056960583,"price_range":20,"rating":4.3,"cuisine_string":["Cafe Food","Coffee and Tea"],"photo":"https://b.zmtcdn.com/data/pictures/chains/8/16569618/9b52c3aabafdaf485e34d1d1660ddbd5.jpg?resize=1204%3A963\u0026crop=1200%3A464%3B13%2C194","locality":"Parramatta"},{"name":"Bel \u0026 Brio","vote":"120","reviews":"120","address":"T3.01, 300 Barangaroo Avenue, Barangaroo, SydneyBarangaroo","city":"Sydney","latitude":-33.8652456027,"longitude":151.2018339336,"price_range":35,"rating":4.3,"cuisine_string":["Italian"],"photo":"https://b.zmtcdn.com/data/pictures/3/15547943/417ab14a81dedc0651fb582868b06822.jpg?resize=1204%3A804\u0026crop=1200%3A464%3B-14%2C277","locality":"Barangaroo"},{"name":"Twelve Spices Lao \u0026 Thai Cusine","vote":"229","reviews":"229","address":"197 St Johns Road, Canley Heights, SydneyCanley HeightsNSW","city":"Sydney","latitude":-33.8868804075,"longitude":150.9136698023,"price_range":25,"rating":4.1,"cuisine_string":["Thai"],"photo":"https://b.zmtcdn.com/data/pictures/4/16562834/289d869ba67657420fd6e563b0478f25.jpg?resize=1204%3A803\u0026crop=1200%3A464%3B5%2C146","locality":"Canley Heights"},{"name":"Chocolateria San Churro","vote":"213","reviews":"213","address":"287 Church Street, Parramatta, SydneyParramatta","city":"Sydney","latitude":-33.8121112745,"longitude":151.0037662089,"price_range":12,"rating":4.1,"cuisine_string":["Desserts","Ice Cream","Coffee and Tea"],"photo":"https://b.zmtcdn.com/data/pictures/5/15544775/18b2ec7f87f8adbc271737708f0b4825.jpg?resize=1204%3A502\u0026crop=1200%3A464%3B17%2C15","locality":"Parramatta"},{"name":"Roji Monster Ice Cream","vote":"131","reviews":"132","address":"Shop 2, 49-51 Burwood Road, Burwood, SydneyBurwood","city":"Sydney","latitude":-33.8749377114,"longitude":151.1038266867,"price_range":12,"rating":4.1,"cuisine_string":["Ice Cream","Desserts","Taiwanese"],"photo":"https://b.zmtcdn.com/data/pictures/8/17747898/e1935980f032065c133d7a705690f4c3.jpg?resize=1204%3A1186\u0026crop=1200%3A464%3B-3%2C326","locality":"Burwood"},{"name":"Petal Met Sugar","vote":"127","reviews":"127","address":"Ground Floor, 68 Sir John Young Crescent, Woolloomooloo, SydneyWoolloomoolooNSW","city":"Sydney","latitude":-33.8718015928,"longitude":151.2163929641,"price_range":17,"rating":4.5,"cuisine_string":["Desserts","Coffee and Tea","Cafe Food"],"photo":"https://b.zmtcdn.com/data/pictures/chains/1/18209811/afc1ce481b6820233b6cf1d5c644cf1a.png?resize=1204%3A1180\u0026crop=1200%3A464%3B-2%2C555","locality":"Woolloomooloo"},{"name":"Hemingway's","vote":"227","reviews":"227","address":"48 North Steyne, Manly, SydneyManlyNSW","city":"Sydney","latitude":-33.7964062953,"longitude":151.2876203656,"price_range":40,"rating":4.2,"cuisine_string":["Coffee and Tea","French","Cafe Food"],"photo":"https://b.zmtcdn.com/data/pictures/8/16563948/28316c5bd640bd8598a8387a8cdbc50e.jpg?resize=1204%3A1204\u0026crop=1200%3A464%3B-11%2C283","locality":"Manly"},{"name":"The Sydney Cove Oyster Bar","vote":"179","reviews":"179","address":"1 East Circular Quay, Circular Quay, SydneyCircular QuayNSW","city":"Sydney","latitude":-33.8595171204,"longitude":151.2128376961,"price_range":70,"rating":4.4,"cuisine_string":["Seafood","Modern Australian"],"photo":"https://b.zmtcdn.com/data/pictures/8/16559118/2ce29df63310583049b6a890fbb95156.jpg?resize=1204%3A803\u0026crop=1200%3A464%3B2%2C331","locality":"Circular Quay"},{"name":"Shuk","vote":"145","reviews":"145","address":"2 Mitchell Street, North Bondi, SydneyNorth BondiNSW","city":"Sydney","latitude":-33.8822380799,"longitude":151.2768003345,"price_range":25,"rating":4.4,"cuisine_string":["Mediterranean","Israeli","Bakery","Desserts","Cafe Food"],"photo":"https://b.zmtcdn.com/data/pictures/8/17746308/4445edd60ddf788ef88aae3c440b597b.jpg?resize=1204%3A803\u0026crop=1200%3A464%3B2%2C173","locality":"North Bondi"},{"name":"Sicilian Parramatta","vote":"190","reviews":"190","address":"292 Church Street, Parramatta, SydneyParramatta","city":"Sydney","latitude":-33.8126274628,"longitude":151.0038624331,"price_range":35,"rating":3.9,"cuisine_string":["Italian","Pizza"],"photo":"https://b.zmtcdn.com/data/pictures/1/16560721/f7c3ac7d7a3e67f1003f29ae8be654d3.jpg?resize=1204%3A800\u0026crop=1200%3A464%3B0%2C144","locality":"Parramatta"},{"name":"Mentmore \u0026 Morley","vote":"148","reviews":"148","address":"55 Mentmore Street (Corner Of Mentmore And Morley Street), Rosebery, SydneyRosebery","city":"Sydney","latitude":-33.9162162218,"longitude":151.2033332884,"price_range":22,"rating":4.3,"cuisine_string":["Cafe Food","Coffee and Tea"],"photo":"https://b.zmtcdn.com/data/res_imagery/15545637_RESTAURANT_b287eaa75289da9e090755e29558aef9.jpg?fit=around%7C1200%3A464\u0026crop=1200%3A464%3B0%2C0","locality":"Rosebery"},{"name":"Blaq Piq","vote":"137","reviews":"137","address":"11 Alberta Street","city":"Sydney","latitude":-33.8777566679,"longitude":151.2106050924,"price_range":35,"rating":4.2,"cuisine_string":["Cafe Food","Coffee and Tea"],"photo":"https://b.zmtcdn.com/data/res_imagery/15546361_RESTAURANT_5c463f6f86e9f1815d4db3e0d349e523.jpg?fit=around%7C1200%3A464\u0026crop=1200%3A464%3B0%2C0","locality":"CBD"},{"name":"Madame Nhu Surry Hills","vote":"204","reviews":"204","address":"82 Campbell Street, \tSurry HillsSurry Hills","city":"Sydney","latitude":-33.8801134746,"longitude":151.2100867555,"price_range":22,"rating":4.2,"cuisine_string":["Vietnamese"],"photo":"https://b.zmtcdn.com/data/res_imagery/16566259_RESTAURANT_177fb074859ab9628e576b5c0306c20a.jpg?fit=around%7C1200%3A464\u0026crop=1200%3A464%3B0%2C0","locality":"Surry Hills"},{"name":"Atom Thai","vote":"233","reviews":"233","address":"130 King Street, Newtown, SydneyNewtown","city":"Sydney","latitude":-33.8933612632,"longitude":151.1839067191,"price_range":27,"rating":4.2,"cuisine_string":["Thai"],"photo":"https://b.zmtcdn.com/data/res_imagery/16559740_RESTAURANT_a1c8aa4fba75b8d592b7022edda11442.jpg?fit=around%7C1200%3A464\u0026crop=1200%3A464%3B0%2C0","locality":"Newtown"},{"name":"Sydney Tower Buffet","vote":"192","reviews":"192","address":"Sydney Tower Dining, Level 4 Westfield Sydney, Between Pitt \u0026 Castlereagh Streets, Sydney NSWNSW","city":"Sydney","latitude":-33.8706081896,"longitude":151.2092871219,"price_range":57,"rating":2.1,"cuisine_string":["Modern Australian","Vietnamese","Chinese","Japanese","Italian","Seafood"],"photo":"https://b.zmtcdn.com/data/pictures/2/16559122/51a0ef7e496ea52bdf62761dcd20f137.jpg?resize=1204%3A804\u0026crop=1200%3A464%3B1%2C151","locality":"CBD"},{"name":"I’m Angus Steakhouse","vote":"269","reviews":"269","address":"The Promenade, Cockle Bay Wharf, Darling Harbour, SydneyDarling HarbourNSW","city":"Sydney","latitude":-33.8717467529,"longitude":151.2020763382,"price_range":60,"rating":4.0,"cuisine_string":["Steak","Modern Australian"],"photo":"https://b.zmtcdn.com/data/res_imagery/16558091_RESTAURANT_1a66110696eee067f26278671ef64d75.jpg?fit=around%7C1200%3A464\u0026crop=1200%3A464%3B0%2C0","locality":"Darling Harbour"},{"name":"Napoli in Bocca","vote":"296","reviews":"296","address":"73 Dalhousie Street, Haberfield, SydneyHaberfieldNSW","city":"Sydney","latitude":-33.8810718221,"longitude":151.1387239024,"price_range":37,"rating":4.1,"cuisine_string":["Italian","Pizza"],"photo":"https://b.zmtcdn.com/data/res_imagery/16558560_RESTAURANT_e42a83cb449716fda6e5f99a18908255.jpg?fit=around%7C1200%3A464\u0026crop=1200%3A464%3B0%2C0","locality":"Haberfield"},{"name":"RivaReno Gelato","vote":"228","reviews":"228","address":"280 Crown Street, Darlinghurst, SydneyDarlinghurst","city":"Sydney","latitude":-33.8799620531,"longitude":151.215217486,"price_range":7,"rating":4.6,"cuisine_string":["Ice Cream"],"photo":"https://b.zmtcdn.com/data/pictures/3/16566283/e90300de46e0a11815501166c9ba3bbe.jpg?resize=1204%3A803\u0026crop=1200%3A464%3B-4%2C329","locality":"Darlinghurst"},{"name":"Blacksmith Cafe \u0026 Bakery","vote":"147","reviews":"147","address":"116 Chalmers Street, Surry HillsSurry Hills","city":"Sydney","latitude":-33.8867328945,"longitude":151.2069629878,"price_range":20,"rating":4.0,"cuisine_string":["Cafe Food","Coffee and Tea"],"photo":"https://b.zmtcdn.com/data/res_imagery/16570309_RESTAURANT_1f9ab3dd1fd37e83c0239989a542118f_c.JPG?fit=around%7C1200%3A464\u0026crop=1200%3A464%3B0%2C0","locality":"Surry Hills"},{"name":"Gelato Blue","vote":"231","reviews":"231","address":"318 King Street, Newtown, SydneyNewtown","city":"Sydney","latitude":-33.8972997442,"longitude":151.1792014539,"price_range":12,"rating":4.4,"cuisine_string":["Ice Cream"],"photo":"https://b.zmtcdn.com/data/reviews_photos/7b8/fdfcc1985777b9ad6ae76d5d927e37b8_1506774565.jpg?resize=1204%3A1204\u0026crop=1200%3A464%3B-3%2C484","locality":"Newtown"},{"name":"Public Dining Room","vote":"169","reviews":"169","address":"Shop 2a, The Esplanade,  Balmoral Beach, Mosman, SydneyMosmanNSW","city":"Sydney","latitude":-33.8275755159,"longitude":151.2524227426,"price_range":60,"rating":4.2,"cuisine_string":["Modern Australian"],"photo":"https://b.zmtcdn.com/data/res_imagery/16561876_RESTAURANT_5da9351064c80c6dd958827bceed0d21_c.jpg?fit=around%7C1200%3A464\u0026crop=1200%3A464%3B0%2C0","locality":"Mosman"},{"name":"The Lobo Plantation","vote":"211","reviews":"211","address":"Basement, 209 Clarence Street, CBD, SydneyCBDNSW","city":"Sydney","latitude":-33.8699520473,"longitude":151.2053100765,"price_range":40,"rating":4.5,"cuisine_string":["Bar Food","Latin American"],"photo":"https://b.zmtcdn.com/data/res_imagery/16567175_RESTAURANT_9fcc2fbbf84a215b550e1e89849a2056_c.jpg?fit=around%7C1200%3A464\u0026crop=1200%3A464%3B0%2C0","locality":"CBD"},{"name":"Doyle's on the Beach","vote":"223","reviews":"223","address":"11 Marine Parade, Watsons Bay, Vaucluse, SydneyWatsons BayNSW","city":"Sydney","latitude":-33.8429497998,"longitude":151.2819491699,"price_range":60,"rating":4.1,"cuisine_string":["Seafood","Modern Australian"],"photo":"https://b.zmtcdn.com/data/reviews_photos/fc7/15b279020fc8f231a473cb28cc5c5fc7_1486122587.jpg?resize=1204%3A903\u0026crop=1200%3A464%3B4%2C263","locality":"Watsons Bay"},{"name":"Kelly's Bar and Grill","vote":"224","reviews":"224","address":"Level 6, Westfield Bondi Junction, 500 Oxford Street, Bondi Junction, SydneyBondi JunctionNSW","city":"Sydney","latitude":-33.8912906491,"longitude":151.2513005734,"price_range":60,"rating":4.2,"cuisine_string":["Steak","BBQ"],"photo":"https://b.zmtcdn.com/data/res_imagery/16558214_RESTAURANT_51be8885ad11aba0cae94c38b69c5b78.jpg?fit=around%7C1200%3A464\u0026crop=1200%3A464%3B0%2C0","locality":"Bondi Junction"},{"name":"Saint Peter","vote":"96","reviews":"97","address":"362 Oxford Street, Paddington, SydneyPaddington","city":"Sydney","latitude":-33.8870933267,"longitude":151.2305215001,"price_range":37,"rating":4.7,"cuisine_string":["Seafood","Australian"],"photo":"https://b.zmtcdn.com/data/res_imagery/15547716_RESTAURANT_47aa1f75204c5bcb5ad71bfdd90131c7.jpg?fit=around%7C1200%3A464\u0026crop=1200%3A464%3B0%2C0","locality":"Paddington"},{"name":"Nom","vote":"154","reviews":"154","address":"166 Riley Street, Darlinghurst, SydneyDarlinghurst","city":"Sydney","latitude":-33.8779170008,"longitude":151.2146968022,"price_range":22,"rating":4.3,"cuisine_string":["Japanese"],"photo":"https://b.zmtcdn.com/data/reviews_photos/51e/c1742df08234b9b8ff526d506813251e_1470453044.jpg?resize=1204%3A1204\u0026crop=1200%3A464%3B-1%2C577","locality":"Darlinghurst"},{"name":"Ripples at Milsons Point","vote":"195","reviews":"196","address":"1 Olympic Drive, Milsons Point, SydneyMilsons PointNSW","city":"Sydney","latitude":-33.8496684444,"longitude":151.2113185599,"price_range":62,"rating":4.2,"cuisine_string":["Modern Australian","Coffee and Tea","Cafe Food"],"photo":"https://b.zmtcdn.com/data/res_imagery/16558862_RESTAURANT_caf13b0caf1939e10ef4cb98ad668623.jpg?fit=around%7C1200%3A464\u0026crop=1200%3A464%3B0%2C0","locality":"Milsons Point"},{"name":"Pho Toan Thang","vote":"183","reviews":"183","address":"9, 90-95 The Crescent, Homebush West, SydneyHomebush WestNSW","city":"Sydney","latitude":-33.8655551792,"longitude":151.0710313171,"price_range":20,"rating":4.2,"cuisine_string":["Vietnamese","Pho"],"photo":"https://b.zmtcdn.com/data/res_imagery/16562522_RESTAURANT_bb030486f219f99c8b44abf45bdbab5c_c.jpg?fit=around%7C1200%3A464\u0026crop=1200%3A464%3B0%2C0","locality":"Homebush West"},{"name":"Spanish Tapas","vote":"198","reviews":"198","address":"26 Glebe Point Road, Glebe, SydneyGlebe","city":"Sydney","latitude":-33.8838101369,"longitude":151.191803813,"price_range":45,"rating":3.9,"cuisine_string":["Mediterranean","Spanish","Tapas"],"photo":"https://b.zmtcdn.com/data/pictures/6/16559036/5bb1e5886ad7eaa83b40bc290cf6cbf3.png?resize=1204%3A516\u0026crop=1200%3A464%3B-1%2C0","locality":"Glebe"},{"name":"Kinn Niyom Dining and Bar","vote":"222","reviews":"222","address":"Shop 7-9, Level 3, Castle Towers, 6-14 Castle Street, Castle Hill, SydneyCastle Hill","city":"Sydney","latitude":-33.7322532105,"longitude":151.0049748793,"price_range":40,"rating":4.2,"cuisine_string":["Thai"],"photo":"https://b.zmtcdn.com/data/res_imagery/16563384_RESTAURANT_573163f7063beab197f9e332a054b5a5.jpg?fit=around%7C1200%3A464\u0026crop=1200%3A464%3B0%2C0","locality":"Castle Hill"},{"name":"Butcher and The Farmer","vote":"132","reviews":"132","address":"Tramsheds, 1 Dalgal Way, Forest Lodge, Sydney, Glebe, SydneyForest LodgeNSW","city":"Sydney","latitude":-33.8767501271,"longitude":151.1781996489,"price_range":50,"rating":4.1,"cuisine_string":["Modern Australian"],"photo":"https://b.zmtcdn.com/data/pictures/6/15547936/fc165c349db51e5f20a3256c0cb8abe7.jpg?resize=1223%3A814\u0026crop=1200%3A464%3B8%2C217","locality":"Forest Lodge"},{"name":"Maenam Lao \u0026 Thai","vote":"190","reviews":"190","address":"31 The Boulevarde, Strathfield, SydneyStrathfield","city":"Sydney","latitude":-33.8734470534,"longitude":151.0940433294,"price_range":30,"rating":4.2,"cuisine_string":["Thai","Laotian"],"photo":"https://b.zmtcdn.com/data/res_imagery/16566529_RESTAURANT_7a748b26f7c13964dbab66a8f6188d66_c.jpg?fit=around%7C1200%3A464\u0026crop=1200%3A464%3B0%2C0","locality":"Strathfield"},{"name":"Soul Burger","vote":"207","reviews":"207","address":"49 Perouse Road, RandwickRandwick","city":"Sydney","latitude":-33.9199741965,"longitude":151.2427949533,"price_range":15,"rating":4.2,"cuisine_string":["Burger","Vegan"],"photo":"https://b.zmtcdn.com/data/pictures/3/16566653/9a8a24e93a538a1a8dc2554bf5d23b21.jpg?resize=1204%3A1537\u0026crop=1200%3A464%3B-1%2C579","locality":"Randwick"},{"name":"Grandma's Bar","vote":"268","reviews":"268","address":"Basement, 275 Clarence Street, \tCBDCBD","city":"Sydney","latitude":-33.8723973139,"longitude":151.2057942152,"price_range":45,"rating":4.4,"cuisine_string":["Bar Food","Sandwich"],"photo":"https://b.zmtcdn.com/data/pictures/4/16563274/30bf6e00a35aa58d9020e27c4317aab3.jpg?resize=1204%3A967\u0026crop=1200%3A464%3B2%2C312","locality":"CBD"},{"name":"Dear Delicious","vote":"137","reviews":"137","address":"245 Wardell Road, Dulwich Hill, SydneyDulwich HillNSW","city":"Sydney","latitude":-33.9106144257,"longitude":151.1414064467,"price_range":20,"rating":4.3,"cuisine_string":["Cafe Food","Coffee and Tea"],"photo":"https://b.zmtcdn.com/data/pictures/4/16569044/b715141278d4ff03f8d03459e7431e1e.jpg?resize=1204%3A1204\u0026crop=1200%3A464%3B2%2C490","locality":"Dulwich Hill"},{"name":"The Gantry Restaurant","vote":"117","reviews":"117","address":"11 Hickson Road, Walsh Bay, Dawes Point, SydneyDawes PointNSW","city":"Sydney","latitude":-33.8541736056,"longitude":151.2081217021,"price_range":65,"rating":4.5,"cuisine_string":["Modern Australian"],"photo":"https://b.zmtcdn.com/data/pictures/3/15543953/9064a2f102eaff40d191de9a2cc005d8.jpg?resize=1204%3A803\u0026crop=1200%3A464%3B0%2C306","locality":"Dawes Point"},{"name":"Dainty Sichuan - Noodle Express","vote":"85","reviews":"85","address":"10/19b World Square, 644 George Street, CBD, SydneyCBDNSW","city":"Sydney","latitude":-33.8773321742,"longitude":151.2073143572,"price_range":15,"rating":4.2,"cuisine_string":["Sichuan","Chinese","Asian","Fast Food","Street Food","Dumplings"],"photo":"https://b.zmtcdn.com/data/reviews_photos/415/238a79cac0a785440b821773d17ea415_1502687285.jpg?fit=around%7C1200%3A464\u0026crop=1200%3A464%3B%2A%2C%2A","locality":"CBD"},{"name":"5th Earl Rosebery","vote":"131","reviews":"131","address":"The Cannery, Shop 1/34 Morley Avenue, Rosebery, SydneyRosebery","city":"Sydney","latitude":-33.9163723089,"longitude":151.2033336237,"price_range":30,"rating":4.2,"cuisine_string":["Cafe Food","Coffee and Tea"],"photo":"https://b.zmtcdn.com/data/res_imagery/15546755_RESTAURANT_f04a58fade5804caed4c3108a8d7fdd9.jpg?fit=around%7C1200%3A464\u0026crop=1200%3A464%3B0%2C0","locality":"Rosebery"},{"name":"Doytao Thai","vote":"293","reviews":"293","address":"543 King Street, Newtown, SydneyNewtown","city":"Sydney","latitude":-33.9036587603,"longitude":151.1798096448,"price_range":30,"rating":4.2,"cuisine_string":["Thai"],"photo":"https://b.zmtcdn.com/data/res_imagery/16557745_RESTAURANT_97a57aa9031cea510137b07aa2e174ec.jpg?fit=around%7C1200%3A464\u0026crop=1200%3A464%3B0%2C0","locality":"Newtown"},{"name":"Firefly","vote":"197","reviews":"197","address":"24 Young Street, Neutral Bay, SydneyNeutral Bay","city":"Sydney","latitude":-33.8300342503,"longitude":151.2214271352,"price_range":40,"rating":4.2,"cuisine_string":["Tapas","Australian","Asian Fusion","Bar Food","Beverages","Vegetarian"],"photo":"https://b.zmtcdn.com/data/pictures/3/16561863/7fd81d896f50fb1078c547a2dcfc8654.jpg?resize=1204%3A803\u0026crop=1200%3A464%3B0%2C99","locality":"Neutral Bay"},{"name":"PAZAR Food Collective","vote":"129","reviews":"129","address":"325 Canterbury Road, Canterbury, SydneyCanterburyNSW","city":"Sydney","latitude":-33.9148743062,"longitude":151.1123115197,"price_range":37,"rating":4.5,"cuisine_string":["Mexican","Middle Eastern","Turkish"],"photo":"https://b.zmtcdn.com/data/res_imagery/16568986_RESTAURANT_1b383e36f8c3a46bdaa815efd40e4521_c.jpg?fit=around%7C1200%3A464\u0026crop=1200%3A464%3B0%2C0","locality":"Canterbury"},{"name":"White Taro","vote":"137","reviews":"137","address":"67 Albion Street, \tSurry HillsSurry Hills","city":"Sydney","latitude":-33.8830132568,"longitude":151.2112803385,"price_range":22,"rating":4.2,"cuisine_string":["Vietnamese","Salad","Cafe Food","Coffee and Tea"],"photo":"https://b.zmtcdn.com/data/pictures/6/15546306/ea0800d5b1500dadf71d4f04b2245ce2.jpg?resize=1204%3A803\u0026crop=1200%3A464%3B4%2C119","locality":"Surry Hills"},{"name":"Lil Miss Collins","vote":"106","reviews":"106","address":"13 Wentworth Street, Parramatta, SydneyParramatta","city":"Sydney","latitude":-33.819060195,"longitude":151.0051733628,"price_range":30,"rating":4.5,"cuisine_string":["Coffee and Tea","Cafe Food"],"photo":"https://b.zmtcdn.com/data/pictures/chains/7/17742687/05f8141f41b5d8cb94b9ceb6a83736eb.jpg?resize=1204%3A804\u0026crop=1200%3A464%3B0%2C100","locality":"Parramatta"},{"name":"Culture Bean Cafe","vote":"146","reviews":"146","address":"15 Gray Street, Kogarah, SydneyKogarahNSW","city":"Sydney","latitude":-33.9672714892,"longitude":151.1322319508,"price_range":20,"rating":4.3,"cuisine_string":["Cafe Food","Coffee and Tea"],"photo":"https://b.zmtcdn.com/data/res_imagery/16569543_RESTAURANT_324426d47155164d6f7b8c25c7a43239.jpg?fit=around%7C1200%3A464\u0026crop=1200%3A464%3B0%2C0","locality":"Kogarah"},{"name":"Grill'd - Westfield Parramatta","vote":"208","reviews":"208","address":"Level 4, Westfield Parramatta, 159-175 Church Street, Parramatta, SydneyParramattaNSW","city":"Sydney","latitude":-33.817262154,"longitude":151.0031707585,"price_range":25,"rating":4.3,"cuisine_string":["Burger"],"photo":"https://b.zmtcdn.com/data/res_imagery/16559694_CHAIN_23ffd00cfe835ca98d6dad63f58a9d30.jpg?fit=around%7C1200%3A464\u0026crop=1200%3A464%3B0%2C0","locality":"Parramatta"},{"name":"Rising Sun Workshop","vote":"123","reviews":"123","address":"1c Whateley Street, Newtown, SydneyNewtownNSW","city":"Sydney","latitude":-33.8959850821,"longitude":151.1817311123,"price_range":25,"rating":4.2,"cuisine_string":["Japanese","Ramen"],"photo":"https://b.zmtcdn.com/data/res_imagery/18342828_RESTAURANT_4b31ab2516d2171123aa9e09e54f28fd.jpg?fit=around%7C1200%3A464\u0026crop=1200%3A464%3B0%2C0","locality":"Newtown"},{"name":"Mama Mulan","vote":"103","reviews":"104","address":"The Concourse, Level 1 above Willoughby City Library, Chatswood NSW, SydneyChatswood","city":"Sydney","latitude":-33.7952636631,"longitude":151.1843811348,"price_range":55,"rating":4.3,"cuisine_string":["Asian","Chinese","Contemporary"],"photo":"https://b.zmtcdn.com/data/pictures/4/17745384/eda9aa34bed2dca0842ee95ad860b7c0.jpg?resize=1204%3A802\u0026crop=1200%3A464%3B0%2C99","locality":"Chatswood"},{"name":"Nawaz Flavour of India","vote":"136","reviews":"136","address":"142 Glebe Point Road, Glebe, SydneyGlebeNSW","city":"Sydney","latitude":-33.8797655387,"longitude":151.1868578196,"price_range":27,"rating":4.1,"cuisine_string":["Indian"],"photo":"https://b.zmtcdn.com/data/res_imagery/16557865_RESTAURANT_dddbcab0bd354b1c645c058178f3c5bb.jpg?fit=around%7C1200%3A464\u0026crop=1200%3A464%3B0%2C0","locality":"Glebe"},{"name":"Kafeine","vote":"130","reviews":"130","address":"260 Darling Street, Balmain, SydneyBalmainNSW","city":"Sydney","latitude":-33.8578151503,"longitude":151.182010062,"price_range":17,"rating":4.4,"cuisine_string":["Cafe Food","Coffee and Tea"],"photo":"https://b.zmtcdn.com/data/pictures/6/16568656/060de4fcc7f96350b53e7c8f9a5887d3.jpg?resize=1204%3A1204\u0026crop=1200%3A464%3B2%2C350","locality":"Balmain"},{"name":"Eat Fuh","vote":"147","reviews":"147","address":"274 Illawarra Road, Marrickville, SydneyMarrickville","city":"Sydney","latitude":-33.9117068229,"longitude":151.1552560329,"price_range":20,"rating":4.4,"cuisine_string":["Vietnamese","Pho","Salad"],"photo":"https://b.zmtcdn.com/data/pictures/chains/6/18324046/e20b7f943a715f80c226aeb0f5045913.jpg?resize=1204%3A803\u0026crop=1200%3A464%3B0%2C135","locality":"Marrickville"},{"name":"Holy Duck","vote":"116","reviews":"116","address":"The Old Rum Store, 2-10 Kensington Street, Chippendale, SydneyChippendale","city":"Sydney","latitude":-33.8847161162,"longitude":151.2017088756,"price_range":25,"rating":4.1,"cuisine_string":["Chinese"],"photo":"https://b.zmtcdn.com/data/reviews_photos/73e/e54b269988b422fefcc91b005a9d673e_1512990441.jpg?resize=1204%3A805\u0026crop=1200%3A464%3B1%2C166","locality":"Chippendale"},{"name":"Da Mario","vote":"184","reviews":"184","address":"36 Morley Avenue, Rosebery, SydneyRosebery","city":"Sydney","latitude":-33.9161602975,"longitude":151.2027968466,"price_range":30,"rating":4.3,"cuisine_string":["Italian","Pizza"],"photo":"https://b.zmtcdn.com/data/pictures/chains/6/16567796/a657ccf95050f1c9145c7fe4aee5bcca.jpg?resize=1204%3A723\u0026crop=1200%3A464%3B-2%2C160","locality":"Rosebery"},{"name":"Berowra Waters Inn","vote":"135","reviews":"135","address":"Public Wharves, Berowra Waters, Berowra, SydneyBerowraNSW","city":"Sydney","latitude":-33.619428,"longitude":151.146464,"price_range":150,"rating":4.4,"cuisine_string":["French","Modern Australian"],"photo":"https://b.zmtcdn.com/data/res_imagery/16559519_RESTAURANT_e09ade7f77517d2b88418cce9d057d30_c.jpg?fit=around%7C1200%3A464\u0026crop=1200%3A464%3B0%2C0","locality":"Berowra"},{"name":"Bar Italia","vote":"253","reviews":"253","address":"169-179 Norton Street, Leichhardt, SydneyLeichhardtNSW","city":"Sydney","latitude":-33.8811010483,"longitude":151.156863682,"price_range":30,"rating":4.1,"cuisine_string":["Italian","Cafe Food","Coffee and Tea"],"photo":"https://b.zmtcdn.com/data/pictures/6/16557236/f8819686587868e52d5d6677330cbdef.jpg?resize=1204%3A1204\u0026crop=1200%3A464%3B0%2C289","locality":"Leichhardt"},{"name":"Dragon Boat Chinese Restaurant","vote":"114","reviews":"114","address":"Shops 445-451, Level 2, Harbourside Shopping Centre, 2-10 Darling Drive, Darling Harbour, SydneyDarling HarbourNSW","city":"Sydney","latitude":-33.8716242676,"longitude":151.1990129203,"price_range":35,"rating":4.6,"cuisine_string":["Chinese","Vegetarian"],"photo":"https://b.zmtcdn.com/data/res_imagery/16563214_RESTAURANT_8207a8250484699102fcb28dd2300f07_c.jpg?fit=around%7C1200%3A464\u0026crop=1200%3A464%3B0%2C0","locality":"Darling Harbour"},{"name":"Abb Air: Thai Cuisine 1982","vote":"141","reviews":"141","address":"Shop 9.6, World Square Shopping Centre, Goulburn Street, CBD, SydneyCBDNSW","city":"Sydney","latitude":-33.8777934109,"longitude":151.2063886598,"price_range":35,"rating":4.2,"cuisine_string":["Thai"],"photo":"https://b.zmtcdn.com/data/res_imagery/16567825_RESTAURANT_052995082de46b8fca3b40d0d7c99df2_c.jpg?fit=around%7C1200%3A464\u0026crop=1200%3A464%3B0%2C0","locality":"CBD"},{"name":"Porch and Parlour","vote":"221","reviews":"221","address":"Shop 17, 110 Ramsgate Avenue, North Bondi, SydneyNorth BondiNSW","city":"Sydney","latitude":-33.8895035908,"longitude":151.2810821459,"price_range":35,"rating":4.2,"cuisine_string":["Healthy Food","Coffee and Tea","Cafe Food"],"photo":"https://b.zmtcdn.com/data/res_imagery/16562629_RESTAURANT_378019494cf7dc7a15659c62e14bdca0.jpg?fit=around%7C1200%3A464\u0026crop=1200%3A464%3B0%2C0","locality":"North Bondi"},{"name":"Roastville Coffee","vote":"116","reviews":"116","address":"157 Victoria Road, Marrickville, SydneyMarrickville","city":"Sydney","latitude":-33.9081671936,"longitude":151.1638300493,"price_range":22,"rating":4.4,"cuisine_string":["Cafe Food","Coffee and Tea"],"photo":"https://b.zmtcdn.com/data/pictures/8/15544648/75b11465da54ad0c925e8e17569e8c2c.jpg?resize=1204%3A802\u0026crop=1200%3A464%3B-5%2C128","locality":"Marrickville"},{"name":"Kopi-Tiam Spice Alley","vote":"127","reviews":"127","address":"Kensington Street, Chippendale, SydneyChippendale","city":"Sydney","latitude":-33.8849204125,"longitude":151.2020133063,"price_range":22,"rating":4.2,"cuisine_string":["Asian","Chinese","Malaysian","Thai"],"photo":"https://b.zmtcdn.com/data/res_imagery/18177540_RESTAURANT_1a11fceb270814a0097151baa43a7c7f.jpg?fit=around%7C1200%3A464\u0026crop=1200%3A464%3B0%2C0","locality":"Chippendale"},{"name":"The Elevation Cafe","vote":"110","reviews":"110","address":"Shop 5, 302 Church Street (enter via Phillip Street), Parramatta, SydneyParramatta","city":"Sydney","latitude":-33.8124271721,"longitude":151.0041953623,"price_range":20,"rating":4.2,"cuisine_string":["Coffee and Tea","Healthy Food","Cafe Food"],"photo":"https://b.zmtcdn.com/data/pictures/chains/7/18278607/7117f805a0ab688ad921424b5743f72b.jpg?resize=1204%3A803\u0026crop=1200%3A464%3B-8%2C187","locality":"Parramatta"},{"name":"The Greens","vote":"126","reviews":"126","address":"50 Ridge Street, \tNorth SydneyNorth Sydney","city":"Sydney","latitude":-33.8321704064,"longitude":151.2106614187,"price_range":37,"rating":4.1,"cuisine_string":["Modern Australian","Seafood","Salad"],"photo":"https://b.zmtcdn.com/data/res_imagery/16569866_RESTAURANT_cc484d3946a910aba13c069de91d0638_c.jpg?fit=around%7C1200%3A464\u0026crop=1200%3A464%3B0%2C0","locality":"North Sydney"},{"name":"Pho 236","vote":"255","reviews":"255","address":"236 King Street, Newtown, SydneyNewtown","city":"Sydney","latitude":-33.8955175429,"longitude":151.1816476286,"price_range":17,"rating":4.1,"cuisine_string":["Vietnamese","Pho"],"photo":"https://b.zmtcdn.com/data/res_imagery/16558723_RESTAURANT_6874401385669a7432a52e203e0478cb_c.jpg?fit=around%7C1200%3A464\u0026crop=1200%3A464%3B0%2C0","locality":"Newtown"},{"name":"Spiced By Billus","vote":"113","reviews":"113","address":"Shop 7/33 Barangaroo Avenue, Barangaroo, SydneyBarangaroo","city":"Sydney","latitude":-33.865316037,"longitude":151.2014007568,"price_range":40,"rating":4.3,"cuisine_string":["Indian"],"photo":"https://b.zmtcdn.com/data/pictures/9/18513639/3d1ee6f565bdba5eab758e84e708c237.jpg?resize=1204%3A802\u0026crop=1200%3A464%3B-7%2C233","locality":"Barangaroo"},{"name":"Capriccio Osteria \u0026 Bar","vote":"117","reviews":"117","address":"159 Norton Street, Leichhardt, SydneyLeichhardtNSW","city":"Sydney","latitude":-33.8813379195,"longitude":151.1568754166,"price_range":35,"rating":4.3,"cuisine_string":["Italian"],"photo":"https://b.zmtcdn.com/data/reviews_photos/4ff/c7265c99ffa745f303c95e71069e94ff_1508415498.jpg?resize=1204%3A803\u0026crop=1200%3A464%3B6%2C169","locality":"Leichhardt"},{"name":"TGI Fridays","vote":"190","reviews":"190","address":"B70, Level 3, Macquarie Centre, Corner of Herring Road and Waterloo Road, Macquarie Park, SydneyMacquarie Park","city":"Sydney","latitude":-33.7766698559,"longitude":151.1193509772,"price_range":45,"rating":1.8,"cuisine_string":["American","Burger","Steak"],"photo":"https://b.zmtcdn.com/data/res_imagery/16568138_RESTAURANT_fd80ab8baedbd45bb8a2528a87118fd1.jpg?fit=around%7C1200%3A464\u0026crop=1200%3A464%3B0%2C0","locality":"Macquarie Park"},{"name":"Uccello","vote":"162","reviews":"162","address":"Level 4, Ivy, 320 George Street, CBD, SydneyCBDNSW","city":"Sydney","latitude":-33.8663608525,"longitude":151.2077495456,"price_range":75,"rating":4.1,"cuisine_string":["Italian"],"photo":"https://b.zmtcdn.com/data/res_imagery/16559572_RESTAURANT_5408e62cb6afaa4b5eb11350967931b6.jpg?fit=around%7C1200%3A464\u0026crop=1200%3A464%3B0%2C0","locality":"CBD"},{"name":"Kawa","vote":"227","reviews":"227","address":"346-350 Crown Street, Surry Hills, SydneySurry Hills","city":"Sydney","latitude":-33.8817064464,"longitude":151.2148671225,"price_range":17,"rating":4.1,"cuisine_string":["Cafe Food","Coffee and Tea"],"photo":"https://b.zmtcdn.com/data/res_imagery/16558212_RESTAURANT_fbad612e44b098c816fcd7c2c396211e_c.jpg?fit=around%7C1200%3A464\u0026crop=1200%3A464%3B0%2C0","locality":"Surry Hills"},{"name":"Golden Lotus Vegan","vote":"133","reviews":"133","address":"343 King Street, Newtown, SydneyNewtownnsw","city":"Sydney","latitude":-33.8985837744,"longitude":151.1779498681,"price_range":25,"rating":4.5,"cuisine_string":["Vietnamese","Thai","Vegetarian","Vegan"],"photo":"https://b.zmtcdn.com/data/pictures/7/15544957/641a501c34b7758f0db0ca504767f840.jpg?resize=1204%3A971\u0026crop=1200%3A464%3B-6%2C505","locality":"Newtown"},{"name":"The Incinerator Cafe","vote":"158","reviews":"158","address":"2 Small Street, Willoughby, SydneyWilloughbyNSW","city":"Sydney","latitude":-33.8114245971,"longitude":151.2018094584,"price_range":20,"rating":4.2,"cuisine_string":["Cafe Food","Coffee and Tea"],"photo":"https://b.zmtcdn.com/data/pictures/4/16568414/78f5fb39cace3266624794c9bf08cfa7.jpg?resize=1204%3A1204\u0026crop=1200%3A464%3B0%2C300","locality":"Willoughby"},{"name":"Yakitori Yurippi","vote":"100","reviews":"101","address":"7 Falcon Street, Crows Nest, SydneyCrows Nest","city":"Sydney","latitude":-33.8278765949,"longitude":151.2012726814,"price_range":20,"rating":4.3,"cuisine_string":["Japanese BBQ"],"photo":"https://b.zmtcdn.com/data/reviews_photos/650/4fd69c48c67504126ad1b658ae6be650_1519546076.jpg?resize=1204%3A1605\u0026crop=1200%3A464%3B2%2C787","locality":"Crows Nest"},{"name":"Max Brenner","vote":"216","reviews":"216","address":"Shop 2187, Westfield Parramatta, 159-175 Church Street, Parramatta, SydneyParramatta","city":"Sydney","latitude":-33.8176858321,"longitude":151.0045500845,"price_range":20,"rating":4.1,"cuisine_string":["Desserts","Coffee and Tea"],"photo":"https://b.zmtcdn.com/data/pictures/chains/4/16542064/4cbfe24076d743a3166571be0e40d5b3.jpg?resize=1204%3A502\u0026crop=1200%3A464%3B3%2C6","locality":"Parramatta"},{"name":"4 Pines - Keller Door","vote":"232","reviews":"232","address":"45 East Esplanade, Manly, SydneyManly","city":"Sydney","latitude":-33.7995814007,"longitude":151.2852352113,"price_range":40,"rating":4.3,"cuisine_string":["Bar Food"],"photo":"https://b.zmtcdn.com/data/res_imagery/16560302_RESTAURANT_77741f39408b9ba7e66017f7612d2a99.jpg?fit=around%7C1200%3A464\u0026crop=1200%3A464%3B0%2C0","locality":"Manly"},{"name":"Thai Riffic","vote":"121","reviews":"121","address":"Shop 2184 , Westfield Parramatta, 159-175 Church Street, Parramatta, SydneyParramatta","city":"Sydney","latitude":-33.8175195366,"longitude":151.0036652908,"price_range":30,"rating":4.0,"cuisine_string":["Thai","Salad"],"photo":"https://b.zmtcdn.com/data/pictures/chains/7/15543627/e2c3695c2cc166256adcb873c4e89166.jpg?resize=1204%3A802\u0026crop=1200%3A464%3B0%2C227","locality":"Parramatta"},{"name":"Thai La-Ong","vote":"245","reviews":"245","address":"89 King Street, Newtown, SydneyNewtown","city":"Sydney","latitude":-33.8927879531,"longitude":151.1851780862,"price_range":20,"rating":4.2,"cuisine_string":["Thai"],"photo":"https://b.zmtcdn.com/data/pictures/5/18903215/89e82d06f53c7a8c7cfda9b71f605f91.jpg?resize=1204%3A802\u0026crop=1200%3A464%3B0%2C129","locality":"Newtown"},{"name":"The Duck Inn Pub \u0026 Kitchen","vote":"186","reviews":"186","address":"74 Rose Street, Chippendale, SydneyChippendale","city":"Sydney","latitude":-33.8876090622,"longitude":151.1947176978,"price_range":40,"rating":4.2,"cuisine_string":["Bar Food","Modern Australian"],"photo":"https://b.zmtcdn.com/data/pictures/chains/3/16561253/bd7d3ae47b2cb94f8989fec0dc605c07.jpg?resize=1204%3A803\u0026crop=1200%3A464%3B1%2C231","locality":"Chippendale"},{"name":"Palmer \u0026 Co.","vote":"245","reviews":"245","address":"Abercrombie Lane, CBD, SydneyCBDNSW","city":"Sydney","latitude":-33.8641960408,"longitude":151.2084479258,"price_range":40,"rating":4.4,"cuisine_string":["Bar Food"],"photo":"https://b.zmtcdn.com/data/res_imagery/16565360_RESTAURANT_a643b6b0bb30565f0c2c66adbe556fe9_c.jpg?fit=around%7C1200%3A464\u0026crop=1200%3A464%3B0%2C0","locality":"CBD"},{"name":"The Canopy","vote":"142","reviews":"142","address":"157 Liverpool Street, CBD, SydneyCBD","city":"Sydney","latitude":-33.8772314088,"longitude":151.2101132423,"price_range":35,"rating":4.0,"cuisine_string":["European","Modern Australian","Cafe Food","Coffee and Tea"],"photo":"https://b.zmtcdn.com/data/res_imagery/16564020_RESTAURANT_a31a3f4058d6b90e099b0e0b709c739d.jpg?fit=around%7C1200%3A464\u0026crop=1200%3A464%3B0%2C0","locality":"CBD"},{"name":"Thievery","vote":"128","reviews":"128","address":"91 Glebe Point Road, Glebe, SydneyGlebe","city":"Sydney","latitude":-33.8824023011,"longitude":151.1902907118,"price_range":45,"rating":4.3,"cuisine_string":["Lebanese","Bar Food"],"photo":"https://b.zmtcdn.com/data/pictures/3/15544553/ec7f9da42259ab77334d3c368d66f741.jpg?fit=around%7C1200%3A464\u0026crop=1200%3A464%3B0%2C0","locality":"Glebe"},{"name":"Yachiyo Japanese Bistro","vote":"188","reviews":"188","address":"13 Kirketon Road, Darlinghurst, NSW, Darlinghurst, SydneyDarlinghurstNSW","city":"Sydney","latitude":-33.8756352914,"longitude":151.2213218585,"price_range":37,"rating":4.3,"cuisine_string":["Japanese","Seafood","Sushi"],"photo":"https://b.zmtcdn.com/data/pictures/chains/0/16562090/f90833d8e52cf77b0c178ad5008e7137.jpg?resize=1204%3A1605\u0026crop=1200%3A464%3B-2%2C760","locality":"Darlinghurst"},{"name":"Whitewater Restaurant","vote":"150","reviews":"150","address":"35 South Steyne, Manly, SydneyManlyNSW","city":"Sydney","latitude":-33.797604357,"longitude":151.2882708013,"price_range":57,"rating":3.9,"cuisine_string":["Seafood","Modern Australian"],"photo":"https://b.zmtcdn.com/data/res_imagery/16559354_RESTAURANT_2d07ce9a2927bda1cae862aec6dd5879.jpg?fit=around%7C1200%3A464\u0026crop=1200%3A464%3B0%2C0","locality":"Manly"},{"name":"Two Chaps","vote":"135","reviews":"135","address":"122 Chapel Street, Marrickville, SydneyMarrickville","city":"Sydney","latitude":-33.9057040302,"longitude":151.1624591053,"price_range":30,"rating":4.3,"cuisine_string":["Coffee and Tea","Mediterranean","Cafe Food"],"photo":"https://b.zmtcdn.com/data/reviews_photos/6bf/74c566ae85cfab1d6d3f315d5b55a6bf_1520125093.jpg?resize=1204%3A1204\u0026crop=1200%3A464%3B0%2C300","locality":"Marrickville"},{"name":"The Smelly Cheesecake","vote":"103","reviews":"103","address":"Shop 2, 2 Albert Road, Strathfield, SydneyStrathfieldNSW","city":"Sydney","latitude":-33.8722046793,"longitude":151.0936295986,"price_range":20,"rating":4.1,"cuisine_string":["Bakery","Cafe Food","Coffee and Tea"],"photo":"https://b.zmtcdn.com/data/reviews_photos/3ad/45b9299c345c8a3d0d59830f3bc583ad_1536574540.jpg?resize=1204%3A677\u0026crop=1200%3A464%3B3%2C122","locality":"Strathfield"},{"name":"Glebe Point Diner","vote":"241","reviews":"241","address":"407 Glebe Point Road, Glebe, SydneyGlebeNSW","city":"Sydney","latitude":-33.874729494,"longitude":151.1832220852,"price_range":60,"rating":4.3,"cuisine_string":["Modern Australian"],"photo":"https://b.zmtcdn.com/data/reviews_photos/4fe/9a551b305d39b31e1585f4d609fc34fe_1491533019.jpg?fit=around%7C1200%3A464\u0026crop=1200%3A464%3B0%2C300","locality":"Glebe"},{"name":"Daisy's Milkbar","vote":"155","reviews":"155","address":"340 Stanmore Road, Petersham, SydneyPetersham","city":"Sydney","latitude":-33.8958865651,"longitude":151.1572318152,"price_range":25,"rating":4.3,"cuisine_string":["Australian","Desserts","Cafe Food","Coffee and Tea"],"photo":"https://b.zmtcdn.com/data/pictures/5/16568745/f786cbf2b930fb2152427a76dd57daa5.jpg?resize=1204%3A803\u0026crop=1200%3A464%3B-1%2C303","locality":"Petersham"},{"name":"Billu's","vote":"217","reviews":"217","address":"62 Wigram Street, Harris Park, SydneyHarris Park","city":"Sydney","latitude":-33.8219341967,"longitude":151.0089103505,"price_range":32,"rating":2.9,"cuisine_string":["Indian","Pakistani","Bangladeshi","Nepalese","Desserts"],"photo":"https://b.zmtcdn.com/data/pictures/chains/1/16557321/62c75c39243a810f17a98130ea3611a9.jpg?fit=around%7C1200%3A464\u0026crop=1200%3A464%3B%2A%2C%2A","locality":"Harris Park"},{"name":"J's Kitchen Steak House","vote":"209","reviews":"210","address":"96 John Street, Cabramatta, SydneyCabramatta","city":"Sydney","latitude":-33.8951941601,"longitude":150.9348810464,"price_range":22,"rating":3.9,"cuisine_string":["Steak"],"photo":"https://b.zmtcdn.com/data/reviews_photos/6a1/a0d5720a98da502470d3be152fc256a1_1470568287.jpg?resize=1204%3A855\u0026crop=1200%3A464%3B0%2C125","locality":"Cabramatta"},{"name":"1821 Restaurant","vote":"103","reviews":"103","address":"122 Pitt St, CBD, SydneyCBDNSW","city":"Sydney","latitude":-33.8682900945,"longitude":151.2084532902,"price_range":30,"rating":4.2,"cuisine_string":["Greek","Mediterranean"],"photo":"https://b.zmtcdn.com/data/pictures/chains/0/15548260/269a4c7131e939741c2405ed73c9bdf2.jpg?resize=1204%3A803\u0026crop=1200%3A464%3B0%2C99","locality":"CBD"},{"name":"The Rusty Rabbit","vote":"145","reviews":"145","address":"Level 1, Emerald Square, 27-31 Belmore Street, Burwood, SydneyBurwood","city":"Sydney","latitude":-33.878360698,"longitude":151.1021449417,"price_range":22,"rating":4.2,"cuisine_string":["Cafe Food","Coffee and Tea"],"photo":"https://b.zmtcdn.com/data/pictures/0/17742140/30a183b0edbd0996e0903f9adddb0296.jpg?resize=1204%3A1204\u0026crop=1200%3A464%3B3%2C328","locality":"Burwood"},{"name":"Blue Fish","vote":"207","reviews":"207","address":"Shop 287, Level 1, Harbourside Shopping Centre, 2-10 Darling Drive, Darling Harbour, SydneyDarling HarbourNSW","city":"Sydney","latitude":-33.8715911408,"longitude":151.1991812289,"price_range":65,"rating":2.6,"cuisine_string":["Seafood","Salad"],"photo":"https://b.zmtcdn.com/data/res_imagery/16569419_RESTAURANT_42f55344aad357dec0aa0eb45cae7364.jpg?fit=around%7C1200%3A464\u0026crop=1200%3A464%3B0%2C0","locality":"Darling Harbour"},{"name":"Ginza Yakiniku","vote":"102","reviews":"102","address":"Shop 19-27, Level 2, Emerald Square, 27-31 Belmore Street, Burwood, SydneyBurwoodNSW","city":"Sydney","latitude":-33.8782958416,"longitude":151.1021493003,"price_range":30,"rating":4.0,"cuisine_string":["Japanese BBQ"],"photo":"https://b.zmtcdn.com/data/pictures/9/18470869/9608bc5632fe019432a01f9e4dfd3bd4.jpg?resize=1210%3A468\u0026crop=1200%3A464%3B0%2C7","locality":"Burwood"},{"name":"Dove \u0026 Olive","vote":"187","reviews":"187","address":"156 Devonshire Street, Surry Hills, SydneySurry Hills","city":"Sydney","latitude":-33.8871912972,"longitude":151.2101326883,"price_range":40,"rating":4.1,"cuisine_string":["American","Bar Food","Australian","Pub Food"],"photo":"https://b.zmtcdn.com/data/pictures/chains/4/16566564/2bb647cb6e9ec6917894d26efe335194.jpg?resize=1204%3A803\u0026crop=1200%3A464%3B0%2C99","locality":"Surry Hills"},{"name":"Room 10","vote":"184","reviews":"184","address":"10 Llankelly Place, Potts Point, SydneyPotts PointNSW","city":"Sydney","latitude":-33.8724226459,"longitude":151.2245435268,"price_range":20,"rating":4.3,"cuisine_string":["Cafe Food","Coffee and Tea"],"photo":"https://b.zmtcdn.com/data/res_imagery/16563415_RESTAURANT_88e9688872fda97e7e84a405a224f7bc.jpg?fit=around%7C1200%3A464\u0026crop=1200%3A464%3B0%2C0","locality":"Potts Point"},{"name":"Chinese Noodle House","vote":"218","reviews":"218","address":"Shop TG 2 And TG 3, Prince Centre, 8 Quay Street, Haymarket, SydneyHaymarketNSW","city":"Sydney","latitude":-33.8808391253,"longitude":151.2037389725,"price_range":20,"rating":4.2,"cuisine_string":["Asian","Chinese"],"photo":"https://b.zmtcdn.com/data/res_imagery/16562416_RESTAURANT_3bf8294830e754acc602bf3327e89191.jpg?fit=around%7C1200%3A464\u0026crop=1200%3A464%3B0%2C0","locality":"Haymarket"},{"name":"Zushi Barangaroo","vote":"97","reviews":"97","address":"10/33, Barangaroo Avenue, Barangaroo, SydneyBarangaroo","city":"Sydney","latitude":-33.8648867486,"longitude":151.2013179436,"price_range":40,"rating":4.2,"cuisine_string":["Japanese","Sushi"],"photo":"https://b.zmtcdn.com/data/reviews_photos/ebd/782547059aaa6902c0863242abf28ebd_1516159093.jpg?resize=1204%3A1605\u0026crop=1200%3A464%3B2%2C835","locality":"Barangaroo"},{"name":"The Bucket List","vote":"209","reviews":"209","address":"Shop 1, Bondi Pavilion, Queen Elizabeth Drive, Bondi Beach, SydneyBondi Beach","city":"Sydney","latitude":-33.8902347279,"longitude":151.2776777521,"price_range":30,"rating":4.0,"cuisine_string":["Seafood","Modern Australian"],"photo":"https://b.zmtcdn.com/data/pictures/4/16564834/0be73380257e8d0d64b7ccab040cf28b.jpg?resize=1204%3A803\u0026crop=1200%3A464%3B-3%2C190","locality":"Bondi Beach"},{"name":"Acre - Camperdown Commons","vote":"93","reviews":"93","address":"31a Mallet Street, Camperdown, SydneyCamperdownNSW","city":"Sydney","latitude":-33.8880861077,"longitude":151.1765534431,"price_range":40,"rating":4.3,"cuisine_string":["Modern Australian","Bar Food"],"photo":"https://b.zmtcdn.com/data/res_imagery/15547278_RESTAURANT_84074c37c9b59e7874ad211d860732c3.png?fit=around%7C1200%3A464\u0026crop=1200%3A464%3B0%2C0","locality":"Camperdown"},{"name":"Kuki Tanuki","vote":"207","reviews":"207","address":"61 Erskineville Road, Erskineville, SydneyErskinevilleNSW","city":"Sydney","latitude":-33.8997367135,"longitude":151.1837410927,"price_range":30,"rating":4.2,"cuisine_string":["Japanese","Tapas"],"photo":"https://b.zmtcdn.com/data/pictures/chains/8/16564758/622c4da4d13ca66f9f4e64d669342b59.jpg?resize=1203%3A802\u0026crop=1200%3A464%3B0%2C98","locality":"Erskineville"},{"name":"Oregano Bakery","vote":"166","reviews":"166","address":"1/56 Connells Point Road, \tHurstville","city":"Sydney","latitude":-33.9774160329,"longitude":151.1051939428,"price_range":0,"rating":4.2,"cuisine_string":["Bakery","Desserts","Lebanese","Cafe Food","Coffee and Tea"],"photo":"https://b.zmtcdn.com/data/pictures/chains/5/15543275/eb6b3f93dfae75669d3f8c59e3ddc9d7.jpg?resize=1204%3A802\u0026crop=1200%3A464%3B3%2C15","locality":"South Hurstville"},{"name":"Basket Brothers","vote":"120","reviews":"120","address":"75 Wentworth Ave","city":"Sydney","latitude":-33.8794159312,"longitude":151.2095751241,"price_range":15,"rating":4.2,"cuisine_string":["Cafe Food","Coffee and Tea"],"photo":"https://b.zmtcdn.com/data/pictures/chains/1/16570541/4d292b2c95e59d47bf844f8cad85fbae.jpg?resize=1204%3A1806\u0026crop=1200%3A464%3B-4%2C892","locality":"CBD"},{"name":"Vacanza Pizzeria","vote":"180","reviews":"180","address":"414 Bourke Street, Surry Hills, SydneySurry Hills","city":"Sydney","latitude":-33.8851099567,"longitude":151.215887703,"price_range":35,"rating":4.4,"cuisine_string":["Pizza","Italian"],"photo":"https://b.zmtcdn.com/data/res_imagery/16565947_RESTAURANT_a3290d4c045caf8243cdadfe5749cfa5_c.jpg?fit=around%7C1200%3A464\u0026crop=1200%3A464%3B0%2C0","locality":"Surry Hills"},{"name":"Blu Water Grill","vote":"153","reviews":"153","address":"Westfield Hornsby, Corner Of Florence And Hunter Street, Hornsby, SydneyHornsbyNSW","city":"Sydney","latitude":-33.7040488676,"longitude":151.1006026715,"price_range":40,"rating":4.0,"cuisine_string":["Italian","Modern Australian"],"photo":"https://b.zmtcdn.com/data/res_imagery/16557357_RESTAURANT_49254e03eb95e7733a0f314a3ab774e2.jpg?fit=around%7C1200%3A464\u0026crop=1200%3A464%3B0%2C0","locality":"Hornsby"},{"name":"Gavroche Chippendale","vote":"71","reviews":"71","address":"The Old Rum Store, Level 1, 2-10 Kensington Street, Chippendale, SydneyChippendale","city":"Sydney","latitude":-33.8846487595,"longitude":151.2017886713,"price_range":65,"rating":4.2,"cuisine_string":["French"],"photo":"https://b.zmtcdn.com/data/pictures/chains/2/15547042/0a428b91bccc91b548eccc8dbd4726dd.jpg?resize=1204%3A856\u0026crop=1200%3A464%3B-1%2C324","locality":"Chippendale"},{"name":"Four Frogs Creperie","vote":"125","reviews":"125","address":"Ground Level, Gateway, Alfred Street \u0026 Loftus Street, CBD, SydneyCBDNSW","city":"Sydney","latitude":-33.8617458063,"longitude":151.2099268287,"price_range":30,"rating":4.3,"cuisine_string":["French","Crepes"],"photo":"https://b.zmtcdn.com/data/pictures/chains/0/16566680/44cd8421f066d7cdc01d70b29a848e2a.jpeg?resize=1227%3A818\u0026crop=1200%3A464%3B10%2C146","locality":"CBD"},{"name":"Bórn by Tapavino","vote":"108","reviews":"108","address":"9A, 17 Barangaroo Avenue, Barangaroo, SydneyBarangaroo","city":"Sydney","latitude":-33.8651072394,"longitude":151.2013789639,"price_range":35,"rating":4.3,"cuisine_string":["Spanish"],"photo":"https://b.zmtcdn.com/data/res_imagery/15548354_RESTAURANT_967ae81583bce39f8dc088de1ff5dfe4.jpg?fit=around%7C1200%3A464\u0026crop=1200%3A464%3B0%2C0","locality":"Barangaroo"},{"name":"BahBQ Brazilian Grill","vote":"204","reviews":"204","address":"35 Albany Street, Crows Nest, SydneyCrows Nest","city":"Sydney","latitude":-33.8241805748,"longitude":151.2015529722,"price_range":60,"rating":4.3,"cuisine_string":["BBQ","Brazilian"],"photo":"https://b.zmtcdn.com/data/res_imagery/16564484_RESTAURANT_16588cdc76e89f0b295552adea620c6f.jpg?fit=around%7C1200%3A464\u0026crop=1200%3A464%3B0%2C0","locality":"Crows Nest"},{"name":"Leura Garage","vote":"208","reviews":"208","address":"84 Railway Parade, Leura, SydneyLeuraNSW","city":"Sydney","latitude":-33.7124370133,"longitude":150.3316240758,"price_range":45,"rating":4.3,"cuisine_string":["European","Pizza"],"photo":"https://b.zmtcdn.com/data/res_imagery/16564223_RESTAURANT_f64af990e038d293a8138213f03d024d_c.jpg?fit=around%7C1200%3A464\u0026crop=1200%3A464%3B0%2C0","locality":"Leura"},{"name":"Sydney Dumpling King","vote":"173","reviews":"173","address":"Shop 183E, Burwood Road, Burwood, SydneyBurwood","city":"Sydney","latitude":-33.8798328992,"longitude":151.1030458286,"price_range":17,"rating":4.2,"cuisine_string":["Asian","Chinese"],"photo":"https://b.zmtcdn.com/data/reviews_photos/8d6/a8df89b8a5110ea712ccfd3226de18d6_1500005872.jpg?resize=1204%3A1605\u0026crop=1200%3A464%3B2%2C763","locality":"Burwood"},{"name":"Rubyos","vote":"150","reviews":"150","address":"18-20 King Street, Newtown, SydneyNewtownNSW","city":"Sydney","latitude":-33.8925154902,"longitude":151.1871173233,"price_range":50,"rating":4.2,"cuisine_string":["Modern Australian","Fusion"],"photo":"https://b.zmtcdn.com/data/res_imagery/16558903_RESTAURANT_b8ca1e2ca5895b380a44a9d25bf744f8.jpg?fit=around%7C1200%3A464\u0026crop=1200%3A464%3B0%2C0","locality":"Newtown"},{"name":"Lentil As Anything","vote":"186","reviews":"186","address":"391 King Street, Newtown, SydneyNewtown","city":"Sydney","latitude":-33.899635418,"longitude":151.1776950583,"price_range":10,"rating":4.5,"cuisine_string":["Vegetarian","Vegan"],"photo":"https://b.zmtcdn.com/data/reviews_photos/73a/781da668756a5392eb24305818c0073a_1517312845.jpg?resize=1204%3A1605\u0026crop=1200%3A464%3B4%2C705","locality":"Newtown"},{"name":"Japone Sushi","vote":"201","reviews":"202","address":"381 King Street, Newtown, SydneyNewtown","city":"Sydney","latitude":-33.8993498976,"longitude":151.1777077988,"price_range":30,"rating":4.2,"cuisine_string":["Japanese","Sushi"],"photo":"https://b.zmtcdn.com/data/res_imagery/16565585_RESTAURANT_7f72ff17495c90067b67d753f2b166e2.jpg?fit=around%7C1200%3A464\u0026crop=1200%3A464%3B0%2C0","locality":"Newtown"},{"name":"Miss America's Diner","vote":"92","reviews":"92","address":"210 Belmore Road, Riverwood, SydneyRiverwoodNSW","city":"Sydney","latitude":-33.952413534,"longitude":151.0523316264,"price_range":22,"rating":4.3,"cuisine_string":["American","Burger"],"photo":"https://b.zmtcdn.com/data/reviews_photos/873/312eab91662b6394e176ade422123873_1514204139.jpg?resize=1204%3A1204\u0026crop=1200%3A464%3B1%2C387","locality":"Riverwood"},{"name":"Yakiniku Gyuzou BBQ and Tapas","vote":"128","reviews":"128","address":"Shop 4\u00265, 339 Sussex Street, CBD, SydneyCBDNSW","city":"Sydney","latitude":-33.8761850562,"longitude":151.2042814493,"price_range":40,"rating":4.1,"cuisine_string":["Japanese BBQ","Tapas"],"photo":"https://b.zmtcdn.com/data/res_imagery/16569832_RESTAURANT_6f3c5bc7e0ecde2d523f91d0e5d79f96_c.jpg?fit=around%7C1200%3A464\u0026crop=1200%3A464%3B0%2C0","locality":"CBD"},{"name":"MV Bistro \u0026 Wine Bar","vote":"230","reviews":"230","address":"397 Crown Street, \tSurry Hills, Surry Hills, SydneySurry Hills","city":"Sydney","latitude":-33.8856741336,"longitude":151.2137804925,"price_range":45,"rating":4.1,"cuisine_string":["Italian"],"photo":"https://b.zmtcdn.com/data/pictures/chains/6/16558486/61900b6c0929870b14786590d50e4b7f.jpg?resize=1204%3A671\u0026crop=1200%3A464%3B-1%2C141","locality":"Surry Hills"},{"name":"Kingsleys Australian Steakhouse","vote":"163","reviews":"163","address":"29a King Street, CBD, SydneyCBDNSW","city":"Sydney","latitude":-33.8689050487,"longitude":151.2040477619,"price_range":55,"rating":4.2,"cuisine_string":["Steak","Modern Australian"],"photo":"https://b.zmtcdn.com/data/res_imagery/16558222_RESTAURANT_7fe0d3416906510d0cd10a9e37c3893a_c.jpg?fit=around%7C1200%3A464\u0026crop=1200%3A464%3B0%2C0","locality":"CBD"},{"name":"Valet","vote":"96","reviews":"96","address":"38 Arthur Street, Cabramatta, SydneyCabramatta","city":"Sydney","latitude":-33.895088963,"longitude":150.938019231,"price_range":30,"rating":4.3,"cuisine_string":["Cafe Food","Coffee and Tea","Pan Asian"],"photo":"https://b.zmtcdn.com/data/pictures/3/18931843/571187691bbe97248b39c15224198a89.jpg?resize=1204%3A963\u0026crop=1200%3A464%3B11%2C225","locality":"Cabramatta"},{"name":"Yan Restaurant","vote":"77","reviews":"77","address":"19 Wolli Creek Street, Sydney, Wolli Creek, SydneyWolli CreekNSW","city":"Sydney","latitude":-33.9320090612,"longitude":151.1509007961,"price_range":40,"rating":4.6,"cuisine_string":["Asian"],"photo":"https://b.zmtcdn.com/data/reviews_photos/244/bf5040797d609e6cb52083f345eb8244_1489217336.jpg?fit=around%7C1200%3A464\u0026crop=1200%3A464%3B%2A%2C%2A","locality":"Wolli Creek"},{"name":"Uncle Ming's","vote":"222","reviews":"222","address":"Lower Ground, 49 York Street, CBDCBD","city":"Sydney","latitude":-33.8670543268,"longitude":151.2057680637,"price_range":35,"rating":4.3,"cuisine_string":["Dumplings"],"photo":"https://b.zmtcdn.com/data/res_imagery/16565803_RESTAURANT_b8741e7435f39a539c44f73bce297d01.jpg?fit=around%7C1200%3A464\u0026crop=1200%3A464%3B0%2C0","locality":"CBD"},{"name":"Palace Chinese","vote":"170","reviews":"170","address":"Stockland Piccadilly, 210 Pitt Street, CBD, SydneyCBD","city":"Sydney","latitude":-33.8718035415,"longitude":151.2093816698,"price_range":60,"rating":4.2,"cuisine_string":["Yum Cha","Chinese"],"photo":"https://b.zmtcdn.com/data/res_imagery/16558664_RESTAURANT_e21f4628b8e66da65127d5722db7d8cd.jpg?fit=around%7C1200%3A464\u0026crop=1200%3A464%3B0%2C0","locality":"CBD"},{"name":"Kansas City Shuffle","vote":"107","reviews":"107","address":"195 Gloucester Street, The Rocks, SydneyThe Rocks","city":"Sydney","latitude":-33.8630342692,"longitude":151.2057278305,"price_range":22,"rating":4.2,"cuisine_string":["Cafe Food","Coffee and Tea"],"photo":"https://b.zmtcdn.com/data/pictures/chains/5/18175235/6b03c4076f3871890d6e2edb6734f209.jpg?resize=1204%3A819\u0026crop=1200%3A464%3B-4%2C119","locality":"The Rocks"},{"name":"Spago Beverly Hills","vote":"128","reviews":"128","address":"524b King Georges Road, Beverly Hills, SydneyBeverly HillsNSW","city":"Sydney","latitude":-33.9507690411,"longitude":151.0821447149,"price_range":30,"rating":4.2,"cuisine_string":["Italian","Modern Australian"],"photo":"https://b.zmtcdn.com/data/pictures/5/16563975/6376173e1f9b683753ad631281d9ff8c.png?resize=1204%3A793\u0026crop=1200%3A464%3B-2%2C225","locality":"Beverly Hills"},{"name":"Hoochie Mamma Cafe","vote":"154","reviews":"154","address":"156 Missenden Road, Newtown, SydneyNewtown","city":"Sydney","latitude":-33.8922213185,"longitude":151.1831657589,"price_range":25,"rating":4.1,"cuisine_string":["Coffee and Tea","Italian","Cafe Food"],"photo":"https://b.zmtcdn.com/data/res_imagery/16559882_RESTAURANT_268d7e4d66291a3ca37469caf4ab49c5.jpg?fit=around%7C1200%3A464\u0026crop=1200%3A464%3B0%2C0","locality":"Newtown"},{"name":"Green Gourmet","vote":"187","reviews":"187","address":"115 King Street, Newtown, SydneyNewtown","city":"Sydney","latitude":-33.8929980745,"longitude":151.1841947213,"price_range":27,"rating":4.2,"cuisine_string":["Chinese","Malaysian","Yum Cha","Vegan","Asian","Vegetarian","Dumplings"],"photo":"https://b.zmtcdn.com/data/res_imagery/16557985_CHAIN_def7bc158b66ff2030c546c0417958d9.jpg?fit=around%7C1200%3A464\u0026crop=1200%3A464%3B0%2C0","locality":"Newtown"},{"name":"Shinara","vote":"186","reviews":"186","address":"Shop 1, 338 Pitt Street, CBD, SydneyCBD","city":"Sydney","latitude":-33.87644588,"longitude":151.2081515417,"price_range":30,"rating":3.9,"cuisine_string":["Korean BBQ"],"photo":"https://b.zmtcdn.com/data/reviews_photos/715/b1e8ae934caa5bcdc147b85c1cb6b715_1457944482.jpg?resize=1204%3A677\u0026crop=1200%3A464%3B3%2C96","locality":"CBD"},{"name":"The Tilbury","vote":"138","reviews":"138","address":"12-18 Nicholson Street, Woolloomooloo, SydneyWoolloomoolooNSW","city":"Sydney","latitude":-33.8697638613,"longitude":151.2205011025,"price_range":50,"rating":4.2,"cuisine_string":["Modern Australian"],"photo":"https://b.zmtcdn.com/data/pictures/0/16559220/d8b6c8d49154bbc4f47b8a3a05e12854.jpg?resize=1204%3A802\u0026crop=1200%3A464%3B1%2C303","locality":"Woolloomooloo"},{"name":"Ichi-ban Boshi","vote":"209","reviews":"209","address":"Shop 1, 171-173 Oxford Street, Bondi Junction, SydneyBondi JunctionNSW","city":"Sydney","latitude":-33.8920732581,"longitude":151.2489157543,"price_range":15,"rating":4.3,"cuisine_string":["Japanese","Ramen"],"photo":"https://b.zmtcdn.com/data/res_imagery/16558095_RESTAURANT_b3f8bda4a4fc6fc36e890573ad1da63a.jpg?fit=around%7C1200%3A464\u0026crop=1200%3A464%3B0%2C0","locality":"Bondi Junction"},{"name":"Cafe 0.6","vote":"87","reviews":"87","address":"11/1 Bowden Street, Alexandria, SydneyAlexandriaNSW","city":"Sydney","latitude":-33.904541989,"longitude":151.1961184815,"price_range":20,"rating":4.8,"cuisine_string":["Cafe Food","Coffee and Tea"],"photo":"https://b.zmtcdn.com/data/pictures/chains/6/17742866/80d3519ca87060b9cc0ca8913eb5c6a8.jpg?resize=1204%3A1204\u0026crop=1200%3A464%3B1%2C573","locality":"Alexandria"},{"name":"Yang's Dumpling","vote":"104","reviews":"104","address":"Shop 9, 11-15 Deane Street, Burwood, SydneyBurwood","city":"Sydney","latitude":-33.8768341916,"longitude":151.1049196869,"price_range":15,"rating":4.3,"cuisine_string":["Chinese","Shanghai","Dumplings"],"photo":"https://b.zmtcdn.com/data/pictures/0/17742770/0c810b9fc458cb220c5dbea108e5f782.jpg?resize=1204%3A1204\u0026crop=1200%3A464%3B5%2C326","locality":"Burwood"},{"name":"Cafe Mix - Shangri-La Hotel Sydney","vote":"90","reviews":"90","address":"176 Cumberland Street, The Rocks, SydneyThe Rocks","city":"Sydney","latitude":-33.8613270795,"longitude":151.2064842135,"price_range":40,"rating":4.1,"cuisine_string":["Asian","Cafe Food","Coffee and Tea"],"photo":"https://b.zmtcdn.com/data/pictures/chains/4/16557464/8b7f0bbf1fb707b278670100d530ecfe.jpg?resize=1204%3A803\u0026crop=1200%3A464%3B2%2C131","locality":"The Rocks"},{"name":"Gunners Barracks","vote":"149","reviews":"149","address":"202 Suakin Dr Mosman, Mosman, SydneyMosmanNSW","city":"Sydney","latitude":-33.8366503122,"longitude":151.2582267076,"price_range":40,"rating":4.3,"cuisine_string":["Modern Australian"],"photo":"https://b.zmtcdn.com/data/reviews_photos/bad/e26581c7bc2378fd70ce47311bf11bad_1490597261.JPG?resize=1204%3A1605\u0026crop=1200%3A464%3B-1%2C173","locality":"Mosman"},{"name":"Milky Lane","vote":"139","reviews":"139","address":"141 Curlewis Street, Bondi Beach, SydneyBondi BeachNSW","city":"Sydney","latitude":-33.8891999458,"longitude":151.2742981687,"price_range":37,"rating":4.1,"cuisine_string":["Burger","American","Beverages"],"photo":"https://b.zmtcdn.com/data/pictures/chains/2/15547012/30008b8cdf575d4d02377778ad8e25fc.jpg?resize=1204%3A1204\u0026crop=1200%3A464%3B-1%2C528","locality":"Bondi Beach"},{"name":"Henri Marc","vote":"135","reviews":"135","address":"438 High Street, Penrith, SydneyPenrithNSW","city":"Sydney","latitude":-33.753885986,"longitude":150.6971290335,"price_range":25,"rating":4.2,"cuisine_string":["Cafe Food","Coffee and Tea"],"photo":"https://b.zmtcdn.com/data/pictures/chains/5/16567565/9af67e00c7f53ba114ca3a6e4ab786f1.jpg?resize=1204%3A802\u0026crop=1200%3A464%3B-1%2C241","locality":"Penrith"},{"name":"Café Elation","vote":"79","reviews":"79","address":"226 Victoria Road, Gladesville, SydneyGladesville","city":"Sydney","latitude":-33.8300693427,"longitude":151.1263937876,"price_range":20,"rating":4.7,"cuisine_string":["Cafe Food","Coffee and Tea","Healthy Food","Modern Australian","Salad","Sandwich","Tea","Vegetarian"],"photo":"https://b.zmtcdn.com/data/pictures/7/17745797/43e28d7ce2f929cc7179463d90c0f2e8.jpg?resize=1686%3A468\u0026crop=1200%3A464%3B214%2C2","locality":"Gladesville"},{"name":"Bau Truong","vote":"199","reviews":"200","address":"42 John Street, Cabramatta, SydneyCabramatta","city":"Sydney","latitude":-33.8956536305,"longitude":150.9371750057,"price_range":40,"rating":4.2,"cuisine_string":["Vietnamese"],"photo":"https://b.zmtcdn.com/data/res_imagery/16557258_CHAIN_d4016b8a011fa14e8d334e1b5fee492d.jpg?fit=around%7C1200%3A464\u0026crop=1200%3A464%3B0%2C0","locality":"Cabramatta"},{"name":"Urban Bites","vote":"238","reviews":"238","address":"72 King Street, Newtown, SydneyNewtown","city":"Sydney","latitude":-33.8929254365,"longitude":151.1859066412,"price_range":35,"rating":4.0,"cuisine_string":["Cafe Food","Coffee and Tea"],"photo":"https://b.zmtcdn.com/data/reviews_photos/ee7/e050d2a4e26c3796adee1c64e7980ee7_1498880329.jpg?resize=1204%3A902\u0026crop=1200%3A464%3B-2%2C306","locality":"Newtown"},{"name":"Vecino","vote":"101","reviews":"101","address":"Shop1, 1-3 Charles Street, Canterbury, SydneyCanterburyNSW","city":"Sydney","latitude":-33.912443891,"longitude":151.1175093055,"price_range":35,"rating":4.6,"cuisine_string":["Mexican","Asian Fusion","Korean"],"photo":"https://b.zmtcdn.com/data/pictures/8/17744748/8aac2e3ddcb4dc94061eb38b49bf7271.jpg?resize=1236%3A515\u0026crop=1200%3A464%3B10%2C30","locality":"Canterbury"},{"name":"Pho Pasteur","vote":"213","reviews":"213","address":"709 George Street, Haymarket, SydneyHaymarketNSW","city":"Sydney","latitude":-33.8806637672,"longitude":151.2047313899,"price_range":27,"rating":3.8,"cuisine_string":["Vietnamese","Pho"],"photo":"https://b.zmtcdn.com/data/res_imagery/16558688_CHAIN_cf775d708650a0e6e7899813a87bca11.jpg?fit=around%7C1200%3A464\u0026crop=1200%3A464%3B0%2C0","locality":"Haymarket"},{"name":"Toki Italian Inspired","vote":"90","reviews":"90","address":"63 Crown st, Woolloomooloo, NSWWoolloomoolooNSW","city":"Sydney","latitude":-33.8731959633,"longitude":151.2164472789,"price_range":22,"rating":4.6,"cuisine_string":["Italian","Cafe Food","Coffee and Tea"],"photo":"https://b.zmtcdn.com/data/reviews_photos/2ca/b3e5b948cdbb499b4450d628f1b1a2ca_1467979298.JPG?resize=1204%3A803\u0026crop=1200%3A464%3B0%2C99","locality":"Woolloomooloo"},{"name":"Canton Noodle House","vote":"175","reviews":"175","address":"Shop 45, Burwood Road, Burwood, SydneyBurwood","city":"Sydney","latitude":-33.8748196845,"longitude":151.1040503159,"price_range":30,"rating":4.1,"cuisine_string":["Chinese","Hot Pot"],"photo":"https://b.zmtcdn.com/data/res_imagery/16560870_RESTAURANT_f6be5b2e95d9caa63b6e7e511048e387_c.jpg?fit=around%7C1200%3A464\u0026crop=1200%3A464%3B0%2C0","locality":"Burwood"},{"name":"Aperitivo","vote":"187","reviews":"187","address":"163 Norton Street, Leichhardt, SydneyLeichhardtNSW","city":"Sydney","latitude":-33.8812613748,"longitude":151.1568693817,"price_range":50,"rating":4.2,"cuisine_string":["Italian","Pizza"],"photo":"https://b.zmtcdn.com/data/res_imagery/16560801_RESTAURANT_4e90123967d7b0b07cb6eb8f815fc678_c.jpg?fit=around%7C1200%3A464\u0026crop=1200%3A464%3B0%2C0","locality":"Leichhardt"},{"name":"Chao Ba","vote":"107","reviews":"108","address":"The Concourse, Shop 5, 409 Victoria Avenue, Chatswood, SydneyChatswood","city":"Sydney","latitude":-33.7955754435,"longitude":151.1837109178,"price_range":32,"rating":3.7,"cuisine_string":["Vietnamese"],"photo":"https://b.zmtcdn.com/data/res_imagery/15546679_RESTAURANT_68dce76741d58365bad122a2d53273c9.jpg?fit=around%7C1200%3A464\u0026crop=1200%3A464%3B0%2C0","locality":"Chatswood"},{"name":"Sakana-Ya","vote":"132","reviews":"132","address":"336 Pacific Highway, Crows Nest, SydneyCrows Nest","city":"Sydney","latitude":-33.8271048167,"longitude":151.2000985444,"price_range":20,"rating":4.2,"cuisine_string":["Japanese","Seafood"],"photo":"https://b.zmtcdn.com/data/res_imagery/16558928_RESTAURANT_5528062df5a588f5d254847a3267bb92_c.jpg?fit=around%7C1200%3A464\u0026crop=1200%3A464%3B0%2C0","locality":"Crows Nest"},{"name":"Shady Pines Saloon","vote":"251","reviews":"251","address":"Shop 4, 256 Crown Street, Darlinghurst, SydneyDarlinghurst","city":"Sydney","latitude":-33.8789491362,"longitude":151.2155893073,"price_range":35,"rating":4.3,"cuisine_string":["Bar Food"],"photo":"https://b.zmtcdn.com/data/res_imagery/16562269_RESTAURANT_46d1ca1fa0b7c4a9439c7fcc0011b7a7_c.jpg?fit=around%7C1200%3A464\u0026crop=1200%3A464%3B0%2C0","locality":"Darlinghurst"},{"name":"Little Jean","vote":"110","reviews":"110","address":"1 Kiaora Road, Double Bay, SydneyDouble Bay","city":"Sydney","latitude":-33.8783665435,"longitude":151.2441414222,"price_range":40,"rating":4.3,"cuisine_string":["Modern Australian","Coffee and Tea","Cafe Food"],"photo":"https://b.zmtcdn.com/data/res_imagery/17849040_RESTAURANT_01ed219c7f63a2b034a2351ad9a55123.jpg?fit=around%7C1200%3A464\u0026crop=1200%3A464%3B0%2C0","locality":"Double Bay"},{"name":"Surly's","vote":"155","reviews":"155","address":"182 Campbell Street, Darlinghurst, SydneyDarlinghurstNSW","city":"Sydney","latitude":-33.8806637672,"longitude":151.2153747305,"price_range":32,"rating":4.1,"cuisine_string":["American","BBQ"],"photo":"https://b.zmtcdn.com/data/pictures/chains/7/16715577/2e2318ed44e590a0cb847909f265ff10.jpg?resize=1204%3A1806\u0026crop=1200%3A464%3B-9%2C638","locality":"Darlinghurst"},{"name":"Belgian Beer Cafe Heritage","vote":"212","reviews":"212","address":"135 Harrington Street, The Rocks, SydneyThe Rocks","city":"Sydney","latitude":-33.8627313652,"longitude":151.2064600736,"price_range":60,"rating":4.1,"cuisine_string":["Belgian","Seafood"],"photo":"https://b.zmtcdn.com/data/pictures/chains/9/16558039/7c6a51f185eab8b174b751c871b76f3a.jpg?resize=1204%3A804\u0026crop=1200%3A464%3B0%2C100","locality":"The Rocks"},{"name":"EAT GRK.","vote":"117","reviews":"117","address":"427-441 King Georges Road, Beverly Hills, SydneyBeverly HillsNSW","city":"Sydney","latitude":-33.9504861951,"longitude":151.0813789442,"price_range":25,"rating":4.2,"cuisine_string":["Greek"],"photo":"https://b.zmtcdn.com/data/reviews_photos/e8f/62c5bf82c4b1428be6d94132e3982e8f_1498134137.jpg?resize=1204%3A803\u0026crop=1200%3A464%3B0%2C188","locality":"Beverly Hills"},{"name":"Sambal","vote":"173","reviews":"173","address":"Shop 7, 285 Lane Cove Road, Macquarie Park, SydneyMacquarie Park","city":"Sydney","latitude":-33.7838468133,"longitude":151.1301602796,"price_range":30,"rating":4.1,"cuisine_string":["Chinese","Malaysian"],"photo":"https://b.zmtcdn.com/data/res_imagery/16559680_RESTAURANT_0d1faebf982d2d8f6c7fc063934ebe28_c.jpg?fit=around%7C1200%3A464\u0026crop=1200%3A464%3B0%2C0","locality":"Macquarie Park"},{"name":"Platform 82","vote":"107","reviews":"107","address":"82 Queen Street, Concord West, SydneyConcord WestNSW","city":"Sydney","latitude":-33.8471233967,"longitude":151.0857744142,"price_range":17,"rating":4.1,"cuisine_string":["Coffee and Tea","Cafe Food"],"photo":"https://b.zmtcdn.com/data/res_imagery/18294161_RESTAURANT_e9dfdc7c9bce35eb638d1e55e4a6dcd0.jpg?fit=around%7C1200%3A464\u0026crop=1200%3A464%3B0%2C0","locality":"Concord West"},{"name":"Cafe Once Upon a Time","vote":"98","reviews":"99","address":"8 West Parade, West Ryde, SydneyWest Ryde","city":"Sydney","latitude":-33.8073464836,"longitude":151.0889206454,"price_range":30,"rating":4.0,"cuisine_string":["Cafe Food","Coffee and Tea"],"photo":"https://b.zmtcdn.com/data/res_imagery/15545144_RESTAURANT_60fc0bdad8dc95958281c96536cba33e.jpg?fit=around%7C1200%3A464\u0026crop=1200%3A464%3B0%2C0","locality":"West Ryde"},{"name":"Emma's Snack Bar","vote":"198","reviews":"198","address":"59 Liberty Street,Enmore, SydneyEnmoreNSW","city":"Sydney","latitude":-33.8959978838,"longitude":151.1713150889,"price_range":27,"rating":4.3,"cuisine_string":["Lebanese"],"photo":"https://b.zmtcdn.com/data/res_imagery/16557801_RESTAURANT_ba92b239f495a95f46bb9e25737a65c0.jpg?fit=around%7C1200%3A464\u0026crop=1200%3A464%3B0%2C0","locality":"Enmore"},{"name":"Baffi and Mo","vote":"192","reviews":"192","address":"94 Redfern Street, Redfern, SydneyRedfern","city":"Sydney","latitude":-33.8929705222,"longitude":151.2053238228,"price_range":20,"rating":4.1,"cuisine_string":["Modern Australian","Beverages","Cafe Food","Coffee and Tea"],"photo":"https://b.zmtcdn.com/data/res_imagery/16561352_RESTAURANT_718a153cf9da9657d6637ff54e4f03bb.jpg?fit=around%7C1200%3A464\u0026crop=1200%3A464%3B0%2C0","locality":"Redfern"},{"name":"Black Elk Espresso","vote":"92","reviews":"92","address":"600 Kurrajong Road, Carnes Hill, Camden, SydneyCarnes HillNSW","city":"Sydney","latitude":-33.93535,"longitude":150.845688,"price_range":27,"rating":4.4,"cuisine_string":["Coffee and Tea","Cafe Food"],"photo":"https://b.zmtcdn.com/data/pictures/7/18433937/42e8587e9dfec5f7305c379ec10a5fb6.png?resize=1204%3A1185\u0026crop=1200%3A464%3B1%2C515","locality":"Carnes Hill"},{"name":"The Cottage Bar \u0026 Kitchen","vote":"179","reviews":"179","address":"342 Darling Street, Balmain, SydneyBalmainNSW","city":"Sydney","latitude":-33.8568565418,"longitude":151.1788614839,"price_range":32,"rating":4.2,"cuisine_string":["Seafood","Pizza","Modern Australian"],"photo":"https://b.zmtcdn.com/data/pictures/4/16565254/e6d1bfabdb7dddf453f10b4f7f68bedb.jpg?resize=1204%3A803\u0026crop=1200%3A464%3B0%2C117","locality":"Balmain"},{"name":"Goros","vote":"89","reviews":"90","address":"84-86 Mary Street, \tSurry HillsSurry Hills","city":"Sydney","latitude":-33.8831340557,"longitude":151.2095499784,"price_range":35,"rating":4.1,"cuisine_string":["Japanese"],"photo":"https://b.zmtcdn.com/data/res_imagery/16570370_RESTAURANT_307343b6594307c4fb815558c523b2fc_c.jpg?fit=around%7C1200%3A464\u0026crop=1200%3A464%3B0%2C0","locality":"Surry Hills"},{"name":"Bungalow 8","vote":"188","reviews":"188","address":"3 Lime Street, Darling Harbour, SydneyDarling HarbourNSW","city":"Sydney","latitude":-33.8662336268,"longitude":151.201271005,"price_range":47,"rating":4.1,"cuisine_string":["Seafood","Modern Australian"],"photo":"https://b.zmtcdn.com/data/res_imagery/16557426_RESTAURANT_45470a3e04c893fbc7b54f8fb0c4277e.jpg?fit=around%7C1200%3A464\u0026crop=1200%3A464%3B0%2C0","locality":"Darling Harbour"},{"name":"257 Home Kitchen","vote":"103","reviews":"103","address":"257 Rowe Street, Eastwood, SydneyEastwoodNSW","city":"Sydney","latitude":-33.7922174054,"longitude":151.0779426992,"price_range":50,"rating":3.7,"cuisine_string":["Chinese"],"photo":"https://b.zmtcdn.com/data/res_imagery/16569953_CHAIN_ae406773a1798aa927a70f888e485083_c.jpg?fit=around%7C1200%3A464\u0026crop=1200%3A464%3B0%2C0","locality":"Eastwood"},{"name":"Mint","vote":"182","reviews":"182","address":"226 Burwood Road, Burwood, SydneyBurwood","city":"Sydney","latitude":-33.8794047972,"longitude":151.1034847051,"price_range":20,"rating":4.1,"cuisine_string":["Vietnamese","Pho"],"photo":"https://b.zmtcdn.com/data/res_imagery/16567034_RESTAURANT_8832c0b040fc2c96f75e1de232f556ec.jpg?fit=around%7C1200%3A464\u0026crop=1200%3A464%3B0%2C0","locality":"Burwood"},{"name":"Moorish Blue","vote":"85","reviews":"85","address":"139 Blues Point Road, McMahons Point, SydneyMcMahons PointNSW","city":"Sydney","latitude":-33.8441313371,"longitude":151.2045389414,"price_range":42,"rating":4.2,"cuisine_string":["African","Moroccan"],"photo":"https://b.zmtcdn.com/data/res_imagery/16570472_RESTAURANT_f6e5177b53c0f3e0ebfec152193fc7fb.jpg?fit=around%7C1200%3A464\u0026crop=1200%3A464%3B0%2C0","locality":"McMahons Point"},{"name":"Bloom","vote":"115","reviews":"115","address":"118 Prince Albert Street, Mosman, SydneyMosman","city":"Sydney","latitude":-33.831461888,"longitude":151.2441625446,"price_range":22,"rating":4.3,"cuisine_string":["Cafe Food","Coffee and Tea"],"photo":"https://b.zmtcdn.com/data/reviews_photos/768/1ddd33ae1bae1f3f7b3cc2393b3eb768_1521629139.jpg?resize=1204%3A808\u0026crop=1200%3A464%3B19%2C239","locality":"Mosman"},{"name":"Mrs P's","vote":"167","reviews":"167","address":"34 George Street, Burwood, SydneyBurwood","city":"Sydney","latitude":-33.8761377348,"longitude":151.1034199968,"price_range":20,"rating":4.3,"cuisine_string":["Cafe Food","Coffee and Tea"],"photo":"https://b.zmtcdn.com/data/reviews_photos/984/1d944cd2392e568244baff3ad964d984_1526166318.jpg?resize=1204%3A903\u0026crop=1200%3A464%3B16%2C281","locality":"Burwood"},{"name":"Raw Bar","vote":"152","reviews":"152","address":"136 Warners Avenue, Bondi Beach, SydneyBondi BeachNSW","city":"Sydney","latitude":-33.8886035071,"longitude":151.2781555206,"price_range":35,"rating":4.1,"cuisine_string":["Japanese","Sushi"],"photo":"https://b.zmtcdn.com/data/res_imagery/16558822_RESTAURANT_1219e4a2811cc042d9bcf130194f3989.jpg?fit=around%7C1200%3A464\u0026crop=1200%3A464%3B0%2C0","locality":"Bondi Beach"},{"name":"Platia Greek Taverna","vote":"106","reviews":"106","address":"Outdoor Dining Piazza, Ground Floor, Top Ryde Shopping Centre, Corner Blaxland \u0026 Devlin Street, Ryde, SydneyRydeNSW","city":"Sydney","latitude":-33.8117875757,"longitude":151.1060032994,"price_range":40,"rating":4.2,"cuisine_string":["Greek"],"photo":"https://b.zmtcdn.com/data/pictures/8/15546778/6b437a8da5c8c0fd2d48eec2fa6f6e0b.jpg?resize=1204%3A803\u0026crop=1200%3A464%3B-4%2C116","locality":"Ryde"},{"name":"Arabella Restaurant \u0026 Bar","vote":"205","reviews":"205","address":"Shop 12, 489-491 King Street, Newtown, SydneyNewtown","city":"Sydney","latitude":-33.9023347348,"longitude":151.1788879708,"price_range":0,"rating":3.9,"cuisine_string":["Middle Eastern","Turkish","Lebanese"],"photo":"https://b.zmtcdn.com/data/res_imagery/16557141_RESTAURANT_fa07177173d86cdbb23b1aa056e8b675_c.jpg?fit=around%7C1200%3A464\u0026crop=1200%3A464%3B0%2C0","locality":"Newtown"},{"name":"Youeni","vote":"165","reviews":"165","address":"259 Old Northern Road, \tCastle HillCastle Hill","city":"Sydney","latitude":-33.7346513903,"longitude":151.0030490533,"price_range":25,"rating":4.1,"cuisine_string":["Healthy Food","Cafe Food","Coffee and Tea"],"photo":"https://b.zmtcdn.com/data/res_imagery/16566464_RESTAURANT_d5935616eeb5dd3042efc95b635bbd37.jpg?fit=around%7C1200%3A464\u0026crop=1200%3A464%3B0%2C0","locality":"Castle Hill"},{"name":"The Owl House","vote":"194","reviews":"194","address":"292 Victoria Street, Darlinghurst, SydneyDarlinghurstNSW","city":"Sydney","latitude":-33.8764433748,"longitude":151.2219893932,"price_range":55,"rating":4.3,"cuisine_string":["Modern Australian"],"photo":"https://b.zmtcdn.com/data/pictures/6/16563376/d1cbad0c7ccff305497ea730235dc69e.jpg?resize=1204%3A1204\u0026crop=1200%3A464%3B-5%2C389","locality":"Darlinghurst"},{"name":"Wild Sage Barangaroo","vote":"83","reviews":"83","address":"Exchange Place, 3 Sussex Street, Barangaroo, SydneyBarangarooNSW","city":"Sydney","latitude":-33.865136,"longitude":151.202894,"price_range":37,"rating":4.4,"cuisine_string":["Cafe Food","Coffee and Tea"],"photo":"https://b.zmtcdn.com/data/pictures/1/17743131/a226f9bcd8305bd055afc7237592e9d7.jpg?resize=1204%3A1617\u0026crop=1200%3A464%3B0%2C468","locality":"Barangaroo"},{"name":"Lan Yuan","vote":"77","reviews":"77","address":"Level 1, Top Ryde Shopping Centre, Corner Blaxland and Devlin Street, Ryde, SydneyRyde","city":"Sydney","latitude":-33.8115142973,"longitude":151.1067570001,"price_range":35,"rating":3.9,"cuisine_string":["Chinese","Yum Cha","Cantonese"],"photo":"https://b.zmtcdn.com/data/pictures/chains/0/16715630/f0f39e272335100b313f519a339a33ec.jpg?fit=around%7C1200%3A464\u0026crop=1200%3A464%3B0%2C197","locality":"Ryde"},{"name":"Fat Noodle","vote":"177","reviews":"177","address":"80 Pyrmont St Level 1, Sydney, \tPyrmontPyrmont","city":"Sydney","latitude":-33.8685670889,"longitude":151.1955344304,"price_range":40,"rating":4.0,"cuisine_string":["Asian","Chinese","Vietnamese"],"photo":"https://b.zmtcdn.com/data/res_imagery/16562543_RESTAURANT_81d1b8e73f3bf0e5f65f8d31388ed76a_c.jpg?fit=around%7C1200%3A464\u0026crop=1200%3A464%3B0%2C0","locality":"Pyrmont"},{"name":"Suzuya","vote":"185","reviews":"185","address":"210 Devonshire Street, \tSurry HillsSurry Hills","city":"Sydney","latitude":-33.8877320812,"longitude":151.2114513293,"price_range":32,"rating":4.3,"cuisine_string":["Japanese"],"photo":"https://b.zmtcdn.com/data/res_imagery/16566785_RESTAURANT_1b4d2c64ae4157ba85b5b758a169f87d.jpg?fit=around%7C1200%3A464\u0026crop=1200%3A464%3B0%2C0","locality":"Surry Hills"},{"name":"Olio","vote":"67","reviews":"67","address":"Second floor, Old Rum Store\n10-12 Kensington Street, Chippendale, SydneyChippendale","city":"Sydney","latitude":-33.8846701912,"longitude":151.2017266452,"price_range":100,"rating":4.4,"cuisine_string":["Italian","Mediterranean"],"photo":"https://b.zmtcdn.com/data/pictures/chains/2/15548362/b4604a409d345b57be73670cf4cc4408.jpg?resize=1204%3A804\u0026crop=1200%3A464%3B-4%2C68","locality":"Chippendale"},{"name":"Pottery Green Bakers","vote":"137","reviews":"137","address":"4 St Johns Avenue, Gordon, SydneyGordonNSW","city":"Sydney","latitude":-33.7562933173,"longitude":151.1538016051,"price_range":27,"rating":4.1,"cuisine_string":["Cafe Food","Bakery","Coffee and Tea"],"photo":"https://b.zmtcdn.com/data/reviews_photos/09f/84a04540bec0c686b5ea81d92f97509f_1527377749.jpg?resize=1204%3A1605\u0026crop=1200%3A464%3B1%2C597","locality":"Gordon"},{"name":"Opah","vote":"89","reviews":"89","address":"Level 1, Corner of Gerrale Street \u0026 Kingsway, Cronulla, SydneyCronulla","city":"Sydney","latitude":-34.0518213427,"longitude":151.1546535417,"price_range":50,"rating":3.9,"cuisine_string":["Greek"],"photo":"https://b.zmtcdn.com/data/res_imagery/16558632_RESTAURANT_d26926f8adc7032fc36385ae2f7c6f97.jpg?fit=around%7C1200%3A464\u0026crop=1200%3A464%3B0%2C0","locality":"Cronulla"},{"name":"Chica Bonita","vote":"185","reviews":"185","address":"7 The Corso, Manly, SydneyManlyNSW","city":"Sydney","latitude":-33.7982727567,"longitude":151.2853857502,"price_range":22,"rating":4.3,"cuisine_string":["Mexican"],"photo":"https://b.zmtcdn.com/data/res_imagery/16565606_RESTAURANT_2a1072509cc14744b5c6c5f1d7577767_c.jpg?fit=around%7C1200%3A464\u0026crop=1200%3A464%3B0%2C0","locality":"Manly"},{"name":"Medusa Greek Taverna","vote":"205","reviews":"205","address":"2 Market Street, \tCBDCBD","city":"Sydney","latitude":-33.8714527879,"longitude":151.2052604556,"price_range":35,"rating":4.2,"cuisine_string":["Greek"],"photo":"https://b.zmtcdn.com/data/res_imagery/16558466_RESTAURANT_f9b7288fbed619c7ebcc720ca5823b9a_c.jpg?fit=around%7C1200%3A464\u0026crop=1200%3A464%3B0%2C0","locality":"CBD"},{"name":"Lal Qila","vote":"216","reviews":"216","address":"351-353 Cleveland Street, Redfern, SydneyRedfernNSW","city":"Sydney","latitude":-33.891054,"longitude":151.210414,"price_range":25,"rating":4.1,"cuisine_string":["Indian","Pakistani"],"photo":"https://b.zmtcdn.com/data/res_imagery/16564666_RESTAURANT_53788c8c9783c178dc61eec94111d7b0.jpg?fit=around%7C1200%3A464\u0026crop=1200%3A464%3B0%2C0","locality":"Redfern"},{"name":"Foodcraft Espresso \u0026 Bakery","vote":"118","reviews":"118","address":"33 Bridge Street, Erskineville, SydneyErskinevilleNSW","city":"Sydney","latitude":-33.9032043419,"longitude":151.1850811914,"price_range":30,"rating":4.1,"cuisine_string":["Bakery","Coffee and Tea","Cafe Food"],"photo":"https://b.zmtcdn.com/data/pictures/chains/2/17849272/42baa7f8507ee25f7ec095fd8f6e64bc.jpg?resize=1204%3A803\u0026crop=1200%3A464%3B-8%2C334","locality":"Erskineville"},{"name":"Ragu Pasta \u0026 Wine Bar","vote":"150","reviews":"150","address":"Level 5, Westfield Pitt Street Mall, 188 Pitt Street, CBD, SydneyCBDNSW","city":"Sydney","latitude":-33.8701828251,"longitude":151.2093608826,"price_range":22,"rating":4.0,"cuisine_string":["Italian"],"photo":"https://b.zmtcdn.com/data/reviews_photos/13b/64bff9bc6ec7f04b5495239ec7e3c13b_1513247974.JPG?resize=1204%3A1394\u0026crop=1200%3A464%3B-3%2C573","locality":"CBD"},{"name":"Balcon by Tapavino","vote":"86","reviews":"86","address":"17 Bligh Street, Sydney, CBD, SydneyCBD","city":"Sydney","latitude":-33.8653686539,"longitude":151.2104448304,"price_range":50,"rating":4.2,"cuisine_string":["Seafood","Tapas","Spanish"],"photo":"https://b.zmtcdn.com/data/res_imagery/18354564_RESTAURANT_796735d4463a23f433375fc33fc38b93.jpg?fit=around%7C1200%3A464\u0026crop=1200%3A464%3B0%2C0","locality":"CBD"},{"name":"Summer Salt Restaurant","vote":"193","reviews":"193","address":"66 Mitchell Road, Cronulla, SydneyCronulla","city":"Sydney","latitude":-34.0461679146,"longitude":151.1587667093,"price_range":65,"rating":4.1,"cuisine_string":["Modern Australian","Seafood"],"photo":"https://b.zmtcdn.com/data/reviews_photos/ebe/c68c1e5649c9601968affaea73b5eebe_1518598320.jpg?resize=1204%3A903\u0026crop=1200%3A464%3B-3%2C158","locality":"Cronulla"},{"name":"Manly Wharf Hotel","vote":"187","reviews":"187","address":"Manly Wharf, 19 East Esplanade, Manly, SydneyManly","city":"Sydney","latitude":-33.8001076946,"longitude":151.2851470336,"price_range":35,"rating":4.2,"cuisine_string":["Seafood","Pizza","Bar Food"],"photo":"https://b.zmtcdn.com/data/res_imagery/16558435_RESTAURANT_05f458f2a46dc0c4b6d5f4b7168c7e62.png?fit=around%7C1200%3A464\u0026crop=1200%3A464%3B0%2C0","locality":"Manly"},{"name":"Armory Wharf Cafe","vote":"188","reviews":"188","address":"Blaxland Riverside Park, Jamieson Street, Sydney Olympic Park, SydneySydney Olympic ParkNSW","city":"Sydney","latitude":-33.8251214457,"longitude":151.0633360595,"price_range":30,"rating":3.7,"cuisine_string":["Cafe Food","Coffee and Tea"],"photo":"https://b.zmtcdn.com/data/pictures/chains/5/16561315/1e317dc8764ec8938cdb1d53bc955728.jpg?resize=1204%3A1419\u0026crop=1200%3A464%3B2%2C470","locality":"Sydney Olympic Park"},{"name":"Ipoh on York","vote":"174","reviews":"174","address":"83 York Street, CBD, SydneyCBD","city":"Sydney","latitude":-33.869301746,"longitude":151.2059608475,"price_range":25,"rating":4.2,"cuisine_string":["Malaysian"],"photo":"https://b.zmtcdn.com/data/res_imagery/16564812_RESTAURANT_c9c18ef40003d5d2ada589d70b416e9b_c.jpg?fit=around%7C1200%3A464\u0026crop=1200%3A464%3B0%2C0","locality":"CBD"},{"name":"Cafe Crop","vote":"132","reviews":"133","address":"1 Strathfield Square, Strathfield, SydneyStrathfield","city":"Sydney","latitude":-33.872328834,"longitude":151.0940074548,"price_range":15,"rating":4.3,"cuisine_string":["Beverages","Coffee and Tea","Desserts","Ice Cream","Juices","Tea","Cafe Food"],"photo":"https://b.zmtcdn.com/data/reviews_photos/438/7495cce3054a96975333ef39a1ab0438_1516106063.jpg?resize=1204%3A1204\u0026crop=1200%3A464%3B0%2C141","locality":"Strathfield"},{"name":"The Stinking Bishops","vote":"156","reviews":"156","address":"63-71 Enmore Road, NewtownNewtown","city":"Sydney","latitude":-33.8984980617,"longitude":151.1755445972,"price_range":40,"rating":4.5,"cuisine_string":["British","Modern Australian"],"photo":"https://b.zmtcdn.com/data/pictures/chains/2/16568742/96521163c53c103e53fc5c4a2fd19834.jpg?resize=1204%3A803\u0026crop=1200%3A464%3B0%2C99","locality":"Newtown"},{"name":"Lord of the Fries","vote":"204","reviews":"204","address":"537 George Street, CBD, SydneyCBD","city":"Sydney","latitude":-33.8760163692,"longitude":151.2064832076,"price_range":0,"rating":3.9,"cuisine_string":["Fast Food","Burger","Vegan","Vegetarian"],"photo":"https://b.zmtcdn.com/data/res_imagery/16567259_CHAIN_f3621d68785301e0bf999c8e4ea5a02a.jpg?fit=around%7C1200%3A464\u0026crop=1200%3A464%3B0%2C0","locality":"CBD"},{"name":"Sonoma Café","vote":"138","reviews":"138","address":"32-44 Birmingham Street, Alexandria, SydneyAlexandria","city":"Sydney","latitude":-33.9205999067,"longitude":151.1956728995,"price_range":40,"rating":4.2,"cuisine_string":["Cafe Food","Bakery","Coffee and Tea"],"photo":"https://b.zmtcdn.com/data/pictures/3/16564013/dfb3666129461e37fe0d0e30ed532d0c.jpg?resize=1204%3A903\u0026crop=1200%3A464%3B-1%2C120","locality":"Alexandria"},{"name":"Willis Canteen","vote":"257","reviews":"257","address":"197/392 Jones Street, \tUltimoUltimoNSW","city":"Sydney","latitude":-33.8778009265,"longitude":151.1966009438,"price_range":15,"rating":2.9,"cuisine_string":["Indonesian"],"photo":"https://b.zmtcdn.com/data/res_imagery/16567886_RESTAURANT_0e4cc6171cf211ecd9d278b90c6aec0f.jpg?fit=around%7C1200%3A464\u0026crop=1200%3A464%3B0%2C0","locality":"Ultimo"},{"name":"The Palace Tea Room","vote":"114","reviews":"114","address":"Shop L1 20-22 Queen Victoria Building, 455 George Street, \tCBDCBD","city":"Sydney","latitude":-33.8718013145,"longitude":151.2069700286,"price_range":40,"rating":4.0,"cuisine_string":["Coffee and Tea","European"],"photo":"https://b.zmtcdn.com/data/res_imagery/16568400_RESTAURANT_6f9b8e3183e30523a816c4b78321f0db.jpg?fit=around%7C1200%3A464\u0026crop=1200%3A464%3B0%2C0","locality":"CBD"},{"name":"Doughbox Diner","vote":"153","reviews":"153","address":"137 Enmore Road, Enmore, SydneyEnmore","city":"Sydney","latitude":-33.8987551996,"longitude":151.1732811481,"price_range":17,"rating":4.2,"cuisine_string":["American","Crepes","Desserts"],"photo":"https://b.zmtcdn.com/data/reviews_photos/06b/15e0874a0f298f2c5bfe53e503f0506b_1541065600.JPG?resize=1204%3A803\u0026crop=1200%3A464%3B0%2C61","locality":"Enmore"},{"name":"Thousand Spices","vote":"200","reviews":"200","address":"23 The Crescent, Homebush, SydneyHomebush","city":"Sydney","latitude":-33.8671912949,"longitude":151.085996367,"price_range":22,"rating":4.0,"cuisine_string":["Indian","Vegetarian"],"photo":"https://b.zmtcdn.com/data/reviews_photos/cf1/a3092b06a0049ecd1f49839fbe852cf1_1513781397.jpg?resize=1204%3A1605\u0026crop=1200%3A464%3B0%2C500","locality":"Homebush"},{"name":"RaRa","vote":"114","reviews":"114","address":"60b Regent Street, Redfern, SydneyRedfern","city":"Sydney","latitude":-33.8927737594,"longitude":151.2004116923,"price_range":20,"rating":4.4,"cuisine_string":["Ramen","Japanese"],"photo":"https://b.zmtcdn.com/data/pictures/7/17745857/3b21a8405d8b89d005a25106a5364ef5.jpg?resize=1204%3A803\u0026crop=1200%3A464%3B-4%2C304","locality":"Redfern"},{"name":"John Montagu","vote":"150","reviews":"150","address":"144-146 Cathedral Street, Woolloomooloo, SydneyWoolloomoolooNSW","city":"Sydney","latitude":-33.8725242521,"longitude":151.2183613703,"price_range":20,"rating":4.4,"cuisine_string":["Sandwich","Cafe Food","Coffee and Tea"],"photo":"https://b.zmtcdn.com/data/res_imagery/16568172_RESTAURANT_d07643cd07ea3e30a99d56aa4aca5f1e_c.jpg?fit=around%7C1200%3A464\u0026crop=1200%3A464%3B0%2C0","locality":"Woolloomooloo"},{"name":"The Argyle","vote":"180","reviews":"180","address":"The Rocks Centre, 18 Argyle Street, The Rocks, SydneyThe Rocks","city":"Sydney","latitude":-33.858975044,"longitude":151.2078393996,"price_range":40,"rating":3.8,"cuisine_string":["Modern Australian","Bar Food","Pizza"],"photo":"https://b.zmtcdn.com/data/pictures/5/16559815/8fb60791cbd5f8db4d16759f33bfba65.jpg?resize=1204%3A803\u0026crop=1200%3A464%3B0%2C99","locality":"The Rocks"},{"name":"Big Tree House","vote":"118","reviews":"119","address":"88 Calder Road, Dundas, SydneyDundasNSW","city":"Sydney","latitude":-33.8074587534,"longitude":151.0414334759,"price_range":20,"rating":4.3,"cuisine_string":["Cafe Food","Coffee and Tea"],"photo":"https://b.zmtcdn.com/data/res_imagery/16568980_RESTAURANT_f8d98813c8190e92f0d0d62178509dce.JPG?fit=around%7C1200%3A464\u0026crop=1200%3A464%3B0%2C0","locality":"Dundas"},{"name":"Jpb","vote":"86","reviews":"86","address":"Level 8, 68 Market Street, \tCBD, CBD, SydneyCBD","city":"Sydney","latitude":-33.870548338,"longitude":151.2075721845,"price_range":40,"rating":4.1,"cuisine_string":["Modern Australian"],"photo":"https://b.zmtcdn.com/data/res_imagery/16558191_RESTAURANT_3564c4b36513e984785249519e1c8923_c.jpg?fit=around%7C1200%3A464\u0026crop=1200%3A464%3B0%2C0","locality":"CBD"},{"name":"Tatsuya","vote":"149","reviews":"150","address":"2-6 Chatham Road, West Ryde, SydneyWest RydeNSW","city":"Sydney","latitude":-33.8064753428,"longitude":151.0870410875,"price_range":27,"rating":4.1,"cuisine_string":["Japanese"],"photo":"https://b.zmtcdn.com/data/reviews_photos/060/6879badc440b606c4c25e1e0307e9060_1490437635.jpg?resize=1204%3A903\u0026crop=1200%3A464%3B0%2C149","locality":"West Ryde"},{"name":"Masala Bowl","vote":"174","reviews":"174","address":"382A Pitt Street, CBD, SydneyCBD","city":"Sydney","latitude":-33.8779434445,"longitude":151.2079332769,"price_range":20,"rating":4.3,"cuisine_string":["Indian"],"photo":"https://b.zmtcdn.com/data/pictures/chains/2/16567682/4c7aed927b29ca0f2039925f20e51a7c.jpeg?resize=1204%3A958\u0026crop=1200%3A464%3B1%2C238","locality":"CBD"},{"name":"Plunge No. 46","vote":"143","reviews":"143","address":"46 Lackey Street, Summer Hill, SydneySummer Hill","city":"Sydney","latitude":-33.8915878855,"longitude":151.1382732913,"price_range":27,"rating":4.2,"cuisine_string":["Cafe Food","Coffee and Tea"],"photo":"https://b.zmtcdn.com/data/reviews_photos/e72/cc6fb3192f31dd0142e3bf15634f8e72_1457996572.jpg?resize=1204%3A1204\u0026crop=1200%3A464%3B8%2C238","locality":"Summer Hill"},{"name":"Kanzi Cafe","vote":"124","reviews":"124","address":"Lower Ground, 393-399 Sussex Street, Haymarket, SydneyHaymarketNSW","city":"Sydney","latitude":-33.8783481721,"longitude":151.2045788392,"price_range":17,"rating":4.0,"cuisine_string":["Asian","Desserts","Coffee and Tea"],"photo":"https://b.zmtcdn.com/data/reviews_photos/45d/f06572376252e1309e7d5dd12dbaf45d_1520680239.jpg?resize=1204%3A1204\u0026crop=1200%3A464%3B1%2C447","locality":"Haymarket"},{"name":"Old Thanh Huong","vote":"151","reviews":"151","address":"356 Illawarra Road, Marrickville, SydneyMarrickville","city":"Sydney","latitude":-33.9147006875,"longitude":151.1526599899,"price_range":20,"rating":4.1,"cuisine_string":["Vietnamese","Thai"],"photo":"https://b.zmtcdn.com/data/reviews_photos/e27/46af9afe70ec150ebe3070841ce01e27_1490921361.jpg?resize=1204%3A903\u0026crop=1200%3A464%3B8%2C236","locality":"Marrickville"},{"name":"Manmaruya","vote":"155","reviews":"155","address":"217 Liverpool Road, Ashfield, SydneyAshfield","city":"Sydney","latitude":-33.8895520181,"longitude":151.1262130737,"price_range":22,"rating":4.1,"cuisine_string":["Japanese","Ramen"],"photo":"https://b.zmtcdn.com/data/res_imagery/16564120_RESTAURANT_8c924cd821054c95645d2b2e4e744318.jpg?fit=around%7C1200%3A464\u0026crop=1200%3A464%3B0%2C0","locality":"Ashfield"},{"name":"Old School Ka-Fey","vote":"120","reviews":"120","address":"382 Pitt Street, CBD, SydneyCBD","city":"Sydney","latitude":-33.8779993939,"longitude":151.2087389454,"price_range":20,"rating":4.5,"cuisine_string":["Cafe Food","Coffee and Tea"],"photo":"https://b.zmtcdn.com/data/pictures/9/17746799/650eb213a80685af12d1d7cb4a95d565.jpg?resize=1204%3A792\u0026crop=1200%3A464%3B-20%2C165","locality":"CBD"},{"name":"Indo Rasa","vote":"164","reviews":"164","address":"Shop 1, 309 Anzac Parade, Kingsford, SydneyKingsford","city":"Sydney","latitude":-33.9228520359,"longitude":151.2268515676,"price_range":17,"rating":4.1,"cuisine_string":["Indonesian"],"photo":"https://b.zmtcdn.com/data/res_imagery/16562616_RESTAURANT_b68964112821da903a986a5ed8da165d_c.jpg?fit=around%7C1200%3A464\u0026crop=1200%3A464%3B0%2C0","locality":"Kingsford"},{"name":"Bondi Trattoria","vote":"169","reviews":"169","address":"34 Campbell Parade, Bondi Beach, SydneyBondi Beach","city":"Sydney","latitude":-33.8938811353,"longitude":151.2728698924,"price_range":40,"rating":4.1,"cuisine_string":["Italian","Modern Australian"],"photo":"https://b.zmtcdn.com/data/reviews_photos/8c3/62e315641ab7d577ac7d92cf554d98c3_1500790201.JPG?resize=1204%3A815\u0026crop=1200%3A464%3B0%2C37","locality":"Bondi Beach"},{"name":"Wolfe \u0026 Co.","vote":"98","reviews":"98","address":"538 Old Northern Road, Dural, SydneyDuralNSW","city":"Sydney","latitude":-33.6938910723,"longitude":151.0209812969,"price_range":27,"rating":4.1,"cuisine_string":["Cafe Food","Coffee and Tea"],"photo":"https://b.zmtcdn.com/data/pictures/8/18208348/260725a043f3aa0d633afcf43a36fef2.jpg?resize=1204%3A803\u0026crop=1200%3A464%3B0%2C99","locality":"Dural"},{"name":"La Sen","vote":"86","reviews":"86","address":"35 Perouse Road, Randwick, SydneyRandwick","city":"Sydney","latitude":-33.9197616376,"longitude":151.2426762655,"price_range":0,"rating":4.2,"cuisine_string":["Vietnamese"],"photo":"https://b.zmtcdn.com/data/pictures/4/16570484/f6018ca8ea575b97a13b65450c90798c.jpg?resize=1204%3A803\u0026crop=1200%3A464%3B1%2C230","locality":"Randwick"},{"name":"Basax Korean Chicken and Dining","vote":"117","reviews":"117","address":"415 Pitt Street, Haymarket, Sydney, SydneyHaymarket","city":"Sydney","latitude":-33.8784862356,"longitude":151.2071980164,"price_range":25,"rating":4.5,"cuisine_string":["Korean","Fried Chicken","Asian","Hot Pot"],"photo":"https://b.zmtcdn.com/data/pictures/3/17745513/99ef9c3dbf82f99ed6c17eaa445692c3.jpg?resize=1204%3A1178\u0026crop=1200%3A464%3B0%2C287","locality":"Haymarket"},{"name":"Mother Chu's Vegetarian Kitchen","vote":"183","reviews":"183","address":"367 Pitt Street, CBD, SydneyCBD","city":"Sydney","latitude":-33.8760113587,"longitude":151.2079195306,"price_range":40,"rating":4.1,"cuisine_string":["Vegetarian"],"photo":"https://b.zmtcdn.com/data/reviews_photos/ca9/ecc15e7b1a3bb22a0c34163a7bc8eca9_1520075528.jpg?resize=1204%3A903\u0026crop=1200%3A464%3B-11%2C230","locality":"CBD"},{"name":"Ocean Foods","vote":"171","reviews":"171","address":"154 Lyons Road, Drummoyne, SydneyDrummoyneNSW","city":"Sydney","latitude":-33.8555217665,"longitude":151.1473988369,"price_range":20,"rating":4.0,"cuisine_string":["Seafood"],"photo":"https://b.zmtcdn.com/data/res_imagery/16560946_RESTAURANT_ac8da3e40ad2e1b9f6faf84af0df0873_c.jpg?fit=around%7C1200%3A464\u0026crop=1200%3A464%3B0%2C0","locality":"Drummoyne"},{"name":"The Pantry Manly","vote":"158","reviews":"159","address":"41 Ocean Promenade, North Steyne, Manly, SydneyManlyNSW","city":"Sydney","latitude":-33.796721415,"longitude":151.2881591544,"price_range":45,"rating":4.2,"cuisine_string":["Seafood","Tapas","Modern Australian","European"],"photo":"https://b.zmtcdn.com/data/res_imagery/16558433_RESTAURANT_185bf5645fb0f43c17c2d09004f7b151.jpg?fit=around%7C1200%3A464\u0026crop=1200%3A464%3B0%2C0","locality":"Manly"},{"name":"The Muglan","vote":"150","reviews":"150","address":"116 Liverpool Street, CBD, SydneyCBD","city":"Sydney","latitude":-33.8766362782,"longitude":151.2076231465,"price_range":42,"rating":4.3,"cuisine_string":["Nepalese"],"photo":"https://b.zmtcdn.com/data/reviews_photos/1a8/64a6c4d0b0250e1e30e8b78b48e451a8_1514880554.jpg?resize=1204%3A660\u0026crop=1200%3A464%3B0%2C76","locality":"CBD"},{"name":"Shalom Indonesian Restaurant","vote":"158","reviews":"158","address":"Shop 3-4, 299 Sussex Street, CBD, SydneyCBD","city":"Sydney","latitude":-33.8749162773,"longitude":151.2044313178,"price_range":0,"rating":4.1,"cuisine_string":["Indonesian"],"photo":"https://b.zmtcdn.com/data/reviews_photos/2a0/b0aed8e454cb92745c3bada6db0c22a0_1481881958.jpg?resize=1204%3A1605\u0026crop=1200%3A464%3B-1%2C622","locality":"CBD"},{"name":"Gemelle Ristorante","vote":"116","reviews":"116","address":"79 Bathurst Street, Liverpool, SydneyLiverpool","city":"Sydney","latitude":-33.9251358205,"longitude":150.9206204116,"price_range":60,"rating":4.2,"cuisine_string":["Italian"],"photo":"https://b.zmtcdn.com/data/pictures/2/16557932/691b10f2afdebcdd5545cc48b185e42c.jpg?resize=1204%3A803\u0026crop=1200%3A464%3B-2%2C172","locality":"Liverpool"},{"name":"Kammadhenu Newtown","vote":"187","reviews":"187","address":"171 King Street, Newtown, SydneyNewtown","city":"Sydney","latitude":-33.8940144425,"longitude":151.1826859787,"price_range":22,"rating":4.2,"cuisine_string":["Indian","Malaysian","Sri Lankan","Vegetarian"],"photo":"https://b.zmtcdn.com/data/res_imagery/16559445_RESTAURANT_de8559249adba9fc8d43c76bffdedcc7.jpg?fit=around%7C1200%3A464\u0026crop=1200%3A464%3B0%2C0","locality":"Newtown"},{"name":"Machiavelli","vote":"139","reviews":"139","address":"123 Clarence Street, CBD, SydneyCBDNSW","city":"Sydney","latitude":-33.8672742552,"longitude":151.2049007043,"price_range":70,"rating":4.4,"cuisine_string":["Italian"],"photo":"https://b.zmtcdn.com/data/pictures/3/16558393/9bd11b07b9f0d604c1bebac601bbcb06.jpg?resize=1204%3A677\u0026crop=1200%3A464%3B1%2C208","locality":"CBD"},{"name":"Osteria di Russo \u0026 Russo","vote":"133","reviews":"133","address":"158 Enmore Road, Enmore, SydneyEnmore","city":"Sydney","latitude":-33.8990593671,"longitude":151.173068583,"price_range":60,"rating":4.3,"cuisine_string":["Italian"],"photo":"https://b.zmtcdn.com/data/reviews_photos/2b0/ad70a196552e5a4300333a74e287c2b0_1512384751.jpg?resize=1204%3A903\u0026crop=1200%3A464%3B2%2C95","locality":"Enmore"},{"name":"Coco Cubano","vote":"195","reviews":"195","address":"302 Church Street, Parramatta, SydneyParramatta","city":"Sydney","latitude":-33.8124146365,"longitude":151.0039791092,"price_range":25,"rating":2.4,"cuisine_string":["Latin American","Tapas","Coffee and Tea"],"photo":"https://b.zmtcdn.com/data/res_imagery/16568175_CHAIN_6a6b317d3e84c4fcacbe28536f7993b6.jpg?fit=around%7C1200%3A464\u0026crop=1200%3A464%3B0%2C0","locality":"Parramatta"},{"name":"Kansai","vote":"162","reviews":"162","address":"Shop B1, Basement Level, Hunter Connection, 7-13 Hunter Street, CBD, SydneyCBDNSW","city":"Sydney","latitude":-33.8657102455,"longitude":151.2079731748,"price_range":30,"rating":4.1,"cuisine_string":["Japanese"],"photo":"https://b.zmtcdn.com/data/reviews_photos/6fc/c1ec98cc884981984027e01e3f01b6fc_1491633392.jpg?resize=1204%3A903\u0026crop=1200%3A464%3B0%2C114","locality":"CBD"},{"name":"Kelby's Cafe","vote":"118","reviews":"119","address":"293 Marrickville Road, Marrickville, SydneyMarrickville","city":"Sydney","latitude":-33.9098581425,"longitude":151.1551071703,"price_range":20,"rating":4.2,"cuisine_string":["Cafe Food","Coffee and Tea"],"photo":"https://b.zmtcdn.com/data/reviews_photos/e8f/86130e2e2ecd867addd7d3c9c0077e8f_1502336736.jpg?resize=1204%3A903\u0026crop=1200%3A464%3B0%2C149","locality":"Marrickville"},{"name":"Fisherman's Wharf Seafood Restaurant 漁人碼頭海鮮酒家 (2樓)","vote":"138","reviews":"138","address":"Level 1, 20 Bank Street, PyrmontPyrmont","city":"Sydney","latitude":-33.8736369015,"longitude":151.1923630536,"price_range":32,"rating":4.1,"cuisine_string":["Chinese","Seafood","Yum Cha","Hot Pot","Asian","Dumplings"],"photo":"https://b.zmtcdn.com/data/res_imagery/16557857_RESTAURANT_196247550e0dea979caead469733da90_c.jpg?fit=around%7C1200%3A464\u0026crop=1200%3A464%3B0%2C0","locality":"Pyrmont"},{"name":"Me Oi","vote":"125","reviews":"125","address":"Shop 41, The Boulevarde, Strathfield, SydneyStrathfieldNSW","city":"Sydney","latitude":-33.8739525717,"longitude":151.0936084762,"price_range":20,"rating":4.2,"cuisine_string":["Vietnamese","Pho"],"photo":"https://b.zmtcdn.com/data/res_imagery/16569425_RESTAURANT_685ed0ca718de93c855252ff996a0d04_c.jpg?fit=around%7C1200%3A464\u0026crop=1200%3A464%3B0%2C0","locality":"Strathfield"},{"name":"Fika Swedish Kitchen","vote":"137","reviews":"137","address":"5B Market Lane, Manly, SydneyManlyNSW","city":"Sydney","latitude":-33.7973770052,"longitude":151.2860298157,"price_range":25,"rating":4.2,"cuisine_string":["European","Sandwich","Swedish"],"photo":"https://b.zmtcdn.com/data/pictures/chains/2/16567172/e1dcbd64e11049d7f47fa6262802cd4e.jpg?resize=1204%3A1605\u0026crop=1200%3A464%3B0%2C500","locality":"Manly"},{"name":"Pastabella","vote":"186","reviews":"186","address":"89 Glebe Point Road, Glebe, SydneyGlebe","city":"Sydney","latitude":-33.8824306918,"longitude":151.1903557554,"price_range":32,"rating":4.2,"cuisine_string":["Italian"],"photo":"https://b.zmtcdn.com/data/pictures/0/16560110/8cba34f69603eb385f4ddbafcee9dc01.jpg?resize=1204%3A903\u0026crop=1200%3A464%3B0%2C297","locality":"Glebe"},{"name":"Cappello Pizzeria","vote":"194","reviews":"194","address":"79 Darling Street, Balmain East, SydneyBalmain EastNSW","city":"Sydney","latitude":-33.8575119494,"longitude":151.1926061288,"price_range":30,"rating":4.2,"cuisine_string":["Italian","Pizza"],"photo":"https://b.zmtcdn.com/data/pictures/chains/6/16562676/a940c87e002969862e518cbf196c0017.jpg?resize=1204%3A841\u0026crop=1200%3A464%3B0%2C175","locality":"Balmain East"},{"name":"Fourth Village Restaurant","vote":"189","reviews":"189","address":"Myahgah Mews, 5a Vista Street, Mosman, SydneyMosmanNSW","city":"Sydney","latitude":-33.8252660013,"longitude":151.2408842146,"price_range":37,"rating":4.2,"cuisine_string":["Italian"],"photo":"https://b.zmtcdn.com/data/res_imagery/16559564_RESTAURANT_9369ac13a99334faa10b0ed786539f0d_c.jpg?fit=around%7C1200%3A464\u0026crop=1200%3A464%3B0%2C0","locality":"Mosman"},{"name":"SO.9","vote":"94","reviews":"94","address":"18 Danks Street, Waterloo, SydneyWaterloo","city":"Sydney","latitude":-33.8978229318,"longitude":151.2113038078,"price_range":35,"rating":4.2,"cuisine_string":["Vietnamese"],"photo":"https://b.zmtcdn.com/data/reviews_photos/767/ba36a9a9babb02ef823272d896edc767_1490598098.jpg?resize=1204%3A903\u0026crop=1200%3A464%3B0%2C124","locality":"Waterloo"},{"name":"Hacienda","vote":"116","reviews":"116","address":"Pullman Quay Grand, 61 Macquarie Street, Sydney, Circular Quay, SydneyCircular QuayNSW","city":"Sydney","latitude":-33.8609116916,"longitude":151.2128397077,"price_range":40,"rating":4.1,"cuisine_string":["Bar Food","Cuban","Modern Australian","Tapas"],"photo":"https://b.zmtcdn.com/data/res_imagery/18357063_RESTAURANT_45bdd22bd185d1b83d4a4aec7891dd3a.jpg?fit=around%7C1200%3A464\u0026crop=1200%3A464%3B0%2C0","locality":"Circular Quay"},{"name":"Restaurant 317","vote":"197","reviews":"197","address":"317 Church Street, Parramatta, SydneyParramatta","city":"Sydney","latitude":-33.8115103973,"longitude":151.0039948672,"price_range":60,"rating":3.9,"cuisine_string":["Italian","Mediterranean","Modern Australian"],"photo":"https://b.zmtcdn.com/data/pictures/4/16557064/e500964eebbafd6fd9ed18cb05b68eeb.jpg?resize=1231%3A468\u0026crop=1200%3A464%3B21%2C-2","locality":"Parramatta"},{"name":"The Bulgogi","vote":"94","reviews":"94","address":"16 Lyons Street, Strathfield, SydneyStrathfieldNSW","city":"Sydney","latitude":-33.8739926567,"longitude":151.0947081819,"price_range":35,"rating":3.9,"cuisine_string":["Korean BBQ","Hot Pot"],"photo":"https://b.zmtcdn.com/data/reviews_photos/453/55c3b4f74d33a958328ee1ee61d60453_1548567439.jpg?resize=1204%3A800\u0026crop=1200%3A464%3B-2%2C157","locality":"Strathfield"},{"name":"Continental Deli Bar and Bistro","vote":"85","reviews":"85","address":"210 Australia Street, Newtown, SydneyNewtownNSW","city":"Sydney","latitude":-33.8963109666,"longitude":151.1783823744,"price_range":62,"rating":4.5,"cuisine_string":["Deli","Sandwich","European"],"photo":"https://b.zmtcdn.com/data/pictures/chains/3/15546043/a634000036bb3e5e57cb2b68b8f63823.jpg?resize=1204%3A746\u0026crop=1200%3A464%3B-1%2C282","locality":"Newtown"},{"name":"Bistro Moncur","vote":"229","reviews":"229","address":"116A Queen Street, Woollahra, SydneyWoollahraNSW","city":"Sydney","latitude":-33.8887596447,"longitude":151.2376464531,"price_range":75,"rating":4.2,"cuisine_string":["French"],"photo":"https://b.zmtcdn.com/data/pictures/3/16557333/1a21fbf5083969c691006d935752d61b.jpg?resize=1204%3A803\u0026crop=1200%3A464%3B0%2C142","locality":"Woollahra"},{"name":"Ribs and Rumps","vote":"161","reviews":"161","address":"8 Dawn Fraser Avenue, Sydney Olympic Park, SydneySydney Olympic ParkNSW","city":"Sydney","latitude":-33.8467959321,"longitude":151.0701669753,"price_range":50,"rating":2.2,"cuisine_string":["Burger","Steak"],"photo":"https://b.zmtcdn.com/data/res_imagery/16558855_CHAIN_78f73867ecdc6ee1c6c3f16a49b87c4c_c.jpg?fit=around%7C1200%3A464\u0026crop=1200%3A464%3B0%2C0","locality":"Sydney Olympic Park"},{"name":"NOLA Smokehouse and Bar","vote":"80","reviews":"80","address":"T1.13, Level 1, International Tower One, 100 Barangaroo Ave, Barangaroo, SydneyBarangaroo","city":"Sydney","latitude":-33.8639298898,"longitude":151.2018704787,"price_range":65,"rating":4.3,"cuisine_string":["American","BBQ"],"photo":"https://b.zmtcdn.com/data/res_imagery/18461458_RESTAURANT_903b641216b99663d7292893a54b211e.jpg?fit=around%7C1200%3A464\u0026crop=1200%3A464%3B0%2C0","locality":"Barangaroo"},{"name":"Jet Bar Caffe","vote":"201","reviews":"201","address":"Shop 55, Ground Level, QVB, 455 George Street, CBD, SydneyCBDNSW","city":"Sydney","latitude":-33.8729367998,"longitude":151.206961982,"price_range":40,"rating":3.8,"cuisine_string":["Italian","Cafe Food","Coffee and Tea"],"photo":"https://b.zmtcdn.com/data/pictures/8/16559938/843db8700592f67ef16e5a51437693d1.jpg?resize=1204%3A1605\u0026crop=1200%3A464%3B-1%2C486","locality":"CBD"},{"name":"Tamarillo","vote":"76","reviews":"76","address":"345 Victoria Avenue, Chatswood, SydneyChatswood","city":"Sydney","latitude":-33.794533942,"longitude":151.1865604296,"price_range":40,"rating":4.1,"cuisine_string":["Modern Australian","Vegetarian"],"photo":"https://b.zmtcdn.com/data/pictures/9/15546199/2249e4d102c252a2977d65d9e6cb0ae1.jpg?resize=1204%3A903\u0026crop=1200%3A464%3B-2%2C246","locality":"Chatswood"},{"name":"La Favola","vote":"92","reviews":"93","address":"170 King Street, Newtown, SydneyNewtown","city":"Sydney","latitude":-33.8940879144,"longitude":151.1830350012,"price_range":40,"rating":4.5,"cuisine_string":["Italian"],"photo":"https://b.zmtcdn.com/data/pictures/3/17744433/e0c0b2879c20c4e7e3ab3b518cdb0a41.jpeg?resize=1204%3A669\u0026crop=1200%3A464%3B-3%2C159","locality":"Newtown"},{"name":"Hotpot City","vote":"115","reviews":"115","address":"Ground Floor, Little Saigon Plaza, 462 Chapel Road, Bankstown, SydneyBankstownNSW","city":"Sydney","latitude":-33.9132499562,"longitude":151.0336533934,"price_range":40,"rating":4.1,"cuisine_string":["Hot Pot","Asian"],"photo":"","locality":"Bankstown"},{"name":"Lantern By Wagaya","vote":"153","reviews":"153","address":"Level 2, 591 George Street, Chinatown, CBD, SydneyCBD","city":"Sydney","latitude":-33.8775345396,"longitude":151.2058733404,"price_range":25,"rating":4.0,"cuisine_string":["Japanese"],"photo":"https://b.zmtcdn.com/data/res_imagery/16565236_RESTAURANT_88ab748013c3f575302171067a6cec7a.jpg?fit=around%7C1200%3A464\u0026crop=1200%3A464%3B0%2C0","locality":"CBD"},{"name":"Casoni","vote":"87","reviews":"87","address":"371-373 Bourke Street, Darlinghurst, SydneyDarlinghurst","city":"Sydney","latitude":-33.8800057538,"longitude":151.2168217823,"price_range":55,"rating":4.3,"cuisine_string":["Italian"],"photo":"https://b.zmtcdn.com/data/res_imagery/16569676_RESTAURANT_53b0fa203bffc8c0f8bc58a721cfadf2_c.jpg?fit=around%7C1200%3A464\u0026crop=1200%3A464%3B0%2C0","locality":"Darlinghurst"},{"name":"Panama House","vote":"156","reviews":"157","address":"Shop L104A - The Pacific Bondi 180-186 Campbell Parade, Bondi BeachBondi BeachNSW","city":"Sydney","latitude":-33.8892347356,"longitude":151.2760751322,"price_range":35,"rating":4.3,"cuisine_string":["Coffee and Tea","Modern Australian","Cafe Food"],"photo":"https://b.zmtcdn.com/data/res_imagery/16565245_RESTAURANT_39fd2fb78a403173b3c6e4a2b181a6ea.jpg?fit=around%7C1200%3A464\u0026crop=1200%3A464%3B0%2C0","locality":"Bondi Beach"},{"name":"Cheeky Chocolate","vote":"162","reviews":"162","address":"11 George Street, North Strathfield, SydneyNorth StrathfieldNSW","city":"Sydney","latitude":-33.8625698903,"longitude":151.0881179944,"price_range":12,"rating":4.0,"cuisine_string":["Desserts","Cafe Food","Coffee and Tea"],"photo":"https://b.zmtcdn.com/data/res_imagery/16564487_RESTAURANT_21cc0bb94360f1c70a66768087c4984e.jpg?fit=around%7C1200%3A464\u0026crop=1200%3A464%3B0%2C0","locality":"North Strathfield"},{"name":"Mr Meng Chongqing Gourmet 孟非的小面 - 1909 Dining Precinct","vote":"83","reviews":"83","address":"Level 3, 1909 Dining Precinct, Market City, 9/13 Hay Street, Chinatown, Haymarket, SydneyHaymarket","city":"Sydney","latitude":-33.8797577449,"longitude":151.203064397,"price_range":25,"rating":3.9,"cuisine_string":["Asian","Chinese","Sichuan"],"photo":"https://b.zmtcdn.com/data/reviews_photos/d4b/e1dc9d82a1ea2cf82a5b678634848d4b_1549270471.JPG?resize=1204%3A1806\u0026crop=1200%3A464%3B0%2C811","locality":"Haymarket"},{"name":"Salt Meats Cheese","vote":"84","reviews":"84","address":"125 Victoria Road, Drummoyne, SydneyDrummoyne","city":"Sydney","latitude":-33.8534209985,"longitude":151.1565307528,"price_range":37,"rating":4.2,"cuisine_string":["Italian","Pizza"],"photo":"https://b.zmtcdn.com/data/pictures/chains/0/15544740/6b4ae6d21a3c940b3f8d732b85e64336.jpg?resize=1204%3A502\u0026crop=1200%3A464%3B1%2C17","locality":"Drummoyne"},{"name":"Daniel San","vote":"112","reviews":"112","address":"55 North Steyne, Manly, SydneyManly","city":"Sydney","latitude":-33.7956526223,"longitude":151.2873605266,"price_range":32,"rating":4.0,"cuisine_string":["Japanese","Sushi","Bar Food","Poké"],"photo":"https://b.zmtcdn.com/data/pictures/5/16569835/46c422e1d3121a2be1eaaebb70a0c530.jpg?resize=1224%3A468\u0026crop=1200%3A464%3B5%2C-3","locality":"Manly"}]
