[{"name":"The Grounds of Alexandria Cafe","vote":"3465","reviews":"3466","address":"Shop 7A, 2 Huntley Street, Alexandria, SydneyAlexandria","city":"Sydney","latitude":-33.9109936778,"longitude":151.1947217211,"price_range":40,"rating":4.7,"cuisine_string":["Coffee and Tea","Salad","Poké","Cafe Food"],"photo":"https://b.zmtcdn.com/data/pictures/5/16564875/7c966fa2a33e977c2d010c90d2a4ecd4.jpeg?resize=1204%3A863\u0026crop=1200%3A464%3B-1%2C272","locality":"Alexandria"},{"name":"Auvers Cafe","vote":"395","reviews":"395","address":"Shop 2, 42 Walker Street, Rhodes, SydneyRhodes","city":"Sydney","latitude":-33.8283472898,"longitude":151.0870052129,"price_range":30,"rating":4.7,"cuisine_string":["Cafe Food","Coffee and Tea","Asian Fusion"],"photo":"https://b.zmtcdn.com/data/pictures/chains/4/18381614/474d5e0ef4122483a1fc015e81fd0be2.png?resize=1204%3A799\u0026crop=1200%3A464%3B5%2C180","locality":"Rhodes"},{"name":"Cho Cho San","vote":"575","reviews":"575","address":"73 Macleay Street, Potts Point, SydneyPotts PointNSW","city":"Sydney","latitude":-33.8695300201,"longitude":151.2253398076,"price_range":60,"rating":4.5,"cuisine_string":["Japanese","Asian","Fusion"],"photo":"https://b.zmtcdn.com/data/pictures/chains/7/16569007/7c382c812214452c991b7f0083c9d4a0.jpg?resize=1204%3A803\u0026crop=1200%3A464%3B-5%2C175","locality":"Potts Point"},{"name":"Three Williams","vote":"1453","reviews":"1454","address":"613A Elizabeth Street, Redfern, SydneyRedfern","city":"Sydney","latitude":-33.8918943051,"longitude":151.2075007707,"price_range":27,"rating":4.6,"cuisine_string":["Cafe Food","Coffee and Tea"],"photo":"https://b.zmtcdn.com/data/pictures/chains/0/16567840/ecafddae9926858d240e9e6fb01d5979.jpg?resize=1204%3A798\u0026crop=1200%3A464%3B0%2C327","locality":"Redfern"},{"name":"Sokyo","vote":"1361","reviews":"1361","address":"Level G, The Darling, The Star, 80 Pyrmont Street, PyrmontPyrmont","city":"Sydney","latitude":-33.8695099766,"longitude":151.1954791099,"price_range":60,"rating":4.9,"cuisine_string":["Japanese"],"photo":"https://b.zmtcdn.com/data/res_imagery/16564570_RESTAURANT_058971a49fafe87b9c772331b251b1fa.jpg?fit=around%7C1200%3A464\u0026crop=1200%3A464%3B0%2C0","locality":"Pyrmont"},{"name":"Rockpool Bar \u0026 Grill","vote":"1341","reviews":"1341","address":"66 Hunter Street, CBD, SydneyCBDNSW","city":"Sydney","latitude":-33.866103617,"longitude":151.2102030963,"price_range":75,"rating":4.7,"cuisine_string":["Seafood","Steak","Modern Australian","Poké"],"photo":"https://b.zmtcdn.com/data/res_imagery/16559790_RESTAURANT_e6290a3f1e48dbe367ce295238d017ef.png?fit=around%7C1200%3A464\u0026crop=1200%3A464%3B0%2C0","locality":"CBD"},{"name":"Bennelong Restaurant","vote":"526","reviews":"526","address":"Sydney Opera House, Bennelong Point, CBD, SydneyCBDNSW","city":"Sydney","latitude":-33.8574292581,"longitude":151.2152285501,"price_range":135,"rating":4.9,"cuisine_string":["Modern Australian"],"photo":"https://b.zmtcdn.com/data/res_imagery/15544850_RESTAURANT_c54dd7f0e18aeca566fd0385755dae3b_c.jpg?fit=around%7C1200%3A464\u0026crop=1200%3A464%3B0%2C0","locality":"CBD"},{"name":"Chimichuri","vote":"286","reviews":"289","address":"6 Help Street, Chatswood, SydneyChatswood","city":"Sydney","latitude":-33.7959897559,"longitude":151.1796108261,"price_range":20,"rating":4.6,"cuisine_string":["Coffee and Tea","Cafe Food"],"photo":"https://b.zmtcdn.com/data/reviews_photos/539/883571f5609da45f72c4543675fbe539_1508899208.jpg?resize=1204%3A903\u0026crop=1200%3A464%3B17%2C155","locality":"Chatswood"},{"name":"Sydney Madang","vote":"1285","reviews":"1285","address":"371A Pitt Street, CBD, SydneyCBD","city":"Sydney","latitude":-33.8762546464,"longitude":151.2078145891,"price_range":25,"rating":4.5,"cuisine_string":["Hot Pot","Korean BBQ","BBQ","Korean"],"photo":"https://b.zmtcdn.com/data/pictures/9/16559119/9b108c7c31c233696f52c12927e3356b.jpg?resize=1204%3A803\u0026crop=1200%3A464%3B3%2C187","locality":"CBD"},{"name":"Ippudo","vote":"1849","reviews":"1850","address":"Shop 5021, Level 5, Westfield Pitt Street Mall, 188 Pitt Street, CBD, SydneyCBDNSW","city":"Sydney","latitude":-33.869863522,"longitude":151.2089974433,"price_range":35,"rating":4.6,"cuisine_string":["Japanese","Ramen"],"photo":"https://b.zmtcdn.com/data/pictures/9/16566109/29c445eb9e79ae236141c68746928a8b.jpg?resize=1204%3A903\u0026crop=1200%3A464%3B1%2C184","locality":"CBD"},{"name":"Chat Thai","vote":"1992","reviews":"1992","address":"20 Campbell Street, Haymarket, SydneyHaymarketNSW","city":"Sydney","latitude":-33.8791528896,"longitude":151.2063564733,"price_range":27,"rating":4.8,"cuisine_string":["Thai","Salad"],"photo":"https://b.zmtcdn.com/data/pictures/2/16557552/4bf0d85572bbea513cefcba0bb2f37e4.jpg?resize=1204%3A972\u0026crop=1200%3A464%3B-2%2C68","locality":"Haymarket"},{"name":"Nomad","vote":"631","reviews":"631","address":"16 Foster Street, \tSurry HillsSurry Hills","city":"Sydney","latitude":-33.8798512702,"longitude":151.210306026,"price_range":52,"rating":4.6,"cuisine_string":["Mediterranean"],"photo":"https://b.zmtcdn.com/data/reviews_photos/df1/05a47ce61c38990bd24ea32f3417ddf1_1518340088.jpg?resize=1204%3A1605\u0026crop=1200%3A464%3B-1%2C731","locality":"Surry Hills"},{"name":"Momofuku Seiōbo","vote":"553","reviews":"554","address":"80 Pyrmont Street, The Star, Pyrmont, Pyrmont, SydneyPyrmont","city":"Sydney","latitude":-33.86953865,"longitude":151.1959129572,"price_range":185,"rating":4.5,"cuisine_string":["Modern Australian"],"photo":"https://b.zmtcdn.com/data/res_imagery/16564636_RESTAURANT_53654af98649c9caf8edfa2413baf623.jpg?fit=around%7C1200%3A464\u0026crop=1200%3A464%3B0%2C0","locality":"Pyrmont"},{"name":"City Makoto Sushi Train 诚\"","vote":"754","reviews":"754","address":"119 Liverpool Street, CBD, SydneyCBD","city":"Sydney","latitude":-33.8769207611,"longitude":151.2078497931,"price_range":20,"rating":4.4,"cuisine_string":["Japanese","Sushi"],"photo":"https://b.zmtcdn.com/data/pictures/chains/2/16558412/558f8dfe9b10a27668a806f61999d781.jpg?resize=1204%3A825\u0026crop=1200%3A464%3B-1%2C173","locality":"CBD"},{"name":"Thai Pothong","vote":"985","reviews":"985","address":"294 King Street, Newtown, SydneyNewtown","city":"Sydney","latitude":-33.8967765534,"longitude":151.1796530709,"price_range":0,"rating":4.7,"cuisine_string":["Thai"],"photo":"https://b.zmtcdn.com/data/res_imagery/16559190_RESTAURANT_e014085eb3d23acb118d02dc124f94f4_c.jpg?fit=around%7C1200%3A464\u0026crop=1200%3A464%3B0%2C0","locality":"Newtown"}]