[{"name":"Pancakes On The Rocks","vote":"986","reviews":"987","address":"4 Hickson Road, The Rocks, SydneyThe Rocks","city":"Sydney","latitude":-33.8571850815,"longitude":151.2087409571,"price_range":30,"rating":4.3,"cuisine_string":["Grill","Desserts","Pizza","Cafe Food","Coffee and Tea"],"photo":"https://b.zmtcdn.com/data/pictures/chains/2/16558672/0391fe759f03b96f494553f9ffc10a20.jpg?resize=1204%3A803\u0026crop=1200%3A464%3B0%2C99","locality":"The Rocks"},{"name":"Mappen Noodle Restaurant","vote":"1347","reviews":"1348","address":"Shop 11, Skyview Shopping Plaza, 537-551 George Street, CBD, SydneyCBD","city":"Sydney","latitude":-33.8762201296,"longitude":151.2064315751,"price_range":12,"rating":4.7,"cuisine_string":["Japanese","Asian"],"photo":"https://b.zmtcdn.com/data/reviews_photos/5cb/7f627458ac220068e6b62380ab77a5cb_1516614568.jpg?resize=1204%3A677\u0026crop=1200%3A464%3B0%2C36","locality":"CBD"},{"name":"Flower Child","vote":"492","reviews":"494","address":"Shop 391, Westfield Chatswood, 1 Anderson Street, Chatswood, SydneyChatswood","city":"Sydney","latitude":-33.7962210121,"longitude":151.1840257421,"price_range":25,"rating":4.5,"cuisine_string":["Bakery","Cafe Food","Coffee and Tea"],"photo":"https://b.zmtcdn.com/data/pictures/chains/1/15546911/c23d954ca204df5a361027cd95c31d78.jpg?resize=1204%3A803\u0026crop=1200%3A464%3B0%2C122","locality":"Chatswood"},{"name":"Hurricane's Grill- Darling Harbour","vote":"1616","reviews":"1616","address":"Shops 433-436, Level 2, Harbourside Shopping Centre, 2-10 Darling Drive, Darling Harbour, SydneyDarling HarbourNSW","city":"Sydney","latitude":-33.8720407169,"longitude":151.2022714689,"price_range":60,"rating":4.5,"cuisine_string":["Steak","Modern Australian","Salad"],"photo":"","locality":"Darling Harbour"},{"name":"BLACK Bar \u0026 Grill","vote":"558","reviews":"558","address":"80 Pyrmont Street,Pyrmont, SydneyPyrmontNSW","city":"Sydney","latitude":-33.8678059786,"longitude":151.1956578121,"price_range":75,"rating":4.6,"cuisine_string":["Steak","Modern Australian"],"photo":"https://b.zmtcdn.com/data/pictures/chains/9/16564479/d22323fbbe6da48f883990a133080c9a.jpg?resize=1204%3A1809\u0026crop=1200%3A464%3B0%2C881","locality":"Pyrmont"},{"name":"Masuya Japanese Seafood Restaurant","vote":"749","reviews":"750","address":"Basement Level, 12-14 O'Connell Street, CBD, SydneyCBDNSW","city":"Sydney","latitude":-33.8652275069,"longitude":151.2097836658,"price_range":40,"rating":4.6,"cuisine_string":["Japanese","Hot Pot","Sushi"],"photo":"https://b.zmtcdn.com/data/res_imagery/16558450_RESTAURANT_1815a5b8ce4b6448e4c5ad8bbaf0f967_c.jpg?fit=around%7C1200%3A464\u0026crop=1200%3A464%3B0%2C0","locality":"CBD"},{"name":"Single O","vote":"538","reviews":"538","address":"58-64 Reservoir Street, \tSurry Hills, Surry Hills, SydneySurry Hills","city":"Sydney","latitude":-33.8811405733,"longitude":151.2096525729,"price_range":30,"rating":4.5,"cuisine_string":["Cafe Food","Coffee and Tea"],"photo":"https://b.zmtcdn.com/data/pictures/chains/9/16559009/998ed58851eb2c7932979fea2a37a878.jpg?resize=1204%3A803\u0026crop=1200%3A464%3B-5%2C184","locality":"Surry Hills"},{"name":"Bills","vote":"974","reviews":"976","address":"355 Crown Street, Surry HillsSurry Hills","city":"Sydney","latitude":-33.8840759475,"longitude":151.2140282616,"price_range":55,"rating":4.4,"cuisine_string":["Cafe Food","Coffee and Tea"],"photo":"https://b.zmtcdn.com/data/reviews_photos/c7c/06f3e20636b6a474489dcfc68dff0c7c_1535974476.jpg?resize=1204%3A833\u0026crop=1200%3A464%3B-5%2C262","locality":"Surry Hills"},{"name":"Cafe Sydney","vote":"1360","reviews":"1361","address":"Level 5, Customs House, 31 Alfred Street, CBD, SydneyCBDNSW","city":"Sydney","latitude":-33.8623975571,"longitude":151.2108605728,"price_range":80,"rating":4.6,"cuisine_string":["Seafood","Modern Australian"],"photo":"https://b.zmtcdn.com/data/pictures/1/16557481/53e157e6f4065bf52be9fff99964fcdd.jpg?resize=1204%3A768\u0026crop=1200%3A464%3B-1%2C216","locality":"CBD"},{"name":"Black Star Pastry","vote":"431","reviews":"433","address":"Level 2, The Galeries, 500 George Street, CBD, SydneyCBD","city":"Sydney","latitude":-33.8728827957,"longitude":151.2078749389,"price_range":15,"rating":4.8,"cuisine_string":["Bakery","Desserts","Coffee and Tea"],"photo":"https://b.zmtcdn.com/data/pictures/chains/0/16560990/480eb6393e400f4618cbfd19212fbb97.jpg?resize=1204%3A1204\u0026crop=1200%3A464%3B3%2C614","locality":"CBD"},{"name":"Din Tai Fung","vote":"2216","reviews":"2216","address":"Level 1, Shop 11.04, World Square Shopping Centre, 644 George Street, CBD, SydneyCBD","city":"Sydney","latitude":-33.8778479686,"longitude":151.2071373314,"price_range":35,"rating":4.5,"cuisine_string":["Chinese","Taiwanese","Yum Cha"],"photo":"https://b.zmtcdn.com/data/pictures/8/16557718/e7a1c4b36eb5103899f0c49df6b2ad0a.jpg?resize=1204%3A802\u0026crop=1200%3A464%3B-3%2C264","locality":"CBD"},{"name":"Aria","vote":"944","reviews":"944","address":"1 Macquarie Street, Circular Quay, SydneyCircular QuayNSW","city":"Sydney","latitude":-33.8593559178,"longitude":151.2132004648,"price_range":150,"rating":4.5,"cuisine_string":["Modern Australian"],"photo":"https://b.zmtcdn.com/data/res_imagery/16557147_RESTAURANT_9084179bf548310153b92ef3f2efacfa_c.jpg?fit=around%7C1200%3A464\u0026crop=1200%3A464%3B0%2C0","locality":"Circular Quay"},{"name":"Brewtown Newtown","vote":"1157","reviews":"1157","address":"6-8 O'Connell Street, Newtown, SydneyNewtown","city":"Sydney","latitude":-33.8939715838,"longitude":151.1823584139,"price_range":20,"rating":4.5,"cuisine_string":["Cafe Food","Coffee and Tea"],"photo":"https://b.zmtcdn.com/data/pictures/chains/5/16568165/f8c96b7be881e4726ff7867565aa9f99.jpg?resize=1204%3A802\u0026crop=1200%3A464%3B0%2C101","locality":"Newtown"},{"name":"Mary's","vote":"1175","reviews":"1175","address":"6 Mary Street, Newtown, SydneyNewtown","city":"Sydney","latitude":-33.8960936177,"longitude":151.1797955632,"price_range":35,"rating":4.3,"cuisine_string":["American","Burger","Fried Chicken"],"photo":"https://b.zmtcdn.com/data/res_imagery/16566183_RESTAURANT_d38d777d2ec52336d41b01f151675d12.jpg?fit=around%7C1200%3A464\u0026crop=1200%3A464%3B0%2C0","locality":"Newtown"},{"name":"Kepos Street Kitchen","vote":"764","reviews":"764","address":"96 Kepos Street, Redfern, SydneyRedfern","city":"Sydney","latitude":-33.896813,"longitude":151.212667,"price_range":27,"rating":4.7,"cuisine_string":["Middle Eastern"],"photo":"https://b.zmtcdn.com/data/res_imagery/16566176_RESTAURANT_bdf8b31d9ee9fe53ed91fc17208c0893_c.jpg?fit=around%7C1200%3A464\u0026crop=1200%3A464%3B0%2C0","locality":"Redfern"},{"name":"Temasek","vote":"672","reviews":"672","address":"71 George Street, Parramatta, SydneyParramatta","city":"Sydney","latitude":-33.8144673856,"longitude":151.0055763647,"price_range":25,"rating":4.3,"cuisine_string":["Malaysian","Singaporean"],"photo":"https://b.zmtcdn.com/data/reviews_photos/03e/63a3c757be3387488ff5d8f98982503e_1551581920.jpg?resize=1204%3A1605\u0026crop=1200%3A464%3B-1%2C690","locality":"Parramatta"},{"name":"Chefs Gallery","vote":"1667","reviews":"1667","address":"Shop 12, Regent Place Arcade, 501 George Street, CBD, SydneyCBD","city":"Sydney","latitude":-33.8748049311,"longitude":151.2067983672,"price_range":35,"rating":4.6,"cuisine_string":["Chinese"],"photo":"https://b.zmtcdn.com/data/pictures/chains/5/16562675/e56a770ecbcca599470a62cfb22998dc.jpg?resize=1204%3A1378\u0026crop=1200%3A464%3B4%2C780","locality":"CBD"},{"name":"The Italian Bowl","vote":"664","reviews":"665","address":"255 King Street, Newtown, SydneyNewtown","city":"Sydney","latitude":-33.8958668061,"longitude":151.1807293072,"price_range":20,"rating":4.3,"cuisine_string":["Italian"],"photo":"https://b.zmtcdn.com/data/res_imagery/16559453_RESTAURANT_3ace164bc69584a7bcfed687220e408e.jpg?fit=around%7C1200%3A464\u0026crop=1200%3A464%3B0%2C0","locality":"Newtown"},{"name":"China Doll","vote":"909","reviews":"909","address":"Shop 4, 6 Cowper Wharf Road, Woolloomooloo, SydneyWoolloomoolooNSW","city":"Sydney","latitude":-33.8684991627,"longitude":151.2203307822,"price_range":75,"rating":4.6,"cuisine_string":["Asian","Chinese"],"photo":"https://b.zmtcdn.com/data/pictures/chains/0/16557570/b9639e8dcbca7517d5cb9ed230eb2397.jpeg?resize=1204%3A803\u0026crop=1200%3A464%3B-20%2C160","locality":"Woolloomooloo"},{"name":"Four Ate Five","vote":"586","reviews":"587","address":"485 Crown Street, \tSurry Hills, Surry Hills, SydneySurry Hills","city":"Sydney","latitude":-33.8881384323,"longitude":151.2133412808,"price_range":27,"rating":4.4,"cuisine_string":["Modern Australian"],"photo":"https://b.zmtcdn.com/data/reviews_photos/85e/cd19e27dbbf54080c26a91c44770f85e_1480754978.jpg?resize=1204%3A803\u0026crop=1200%3A464%3B0%2C292","locality":"Surry Hills"},{"name":"Monkey's Corner","vote":"204","reviews":"206","address":"40 Kensington Street, Chippendale, SydneyChippendaleNSW","city":"Sydney","latitude":-33.8853418069,"longitude":151.2018493563,"price_range":25,"rating":4.4,"cuisine_string":["Tapas","Japanese"],"photo":"https://b.zmtcdn.com/data/reviews_photos/3c4/843675b84d2273478a18dbf62d7b13c4_1511338660.jpg?resize=1204%3A800\u0026crop=1200%3A464%3B0%2C154","locality":"Chippendale"},{"name":"Jamie's Italian","vote":"2292","reviews":"2292","address":"107 Pitt Street, CBD, SydneyCBDNSW","city":"Sydney","latitude":-33.8660961003,"longitude":151.2085082755,"price_range":50,"rating":4.2,"cuisine_string":["Italian"],"photo":"https://b.zmtcdn.com/data/pictures/4/16563644/cbc0b2b04e1e3c7f0bedb2230ccf02ba.jpg?resize=1204%3A1505\u0026crop=1200%3A464%3B14%2C737","locality":"CBD"},{"name":"Oh! Matcha","vote":"894","reviews":"894","address":"Shop 1, Regent Place Arcade, 501 George Street, CBD, SydneyCBD","city":"Sydney","latitude":-33.875067151,"longitude":151.2065901607,"price_range":12,"rating":4.5,"cuisine_string":["Japanese","Cafe Food","Coffee and Tea"],"photo":"https://b.zmtcdn.com/data/reviews_photos/265/7d02ad7a24374d699986245525b8f265_1526900841.jpg?resize=1204%3A903\u0026crop=1200%3A464%3B-4%2C134","locality":"CBD"},{"name":"Ms. G's","vote":"1374","reviews":"1374","address":"155 Victoria Street, Potts Point, SydneyPotts PointNSW","city":"Sydney","latitude":-33.8726581493,"longitude":151.2224899605,"price_range":50,"rating":4.8,"cuisine_string":["Asian","Vietnamese","Salad"],"photo":"https://b.zmtcdn.com/data/res_imagery/16563159_RESTAURANT_1f306ed18ce95a0a188d01e99873cb73.jpg?fit=around%7C1200%3A464\u0026crop=1200%3A464%3B0%2C0","locality":"Potts Point"},{"name":"Gogyo","vote":"311","reviews":"312","address":"52-54 Albion Street, Surry Hills, SydneySurry HillsNSW","city":"Sydney","latitude":-33.8824114863,"longitude":151.210386157,"price_range":25,"rating":4.6,"cuisine_string":["Japanese","Ramen"],"photo":"https://b.zmtcdn.com/data/pictures/5/17744545/098d2bd6683c7e91a0f06fd4e93ab438.jpg?resize=1204%3A1505\u0026crop=1200%3A464%3B-1%2C681","locality":"Surry Hills"},{"name":"Arisun","vote":"666","reviews":"667","address":"Shop 35, 1 Dixon Street, Chinatown, CBD, SydneyCBDNSW","city":"Sydney","latitude":-33.8763414949,"longitude":151.2036712468,"price_range":50,"rating":4.2,"cuisine_string":["Korean","Asian","Fried Chicken"],"photo":"https://b.zmtcdn.com/data/pictures/4/16562474/f8e6e045f40032106d279755ef9dc2d8.jpg?resize=1204%3A1308\u0026crop=1200%3A464%3B2%2C673","locality":"CBD"},{"name":"Manpuku","vote":"424","reviews":"424","address":"226 Victoria Avenue, Chatswood, SydneyChatswood","city":"Sydney","latitude":-33.7944372583,"longitude":151.189651005,"price_range":20,"rating":4.7,"cuisine_string":["Japanese","Ramen"],"photo":"https://b.zmtcdn.com/data/pictures/9/15545439/b3b887be8b681d513f3d064b5ccefa80.jpg?resize=1204%3A803\u0026crop=1200%3A464%3B0%2C230","locality":"Chatswood"},{"name":"Bourke Street Bakery","vote":"2065","reviews":"2065","address":"633 Bourke Street, Surry Hills, SydneySurry Hills","city":"Sydney","latitude":-33.8894125809,"longitude":151.2149583176,"price_range":15,"rating":4.8,"cuisine_string":["Cafe Food","Bakery","Desserts","Coffee and Tea"],"photo":"https://b.zmtcdn.com/data/res_imagery/16557398_RESTAURANT_056f5ef13aea3c7a54517be3bfb79769_c.jpg?fit=around%7C1200%3A464\u0026crop=1200%3A464%3B0%2C0","locality":"Surry Hills"},{"name":"Mamak","vote":"2419","reviews":"2419","address":"15 Goulburn Street, \tHaymarketHaymarketNSW","city":"Sydney","latitude":-33.8777151929,"longitude":151.2041781843,"price_range":35,"rating":4.6,"cuisine_string":["Malaysian"],"photo":"https://b.zmtcdn.com/data/res_imagery/16558421_RESTAURANT_b00b52c0e2394a49f88c02253f60a277.jpg?fit=around%7C1200%3A464\u0026crop=1200%3A464%3B0%2C0","locality":"Haymarket"},{"name":"The Dolar Shop Hot Pot Restaurant 豆捞坊 - 1909 Dining Precinct","vote":"186","reviews":"188","address":"Shop 5\u00266, Level 3, 1909 Dining Precinct, Market City, 9 - 13 Hay Street, Chinatown, Haymarket, SydneyHaymarketNSW","city":"Sydney","latitude":-33.8797329718,"longitude":151.2029832602,"price_range":60,"rating":4.9,"cuisine_string":["Chinese","Hot Pot","Asian","Seafood"],"photo":"https://b.zmtcdn.com/data/pictures/chains/0/17744990/b6d69d2b4c03311a2a82d9a43f09760d.jpg?resize=1204%3A803\u0026crop=1200%3A464%3B-7%2C86","locality":"Haymarket"},{"name":"Cow \u0026 The Moon","vote":"1050","reviews":"1051","address":"181 Enmore Road, Enmore, SydneyEnmore","city":"Sydney","latitude":-33.8989995355,"longitude":151.1720476672,"price_range":12,"rating":4.8,"cuisine_string":["Ice Cream","Desserts","Coffee and Tea"],"photo":"https://b.zmtcdn.com/data/res_imagery/16562433_RESTAURANT_88373bd3706a6f0e835878eb03dd0146.jpg?fit=around%7C1200%3A464\u0026crop=1200%3A464%3B0%2C0","locality":"Enmore"},{"name":"El Jannah","vote":"1072","reviews":"1072","address":"4-8 South Street, Granville, SydneyGranvilleNSW","city":"Sydney","latitude":-33.833042678,"longitude":151.0110946745,"price_range":17,"rating":4.6,"cuisine_string":["Lebanese","Charcoal Chicken"],"photo":"https://b.zmtcdn.com/data/res_imagery/16557783_CHAIN_f27a6314b9f88ba8ec0b9a23bc275612.jpg?fit=around%7C1200%3A464\u0026crop=1200%3A464%3B0%2C0","locality":"Granville"},{"name":"Est.","vote":"710","reviews":"711","address":"Level 1, Establishment, 252 George Street, CBD, SydneyCBDNSW","city":"Sydney","latitude":-33.8640729878,"longitude":151.2076110765,"price_range":160,"rating":4.7,"cuisine_string":["Modern Australian","European"],"photo":"https://b.zmtcdn.com/data/pictures/4/16562734/d99d46c1b749a1e8f1cf14f3241ba7d7.jpg?resize=1204%3A760\u0026crop=1200%3A464%3B-4%2C130","locality":"CBD"},{"name":"The Grounds of the City","vote":"490","reviews":"490","address":"500 George Street, Sydney, CBD, SydneyCBD","city":"Sydney","latitude":-33.8724660721,"longitude":151.207508482,"price_range":35,"rating":4.4,"cuisine_string":["Cafe Food","Coffee and Tea"],"photo":"https://b.zmtcdn.com/data/res_imagery/18518832_RESTAURANT_8dff2e437c435e0955942f33cf0ed6cd.jpg?fit=around%7C1200%3A464\u0026crop=1200%3A464%3B0%2C0","locality":"CBD"},{"name":"Ryo's Noodles","vote":"815","reviews":"815","address":"125 Falcon Street, Crows Nest, SydneyCrows Nest","city":"Sydney","latitude":-33.8287037907,"longitude":151.2065814436,"price_range":25,"rating":4.6,"cuisine_string":["Japanese","Ramen"],"photo":"https://b.zmtcdn.com/data/reviews_photos/9de/48532440a9c7ba6c676951d2bd9339de_1490500171.jpg?resize=1204%3A903\u0026crop=1200%3A464%3B2%2C252","locality":"Crows Nest"},{"name":"The Little Snail","vote":"565","reviews":"564","address":"50 Murray Street, Darling Harbour, SydneyDarling HarbourNSW","city":"Sydney","latitude":-33.8702961259,"longitude":151.1978112906,"price_range":70,"rating":4.3,"cuisine_string":["French","Modern Australian"],"photo":"https://b.zmtcdn.com/data/reviews_photos/817/2b2f4038e75ba1d29d41ff5de1c4c817_1509834941.jpg?resize=1204%3A903\u0026crop=1200%3A464%3B0%2C150","locality":"Darling Harbour"},{"name":"Cuckoo Callay","vote":"731","reviews":"732","address":"Newtown Station, King Street, Newtown, SydneyNewtown","city":"Sydney","latitude":-33.8981443566,"longitude":151.1791484803,"price_range":25,"rating":4.6,"cuisine_string":["Coffee and Tea","Cafe Food"],"photo":"https://b.zmtcdn.com/data/reviews_photos/80c/7556c8501917dc79204f06f8696ed80c_1540001919.jpg?resize=1204%3A903\u0026crop=1200%3A464%3B0%2C187","locality":"Newtown"},{"name":"Celsius Coffee Co","vote":"458","reviews":"458","address":"1/2 Hobrook Avenue, Commuters Wharf, Kirribilli, SydneyKirribilliNSW","city":"Sydney","latitude":-33.849390275,"longitude":151.2202895433,"price_range":25,"rating":4.5,"cuisine_string":["Cafe Food","Coffee and Tea"],"photo":"https://b.zmtcdn.com/data/res_imagery/16567979_RESTAURANT_0c8dddd3d6b8f532b24272fc6b1cc688.jpg?fit=around%7C1200%3A464\u0026crop=1200%3A464%3B0%2C0","locality":"Kirribilli"},{"name":"Suminoya Japanese","vote":"493","reviews":"493","address":"1 Hosking Place, CBD, SydneyCBDNSW","city":"Sydney","latitude":-33.8670852282,"longitude":151.2094540894,"price_range":40,"rating":4.4,"cuisine_string":["Japanese BBQ"],"photo":"https://b.zmtcdn.com/data/reviews_photos/0f9/65b8b2edf8aeef4766288a51ba0610f9_1504157517.jpeg?resize=1204%3A803\u0026crop=1200%3A464%3B0%2C99","locality":"CBD"},{"name":"Chatkazz Indian Restaurant","vote":"379","reviews":"379","address":"Shop 4, 14-20 Station Street East, Harris Park, SydneyHarris Park","city":"Sydney","latitude":-33.8217952062,"longitude":151.0084198415,"price_range":15,"rating":4.4,"cuisine_string":["Indian","Vegetarian"],"photo":"https://b.zmtcdn.com/data/pictures/chains/5/16566945/bddf9693106e4a75db7a534efe2c67df.jpg?resize=1204%3A678\u0026crop=1200%3A464%3B0%2C115","locality":"Harris Park"},{"name":"Kura","vote":"543","reviews":"545","address":"Shop 3, 76 Ultimo Road, Haymarket, SydneyHaymarketNSW","city":"Sydney","latitude":-33.8801335157,"longitude":151.204344146,"price_range":30,"rating":4.4,"cuisine_string":["Japanese"],"photo":"https://b.zmtcdn.com/data/reviews_photos/bba/3dd7002afd09ae0afa15e80881473bba_1539444466.jpg?resize=1204%3A903\u0026crop=1200%3A464%3B-2%2C288","locality":"Haymarket"},{"name":"Masuya Suisan","vote":"456","reviews":"456","address":"Shop 5, 447 Pitt Street, Chinatown, Haymarket, SydneyHaymarketNSW","city":"Sydney","latitude":-33.8794813435,"longitude":151.2068882212,"price_range":40,"rating":4.5,"cuisine_string":["Sushi","Japanese"],"photo":"https://b.zmtcdn.com/data/res_imagery/16558549_RESTAURANT_7f9b031570e2674f0e5fc963a61d313c.jpg?fit=around%7C1200%3A464\u0026crop=1200%3A464%3B0%2C0","locality":"Haymarket"},{"name":"The Winery","vote":"1126","reviews":"1126","address":"285A Crown Street, Surry Hills, SydneySurry Hills","city":"Sydney","latitude":-33.8814937921,"longitude":151.2142924592,"price_range":50,"rating":4.5,"cuisine_string":["Modern Australian"],"photo":"https://b.zmtcdn.com/data/pictures/chains/8/16561338/f8bf7a7b5a6ea2ebf8267603a943619c.jpg?resize=1204%3A611\u0026crop=1200%3A464%3B2%2C103","locality":"Surry Hills"},{"name":"Munich Brauhaus - The Rocks","vote":"1076","reviews":"1076","address":"Corner of Playfair and Argyle Street, The Rocks, SydneyThe Rocks","city":"Sydney","latitude":-33.8589675267,"longitude":151.2080807984,"price_range":50,"rating":4.3,"cuisine_string":["German","Salad"],"photo":"https://b.zmtcdn.com/data/res_imagery/16558378_RESTAURANT_0aeee2d3e35629932cf80afb26b88832.jpg?fit=around%7C1200%3A464\u0026crop=1200%3A464%3B0%2C0","locality":"The Rocks"},{"name":"Méjico","vote":"822","reviews":"822","address":"105 Pitt Street, CBD, SydneyCBDNSW","city":"Sydney","latitude":-33.8659585736,"longitude":151.2085143104,"price_range":50,"rating":4.4,"cuisine_string":["Mexican","Bar Food"],"photo":"https://b.zmtcdn.com/data/res_imagery/16566248_CHAIN_491a164e22b19761f36df7c833a62e49_c.jpg?fit=around%7C1200%3A464\u0026crop=1200%3A464%3B0%2C0","locality":"CBD"},{"name":"Revolver","vote":"801","reviews":"801","address":"291 Annandale Street, Annandale, Annandale, SydneyAnnandaleNSW","city":"Sydney","latitude":-33.8758359907,"longitude":151.1717811227,"price_range":22,"rating":4.5,"cuisine_string":["Coffee and Tea","Cafe Food"],"photo":"https://b.zmtcdn.com/data/res_imagery/16561309_RESTAURANT_db887436616f109963f81eb91556c659_c.jpg?fit=around%7C1200%3A464\u0026crop=1200%3A464%3B0%2C0","locality":"Annandale"},{"name":"Sushi Hotaru","vote":"645","reviews":"645","address":"Level 1, The Galeries, 500 George Street, CBD, SydneyCBD","city":"Sydney","latitude":-33.8727717252,"longitude":151.2081485242,"price_range":15,"rating":4.4,"cuisine_string":["Japanese","Sushi"],"photo":"https://b.zmtcdn.com/data/pictures/9/16563479/6d02257985136a57e10fbda2e0cdb45f.jpg?resize=1204%3A770\u0026crop=1200%3A464%3B0%2C167","locality":"CBD"},{"name":"Sasaki","vote":"156","reviews":"157","address":"102/21 Alberta Street, CBD, SydneyCBD","city":"Sydney","latitude":-33.878095148,"longitude":151.210658066,"price_range":80,"rating":4.5,"cuisine_string":["Japanese"],"photo":"https://b.zmtcdn.com/data/pictures/5/18494965/ed710484c629f06f91d6b52e40ceb070.jpg?resize=1204%3A804\u0026crop=1200%3A464%3B-4%2C-3","locality":"CBD"},{"name":"Yasaka Ramen","vote":"545","reviews":"545","address":"126 Liverpool Street, CBD, SydneyCBD","city":"Sydney","latitude":-33.8768080258,"longitude":151.208585389,"price_range":25,"rating":4.3,"cuisine_string":["Japanese","Ramen"],"photo":"https://b.zmtcdn.com/data/pictures/chains/7/16569877/2e4a6c6b3f4042b4c9ef955c98ee4281.jpg?resize=1204%3A803\u0026crop=1200%3A464%3B0%2C151","locality":"CBD"},{"name":"Chophouse","vote":"789","reviews":"789","address":"25 Bligh Street, CBD, SydneyCBDNSW","city":"Sydney","latitude":-33.8655966602,"longitude":151.2102094665,"price_range":65,"rating":4.6,"cuisine_string":["Steak","Modern Australian"],"photo":"https://b.zmtcdn.com/data/pictures/chains/0/16559850/c5d256b7caa25bb2d88534a785388872.jpg?resize=1203%3A903\u0026crop=1200%3A464%3B0%2C195","locality":"CBD"},{"name":"Rustic Pearl","vote":"669","reviews":"669","address":"415 Crown Street, Surry Hills, SydneySurry Hills","city":"Sydney","latitude":-33.8863376698,"longitude":151.2137198076,"price_range":25,"rating":4.6,"cuisine_string":["Turkish","Cafe Food","Coffee and Tea"],"photo":"https://b.zmtcdn.com/data/reviews_photos/ac8/0c92c395ae9adaaef4c9b7efb81f9ac8_1526365569.jpg?resize=1204%3A1605\u0026crop=1200%3A464%3B6%2C856","locality":"Surry Hills"},{"name":"Spice I Am","vote":"737","reviews":"737","address":"90 Wentworth Avenue, \tSurry Hills, Surry Hills, SydneySurry Hills","city":"Sydney","latitude":-33.8797062502,"longitude":151.2095194683,"price_range":30,"rating":4.4,"cuisine_string":["Thai"],"photo":"https://b.zmtcdn.com/data/reviews_photos/143/78b4240ac269bdc4da435ed1e5eae143_1490069414.jpg?resize=1204%3A1605\u0026crop=1200%3A464%3B-4%2C608","locality":"Surry Hills"},{"name":"Spice Temple","vote":"699","reviews":"699","address":"10 Bligh Street, CBD, SydneyCBDNSW","city":"Sydney","latitude":-33.8660020031,"longitude":151.2102225423,"price_range":75,"rating":4.4,"cuisine_string":["Chinese","Fusion","Yum Cha"],"photo":"https://b.zmtcdn.com/data/res_imagery/16559582_RESTAURANT_129dc65c08b4a70bbf520896b3771a93.png?fit=around%7C1200%3A464\u0026crop=1200%3A464%3B0%2C0","locality":"CBD"},{"name":"Meet Mica","vote":"319","reviews":"319","address":"Shop 5/492-500 Elizabeth Street, Surry Hills, SydneySurry Hills","city":"Sydney","latitude":-33.889114502,"longitude":151.2081451714,"price_range":25,"rating":4.4,"cuisine_string":["Healthy Food","Seafood","Fusion","Japanese","Contemporary","Asian","Coffee and Tea","Cafe Food"],"photo":"https://b.zmtcdn.com/data/pictures/chains/0/17742790/4d543ef5e0fc02e6b9deab090eb57b79.jpg?resize=1204%3A803\u0026crop=1200%3A464%3B8%2C224","locality":"Surry Hills"},{"name":"Circa","vote":"991","reviews":"991","address":"21 Wentworth Street, Parramatta, SydneyParramatta","city":"Sydney","latitude":-33.8187571352,"longitude":151.0050737858,"price_range":22,"rating":4.7,"cuisine_string":["Cafe Food","Coffee and Tea"],"photo":"https://b.zmtcdn.com/data/pictures/chains/7/16563677/29b660b0f09666dc8df3e2066c877a38.jpg?resize=1204%3A802\u0026crop=1200%3A464%3B2%2C302","locality":"Parramatta"},{"name":"New Shanghai","vote":"510","reviews":"510","address":"273 Liverpool Road, Ashfield, SydneyAshfield","city":"Sydney","latitude":-33.8882856645,"longitude":151.1242936179,"price_range":30,"rating":4.5,"cuisine_string":["Chinese","Dumplings"],"photo":"https://b.zmtcdn.com/data/pictures/9/16562229/bac371bd26897cc17749833972442061.jpg?resize=1204%3A1204\u0026crop=1200%3A464%3B-1%2C459","locality":"Ashfield"},{"name":"Boon Cafe Eatery \u0026 Jarern Chai Grocer","vote":"322","reviews":"323","address":"425 Pitt Street, Haymarket, Chinatown, SydneyHaymarketNSW","city":"Sydney","latitude":-33.8787423204,"longitude":151.2071262673,"price_range":15,"rating":4.4,"cuisine_string":["Coffee and Tea","Cafe Food"],"photo":"https://b.zmtcdn.com/data/pictures/3/16570563/2fb181a0d9ce9b2b1da913b0d8e98884.jpg?resize=1204%3A804\u0026crop=1200%3A464%3B0%2C119","locality":"Haymarket"},{"name":"Chur Burger","vote":"1323","reviews":"1323","address":"48 Albion Street, \tSurry HillsSurry Hills","city":"Sydney","latitude":-33.8823199122,"longitude":151.2102134898,"price_range":25,"rating":4.4,"cuisine_string":["American"],"photo":"https://b.zmtcdn.com/data/pictures/9/16566509/f0ff9f2d1b7449fdc762f6b74dec0e13.jpg?resize=1210%3A468\u0026crop=1200%3A464%3B6%2C2","locality":"Surry Hills"},{"name":"Criniti's","vote":"644","reviews":"644","address":"Shop 461, Level 2, Harbourside Shopping Centre, 2-10 Darling Drive, Darling Harbour, SydneyDarling HarbourNSW","city":"Sydney","latitude":-33.871855876,"longitude":151.1993143335,"price_range":0,"rating":3.8,"cuisine_string":["Italian","Pizza"],"photo":"https://b.zmtcdn.com/data/res_imagery/16561960_RESTAURANT_863878216116d001997ed070dbac1763_c.jpg?fit=around%7C1200%3A464\u0026crop=1200%3A464%3B0%2C0","locality":"Darling Harbour"},{"name":"La Renaissance Cafe Patisserie","vote":"863","reviews":"863","address":"47 Argyle Street, The Rocks, SydneyThe Rocks","city":"Sydney","latitude":-33.859350071,"longitude":151.2086313218,"price_range":20,"rating":4.7,"cuisine_string":["Desserts","Bakery","French","Patisserie","Cafe Food","Coffee and Tea"],"photo":"https://b.zmtcdn.com/data/pictures/chains/8/16558268/67ac88041ab7815f2eae67648cdbd7d6.jpg?resize=1204%3A802\u0026crop=1200%3A464%3B7%2C2","locality":"The Rocks"},{"name":"Felix Bistro and Bar","vote":"706","reviews":"706","address":"Ivy, 2 Ash Street, CBD, SydneyCBDNSW","city":"Sydney","latitude":-33.8666874069,"longitude":151.2077760324,"price_range":60,"rating":4.5,"cuisine_string":["French"],"photo":"https://b.zmtcdn.com/data/reviews_photos/1aa/70bfcaa98d49e54404a5fef7326de1aa_1532512572.jpeg?resize=1204%3A903\u0026crop=1200%3A464%3B1%2C181","locality":"CBD"},{"name":"Aqua S","vote":"685","reviews":"686","address":"Shop 27, Regent Place Arcade, 501 George Street, CBD, SydneyCBD","city":"Sydney","latitude":-33.8751848992,"longitude":151.2067745626,"price_range":7,"rating":4.2,"cuisine_string":["Desserts","Ice Cream"],"photo":"https://b.zmtcdn.com/data/res_imagery/16570514_RESTAURANT_af8d420880eefc401e4dab0c1eb8cdee.jpg?fit=around%7C1200%3A464\u0026crop=1200%3A464%3B0%2C0","locality":"CBD"},{"name":"The Paramount Coffee Project","vote":"808","reviews":"808","address":"80 Commonwealth Street, Surry Hills, SydneySurry Hills","city":"Sydney","latitude":-33.8794498899,"longitude":151.211085543,"price_range":25,"rating":4.4,"cuisine_string":["Cafe Food","Coffee and Tea"],"photo":"https://b.zmtcdn.com/data/res_imagery/16567674_RESTAURANT_1532a7e9d731ead5e9f9f1247975bd66_c.jpg?fit=around%7C1200%3A464\u0026crop=1200%3A464%3B0%2C0","locality":"Surry Hills"},{"name":"禧市 East Ocean Seafood Restaurant","vote":"424","reviews":"425","address":"421-429 Sussex Street, Chinatown, Haymarket, SydneyHaymarketNSW","city":"Sydney","latitude":-33.8791865701,"longitude":151.2042153999,"price_range":55,"rating":4.2,"cuisine_string":["Yum Cha","Seafood","Asian"],"photo":"https://b.zmtcdn.com/data/res_imagery/16557761_RESTAURANT_b24c766924da36b25dc038090a25689d_c.jpg?fit=around%7C1200%3A464\u0026crop=1200%3A464%3B0%2C0","locality":"Haymarket"},{"name":"Ichi-ban Boshi","vote":"691","reviews":"691","address":"Food Court, The Galeries, 500 George Street, CBD, SydneyCBD","city":"Sydney","latitude":-33.8725810401,"longitude":151.2079701573,"price_range":15,"rating":4.3,"cuisine_string":["Japanese","Ramen"],"photo":"https://b.zmtcdn.com/data/reviews_photos/231/caa2f4b29d0a1d82fa6c4ac42fdad231_1560393546.jpg?resize=1204%3A902\u0026crop=1200%3A464%3B-7%2C137","locality":"CBD"},{"name":"Toko","vote":"1335","reviews":"1335","address":"490 Crown Street, \tSurry HillsSurry Hills","city":"Sydney","latitude":-33.8868517399,"longitude":151.2138626352,"price_range":50,"rating":4.6,"cuisine_string":["Japanese"],"photo":"https://b.zmtcdn.com/data/pictures/2/16559232/0ff1b0957af8a8c6c7fe6480457f4bea.jpg?resize=1204%3A803\u0026crop=1200%3A464%3B1%2C168","locality":"Surry Hills"},{"name":"Miso Japanese Restaurant","vote":"594","reviews":"595","address":"Shop 20, World Square Shopping Centre, 644 George Street, CBD, SydneyCBD","city":"Sydney","latitude":-33.8773722576,"longitude":151.2070803344,"price_range":30,"rating":4.5,"cuisine_string":["Japanese"],"photo":"https://b.zmtcdn.com/data/reviews_photos/2d6/9434eac9ee883076fdb0c9cadec552d6_1515723098.jpg?resize=1204%3A903\u0026crop=1200%3A464%3B0%2C161","locality":"CBD"},{"name":"Reuben Hills","vote":"1517","reviews":"1517","address":"61 Albion Street, \tSurry HillsSurry Hills","city":"Sydney","latitude":-33.8828635104,"longitude":151.2110198289,"price_range":27,"rating":4.3,"cuisine_string":["Cafe Food","Coffee and Tea","Fried Chicken"],"photo":"https://b.zmtcdn.com/data/res_imagery/16564828_RESTAURANT_bb62bbbe5ebe0256a236e81bbebf383a.jpg?fit=around%7C1200%3A464\u0026crop=1200%3A464%3B0%2C0","locality":"Surry Hills"},{"name":"The Potting Shed","vote":"554","reviews":"554","address":"41 Bourke Road, Alexandria, SydneyAlexandria","city":"Sydney","latitude":-33.91140437,"longitude":151.194697246,"price_range":32,"rating":4.5,"cuisine_string":["Modern Australian"],"photo":"https://b.zmtcdn.com/data/res_imagery/16568756_RESTAURANT_db43e368dd4caffa11e272a82a77be03_c.jpg?fit=around%7C1200%3A464\u0026crop=1200%3A464%3B0%2C0","locality":"Alexandria"},{"name":"El loco","vote":"1086","reviews":"1086","address":"64 Foveaux Street, Excelsior Hotel, Surry Hills, SydneySurry Hills","city":"Sydney","latitude":-33.884514881,"longitude":151.2112018839,"price_range":37,"rating":4.4,"cuisine_string":["Mexican"],"photo":"https://b.zmtcdn.com/data/pictures/8/16563918/43f9b70a4cb36a7ca800cc41954c5613.jpg?resize=1204%3A803\u0026crop=1200%3A464%3B-1%2C153","locality":"Surry Hills"},{"name":"Bar Luca","vote":"593","reviews":"593","address":"52 Phillip Street, CBD, SydneyCBDNSW","city":"Sydney","latitude":-33.863986962,"longitude":151.2119187042,"price_range":30,"rating":4.7,"cuisine_string":["Burger","Modern Australian"],"photo":"https://b.zmtcdn.com/data/res_imagery/16557237_RESTAURANT_1bddec09c720a87210b64e26104f3066_c.jpg?fit=around%7C1200%3A464\u0026crop=1200%3A464%3B0%2C0","locality":"CBD"},{"name":"Burger Project","vote":"705","reviews":"705","address":"Shop 6, Level 1, World Square Shopping Centre, 644 George Street, CBD, SydneyCBD","city":"Sydney","latitude":-33.8776141496,"longitude":151.2073066458,"price_range":22,"rating":4.2,"cuisine_string":["Burger","American"],"photo":"https://b.zmtcdn.com/data/res_imagery/16569387_CHAIN_997694564097162132732ab175a94af5.png?fit=around%7C1200%3A464\u0026crop=1200%3A464%3B0%2C0","locality":"CBD"},{"name":"glass brasserie \u0026 wine bar","vote":"687","reviews":"687","address":"Level 2, Hilton Sydney Hotel, 488 George Street, CBD, SydneyCBDNSW","city":"Sydney","latitude":-33.8722798403,"longitude":151.2074843422,"price_range":75,"rating":4.6,"cuisine_string":["Modern Australian","French","Tapas"],"photo":"https://b.zmtcdn.com/data/res_imagery/16557948_RESTAURANT_48bd998714e683fca50829bdc2e1c36e.jpg?fit=around%7C1200%3A464\u0026crop=1200%3A464%3B0%2C0","locality":"CBD"},{"name":"The Pie Tin","vote":"769","reviews":"769","address":"1A Brown Street, Newtown, SydneyNewtown","city":"Sydney","latitude":-33.895291843,"longitude":151.1823490262,"price_range":20,"rating":4.5,"cuisine_string":["Bakery","Coffee and Tea"],"photo":"https://b.zmtcdn.com/data/pictures/chains/7/16563607/434d345bb06e8979998875d002fe287c.jpg?resize=1204%3A800\u0026crop=1200%3A464%3B2%2C97","locality":"Newtown"},{"name":"Gelato Messina","vote":"1518","reviews":"1518","address":"Shop 1, 241 Victoria Street, Darlinghurst, SydneyDarlinghurst","city":"Sydney","latitude":-33.8779801874,"longitude":151.2213731557,"price_range":10,"rating":4.9,"cuisine_string":["Desserts","Ice Cream","Beverages"],"photo":"https://b.zmtcdn.com/data/res_imagery/16564739_CHAIN_b4c937792f7d33c3d7bbd145252da6ed.jpg?fit=around%7C1200%3A464\u0026crop=1200%3A464%3B0%2C0","locality":"Darlinghurst"},{"name":"Bread \u0026 Circus","vote":"570","reviews":"570","address":"21 Fountain Street, Alexandria, SydneyAlexandriaNSW","city":"Sydney","latitude":-33.9024922387,"longitude":151.1959840357,"price_range":30,"rating":4.4,"cuisine_string":["Coffee and Tea","Cafe Food"],"photo":"https://b.zmtcdn.com/data/res_imagery/16564774_RESTAURANT_270b471c0a9aa18a6b79824fefe2381b_c.jpg?fit=around%7C1200%3A464\u0026crop=1200%3A464%3B0%2C0","locality":"Alexandria"},{"name":"Vapiano - King Street","vote":"498","reviews":"498","address":"77-79 Corner King And York Street, CBD, Sydney CBDCBD","city":"Sydney","latitude":-33.8687524937,"longitude":151.2059340254,"price_range":30,"rating":4.1,"cuisine_string":["Italian","Pizza"],"photo":"https://b.zmtcdn.com/data/pictures/0/16568200/f267e93e7f86260f42cf39308fcf5806.jpg?resize=1204%3A803\u0026crop=1200%3A464%3B-1%2C119","locality":"CBD"},{"name":"YAYOI Japanese Teishoku Restaurant","vote":"410","reviews":"410","address":"Level 1, The Galeries, 500 George Street, CBD, SydneyCBD","city":"Sydney","latitude":-33.8727430529,"longitude":151.2080422416,"price_range":35,"rating":4.3,"cuisine_string":["Japanese","Hot Pot"],"photo":"https://b.zmtcdn.com/data/pictures/9/17744989/5ec698fbba187c81d4d99cf0d9fbfe4e.jpg?resize=1242%3A468\u0026crop=1200%3A464%3B17%2C0","locality":"CBD"},{"name":"The Restaurant Pendolino","vote":"791","reviews":"791","address":"Shop 100-102, Level 2, The Strand Arcade, 412-414 George Street, CBD, SydneyCBD","city":"Sydney","latitude":-33.8688660748,"longitude":151.2071353197,"price_range":125,"rating":4.5,"cuisine_string":["Italian"],"photo":"https://b.zmtcdn.com/data/pictures/chains/9/16558709/8b3df2409c4cc7748a5317d9a0841c74.jpg?resize=1204%3A802\u0026crop=1200%3A464%3B-3%2C156","locality":"CBD"},{"name":"Le Monde","vote":"630","reviews":"630","address":"83 Foveaux Street, Surry Hills, SydneySurry Hills","city":"Sydney","latitude":-33.8846952412,"longitude":151.211158298,"price_range":20,"rating":4.5,"cuisine_string":["Modern Australian"],"photo":"https://b.zmtcdn.com/data/reviews_photos/21e/cc0377b2af177b44aade56e1ed7eb21e_1542718407.jpg?resize=1204%3A804\u0026crop=1200%3A464%3B1%2C310","locality":"Surry Hills"},{"name":"Green Peppercorn","vote":"389","reviews":"389","address":"1 Hamilton Road,   Fairfield, Fairfield, SydneyFairfield","city":"Sydney","latitude":-33.8736650168,"longitude":150.9540078789,"price_range":45,"rating":4.4,"cuisine_string":["Thai","Laotian","Salad"],"photo":"https://b.zmtcdn.com/data/res_imagery/16568531_CHAIN_74e39d28e86e76263467b71109276405.jpg?fit=around%7C1200%3A464\u0026crop=1200%3A464%3B0%2C0","locality":"Fairfield"},{"name":"Golden Century Seafood","vote":"624","reviews":"624","address":"393-399 Sussex Street, \tHaymarketHaymarketNSW","city":"Sydney","latitude":-33.8779988372,"longitude":151.2045587227,"price_range":70,"rating":4.3,"cuisine_string":["Chinese","Seafood","Hot Pot"],"photo":"https://b.zmtcdn.com/data/pictures/7/16557957/aac9e664d07e56a7275cacd12a124e89.png?resize=1204%3A817\u0026crop=1200%3A464%3B-2%2C301","locality":"Haymarket"},{"name":"Mad Spuds Cafe","vote":"855","reviews":"855","address":"479 Crown Street, \tSurry HillsSurry Hills","city":"Sydney","latitude":-33.8880424111,"longitude":151.2133727968,"price_range":32,"rating":4.5,"cuisine_string":["Irish","Healthy Food","Salad","Cafe Food","Coffee and Tea"],"photo":"https://b.zmtcdn.com/data/res_imagery/16562652_RESTAURANT_700f9d034c99fdbd35f7a93b3d103ec9_c.jpg?fit=around%7C1200%3A464\u0026crop=1200%3A464%3B0%2C0","locality":"Surry Hills"},{"name":"The Picnic Burwood","vote":"359","reviews":"359","address":"Corner of Park Avenue and Burwood Road, Burwood, SydneyBurwood","city":"Sydney","latitude":-33.8739200026,"longitude":151.1035557836,"price_range":25,"rating":4.3,"cuisine_string":["Cafe Food","Coffee and Tea"],"photo":"https://b.zmtcdn.com/data/reviews_photos/7e7/247ae59ac211a099a374cacab36b97e7_1494683500.jpg?resize=1204%3A803\u0026crop=1200%3A464%3B0%2C130","locality":"Burwood"},{"name":"Opera Bar","vote":"665","reviews":"665","address":"Lower Concourse Level, Sydney Opera House, CBD, SydneyCBDNSW","city":"Sydney","latitude":-33.8575127847,"longitude":151.2149522826,"price_range":55,"rating":4.5,"cuisine_string":["Australian","Seafood","Bar Food","Pizza"],"photo":"https://b.zmtcdn.com/data/res_imagery/16560207_RESTAURANT_222e7349c98818c74c13d4606801beae_c.jpg?fit=around%7C1200%3A464\u0026crop=1200%3A464%3B0%2C0","locality":"CBD"},{"name":"Bodega","vote":"823","reviews":"823","address":"216 Commonwealth Street, \tSurry Hills, Surry Hills, SydneySurry Hills","city":"Sydney","latitude":-33.8834783596,"longitude":151.2100810558,"price_range":40,"rating":4.4,"cuisine_string":["Latin American","Tapas"],"photo":"https://b.zmtcdn.com/data/res_imagery/16557373_RESTAURANT_774fc75768a0473e2cbc5b1e996e7bcd_c.jpg?fit=around%7C1200%3A464\u0026crop=1200%3A464%3B0%2C0","locality":"Surry Hills"},{"name":"Fratelli Fresh","vote":"502","reviews":"502","address":"11 Bridge Street, CBD, SydneyCBDNSW","city":"Sydney","latitude":-33.8637982061,"longitude":151.2081103027,"price_range":45,"rating":4.2,"cuisine_string":["Italian"],"photo":"https://b.zmtcdn.com/data/res_imagery/16564677_CHAIN_77686e02a92f18ef47405722f5668f68.jpg?fit=around%7C1200%3A464\u0026crop=1200%3A464%3B0%2C0","locality":"CBD"},{"name":"Holy Basil","vote":"490","reviews":"490","address":"Shark Hotel, 127 Liverpool Street, CBD, SydneyCBD","city":"Sydney","latitude":-33.876952494,"longitude":151.2081314251,"price_range":40,"rating":4.5,"cuisine_string":["Thai","Laotian","Salad"],"photo":"https://b.zmtcdn.com/data/res_imagery/16564597_RESTAURANT_af122ca8c797d0a52fff3b95923c3de7_c.jpg?fit=around%7C1200%3A464\u0026crop=1200%3A464%3B0%2C0","locality":"CBD"},{"name":"Hartsyard","vote":"730","reviews":"731","address":"33 Newtown Road, Newtown, SydneyNewtown","city":"Sydney","latitude":-33.89825929,"longitude":151.1768280342,"price_range":50,"rating":4.6,"cuisine_string":["Modern Australian"],"photo":"https://b.zmtcdn.com/data/pictures/2/16565382/5ff320d966c9e282687bc59bc60e3a87.jpg?resize=1204%3A677\u0026crop=1200%3A464%3B-3%2C121","locality":"Newtown"},{"name":"Uncle Tetsu’s","vote":"429","reviews":"429","address":"Regent Place Arcade, 501 George Street, CBD, SydneyCBD","city":"Sydney","latitude":-33.8748670066,"longitude":151.2068392709,"price_range":18,"rating":4.4,"cuisine_string":["Desserts"],"photo":"https://b.zmtcdn.com/data/pictures/1/15547271/f2d4dd437f1467bc6f3fa51e686a9bce.jpg?resize=1204%3A917\u0026crop=1200%3A464%3B0%2C156","locality":"CBD"},{"name":"Buffalo Dining Club","vote":"515","reviews":"516","address":"116 Surrey Street Darlinghurst, Darlinghurst, SydneyDarlinghurst","city":"Sydney","latitude":-33.8775515194,"longitude":151.2219629064,"price_range":35,"rating":4.5,"cuisine_string":["Italian"],"photo":"https://b.zmtcdn.com/data/reviews_photos/566/5e418b8244bb25ec20407fa20637c566_1511594522.jpg?resize=1204%3A903\u0026crop=1200%3A464%3B-22%2C68","locality":"Darlinghurst"},{"name":"Chin Chin","vote":"270","reviews":"270","address":"69 Commonwealth Street, Surry Hills, SydneySurry Hills","city":"Sydney","latitude":-33.8789627754,"longitude":151.2108642608,"price_range":50,"rating":4.5,"cuisine_string":["Thai","Asian","Fusion"],"photo":"https://b.zmtcdn.com/data/pictures/9/15546899/29000d0beb72a807855472c3be2446c1.jpg?resize=1204%3A1204\u0026crop=1200%3A464%3B-3%2C475","locality":"Surry Hills"},{"name":"Campos Coffee","vote":"743","reviews":"743","address":"193 Missenden Road, Newtown, SydneyNewtown","city":"Sydney","latitude":-33.8930417685,"longitude":151.1831976101,"price_range":10,"rating":4.5,"cuisine_string":["Cafe Food","Coffee and Tea"],"photo":"https://b.zmtcdn.com/data/res_imagery/16557497_RESTAURANT_28835443dc7373fd1c937c6e3f2b5c62_c.JPG?fit=around%7C1200%3A464\u0026crop=1200%3A464%3B0%2C0","locality":"Newtown"},{"name":"678 Korean BBQ","vote":"445","reviews":"447","address":"Level 1, 396 Pitt Street, corner Goulburn Street, Haymarket, SydneyHaymarketNSW","city":"Sydney","latitude":-33.8783041922,"longitude":151.2079114839,"price_range":40,"rating":4.4,"cuisine_string":["Korean BBQ"],"photo":"https://b.zmtcdn.com/data/res_imagery/16567853_RESTAURANT_45b70a6c60d7a8ea32742b78de1eb893.jpg?fit=around%7C1200%3A464\u0026crop=1200%3A464%3B0%2C0","locality":"Haymarket"},{"name":"Tan Viet Noodle House","vote":"462","reviews":"462","address":"Shop 2-3, 100 John Street, Cabramatta, SydneyCabramatta","city":"Sydney","latitude":-33.8950658641,"longitude":150.9345662221,"price_range":17,"rating":4.6,"cuisine_string":["Asian","Vietnamese"],"photo":"https://b.zmtcdn.com/data/res_imagery/16559140_RESTAURANT_9745cc1326a09d7ac05f5d6b51bacac5.jpg?fit=around%7C1200%3A464\u0026crop=1200%3A464%3B0%2C0","locality":"Cabramatta"},{"name":"Encasa","vote":"673","reviews":"673","address":"423 Pitt Street, Haymarket, SydneyHaymarketNSW","city":"Sydney","latitude":-33.8786440619,"longitude":151.2071192265,"price_range":40,"rating":4.4,"cuisine_string":["Spanish"],"photo":"https://b.zmtcdn.com/data/pictures/chains/7/16557807/cfaac52cd183d8ce0ee79db8031063ab.jpg?resize=1204%3A778\u0026crop=1200%3A464%3B1%2C95","locality":"Haymarket"},{"name":"Taste of Shanghai","vote":"352","reviews":"352","address":"Shop 9.07, World Square Shopping Centre, 644 George Street, CBD, SydneyCBD","city":"Sydney","latitude":-33.8774009284,"longitude":151.206670627,"price_range":42,"rating":4.3,"cuisine_string":["Chinese","Asian","Dumplings","Shanghai"],"photo":"https://b.zmtcdn.com/data/res_imagery/16562140_RESTAURANT_b1aa0aae02641fd5dc1461167f62dbfd.jpg?fit=around%7C1200%3A464\u0026crop=1200%3A464%3B0%2C0","locality":"CBD"},{"name":"Juan Bowl \u0026 Tea","vote":"281","reviews":"281","address":"Shop 5 94A Pitt Street, Redfern, SydneyRedfernNSW","city":"Sydney","latitude":-33.8931898272,"longitude":151.2040209398,"price_range":40,"rating":4.6,"cuisine_string":["Japanese","Tea"],"photo":"https://b.zmtcdn.com/data/reviews_photos/398/09f20ad694291ee147f6ddd74dd94398_1545554733.jpg?resize=1204%3A1605\u0026crop=1200%3A464%3B0%2C562","locality":"Redfern"},{"name":"Won Jo","vote":"350","reviews":"350","address":"33A The Boulevarde, Strathfield, SydneyStrathfield","city":"Sydney","latitude":-33.8734851901,"longitude":151.0940369591,"price_range":45,"rating":4.2,"cuisine_string":["Korean BBQ","Hot Pot"],"photo":"https://b.zmtcdn.com/data/res_imagery/16562299_RESTAURANT_01376aa816fad66d87ef358a5e317a4f_c.jpg?fit=around%7C1200%3A464\u0026crop=1200%3A464%3B0%2C0","locality":"Strathfield"},{"name":"Otto Ristorante","vote":"502","reviews":"503","address":"Shop 8, 6 Cowper Wharf Road, Woolloomooloo, SydneyWoolloomoolooNSW","city":"Sydney","latitude":-33.8682235601,"longitude":151.2205259129,"price_range":80,"rating":4.5,"cuisine_string":["Italian"],"photo":"https://b.zmtcdn.com/data/res_imagery/16558647_RESTAURANT_b995d47d995d8ce68ee0079e9e868ad6.jpg?fit=around%7C1200%3A464\u0026crop=1200%3A464%3B0%2C0","locality":"Woolloomooloo"},{"name":"Element 6","vote":"398","reviews":"399","address":"65 Ryedale Road, West Ryde, SydneyWest RydeNSW","city":"Sydney","latitude":-33.8066051648,"longitude":151.0912638903,"price_range":15,"rating":4.4,"cuisine_string":["Cafe Food","Coffee and Tea"],"photo":"https://b.zmtcdn.com/data/reviews_photos/42b/e254fb220c9135ac3a038c3930cf742b_1506173232.jpg?resize=1204%3A903\u0026crop=1200%3A464%3B2%2C200","locality":"West Ryde"},{"name":"Bodhi Restaurant \u0026 Bar","vote":"473","reviews":"473","address":"Lower Mezzanine Level, Cook and Phillip Park Leisure Complex, 2-4 College Street, CBD, SydneyCBDNSW","city":"Sydney","latitude":-33.8722325167,"longitude":151.2134663388,"price_range":35,"rating":4.4,"cuisine_string":["Asian","Yum Cha","Chinese","Vegan"],"photo":"https://b.zmtcdn.com/data/reviews_photos/b90/4b1cbbf06cb90d7c315f6d94fa8ebb90_1520287511.jpg?resize=1204%3A803\u0026crop=1200%3A464%3B-4%2C155","locality":"CBD"},{"name":"Trio","vote":"623","reviews":"623","address":"56 Campbell Parade, Bondi Beach, SydneyBondi Beach","city":"Sydney","latitude":-33.893097708,"longitude":151.2728088722,"price_range":35,"rating":4.5,"cuisine_string":["Mediterranean","Cafe Food","Coffee and Tea","Australian","European","Juices","Sandwich","Salad"],"photo":"https://b.zmtcdn.com/data/res_imagery/16559258_RESTAURANT_d249bd1101f02547df225b2e4ac06008.jpg?fit=around%7C1200%3A464\u0026crop=1200%3A464%3B0%2C0","locality":"Bondi Beach"},{"name":"Old Town Hong Kong Cuisine","vote":"431","reviews":"431","address":"10 Dixon Street, Chinatown, CBD, SydneyCBDNSW","city":"Sydney","latitude":-33.8767718391,"longitude":151.2039800361,"price_range":32,"rating":4.0,"cuisine_string":["Asian","Chinese","Cantonese","Fusion"],"photo":"https://b.zmtcdn.com/data/pictures/1/16566721/9e5869fa4b91c86a34acf9875a7b108f.jpg?resize=1204%3A601\u0026crop=1200%3A464%3B-4%2C-2","locality":"CBD"},{"name":"LuMi Bar \u0026 Dining","vote":"427","reviews":"427","address":"56 Pirrama Road, \tPyrmont, Pyrmont, SydneyPyrmont","city":"Sydney","latitude":-33.8669053876,"longitude":151.1973942071,"price_range":95,"rating":4.9,"cuisine_string":["Italian","Japanese"],"photo":"https://b.zmtcdn.com/data/res_imagery/16569454_RESTAURANT_4bc7e21f58ba9d7b4db8f9ffd6014f8e_c.jpg?fit=around%7C1200%3A464\u0026crop=1200%3A464%3B0%2C0","locality":"Pyrmont"},{"name":"Red Pepper Bistro","vote":"350","reviews":"350","address":"4a Lyons Street, Strathfield, SydneyStrathfieldNSW","city":"Sydney","latitude":-33.8741880709,"longitude":151.0953851044,"price_range":22,"rating":4.4,"cuisine_string":["Korean","Fried Chicken"],"photo":"https://b.zmtcdn.com/data/res_imagery/16560824_RESTAURANT_f3acb6aa1323b1e84700047168831d4d_c.jpg?fit=around%7C1200%3A464\u0026crop=1200%3A464%3B0%2C0","locality":"Strathfield"},{"name":"Bare Grill","vote":"293","reviews":"294","address":"Shop 15, 417 Bourke Street, Surry Hills, SydneySurry Hills","city":"Sydney","latitude":-33.8828376249,"longitude":151.2161089853,"price_range":25,"rating":4.8,"cuisine_string":["Seafood","Bar Food","American","Burger","Modern Australian"],"photo":"https://b.zmtcdn.com/data/res_imagery/18388075_RESTAURANT_21ad39c8b3d576352c34f521ffc68423.jpg?fit=around%7C1200%3A464\u0026crop=1200%3A464%3B0%2C0","locality":"Surry Hills"},{"name":"Pizza Birra","vote":"614","reviews":"614","address":"Shop 1, 500 Crown Street, \tSurry HillsSurry Hills","city":"Sydney","latitude":-33.8871289524,"longitude":151.2138301134,"price_range":35,"rating":4.4,"cuisine_string":["Italian","Pizza"],"photo":"https://b.zmtcdn.com/data/pictures/4/16558744/94584e87d1b4a9af5aa79074982f91c7.png?resize=1224%3A510\u0026crop=1200%3A464%3B15%2C28","locality":"Surry Hills"},{"name":"Ramen Zundo","vote":"427","reviews":"427","address":"Shop 1030, World Square Shopping Centre, 644 George Street, CBD, SydneyCBD","city":"Sydney","latitude":-33.8770660642,"longitude":151.2070887163,"price_range":15,"rating":4.3,"cuisine_string":["Japanese","Asian","Ramen"],"photo":"https://b.zmtcdn.com/data/res_imagery/16565638_RESTAURANT_18a306f2de23a0d7b344555c38dc045d.jpg?fit=around%7C1200%3A464\u0026crop=1200%3A464%3B0%2C0","locality":"CBD"},{"name":"An Restaurant","vote":"615","reviews":"615","address":"27 Greenfield Parade, Bankstown, SydneyBankstown","city":"Sydney","latitude":-33.919297011,"longitude":151.032743454,"price_range":25,"rating":4.4,"cuisine_string":["Vietnamese","Pho"],"photo":"https://b.zmtcdn.com/data/res_imagery/16566677_CHAIN_5daadad3876fa7d69a0546c677b8bba4.jpg?fit=around%7C1200%3A464\u0026crop=1200%3A464%3B0%2C0","locality":"Bankstown"},{"name":"John Smith Cafe","vote":"573","reviews":"573","address":"1 John Street, Waterloo, SydneyWaterloo","city":"Sydney","latitude":-33.9004491179,"longitude":151.2010413408,"price_range":20,"rating":4.6,"cuisine_string":["Cafe Food","Coffee and Tea"],"photo":"https://b.zmtcdn.com/data/reviews_photos/287/a2b39a6c0e0ea8c0cddfa741da847287_1502953290.jpg?resize=1204%3A859\u0026crop=1200%3A464%3B0%2C134","locality":"Waterloo"},{"name":"Mr Crackles","vote":"618","reviews":"618","address":"155 Oxford Street, Darlinghurst, SydneyDarlinghurst","city":"Sydney","latitude":-33.8800887016,"longitude":151.2159644812,"price_range":17,"rating":4.5,"cuisine_string":["Sandwich","Fast Food","Salad","Fried Chicken","American"],"photo":"https://b.zmtcdn.com/data/pictures/2/16566332/740152d1d1d37209fb309e67fa850db7.jpg?resize=1204%3A1200\u0026crop=1200%3A464%3B1%2C327","locality":"Darlinghurst"},{"name":"Kusuka On Sussex","vote":"167","reviews":"167","address":"12/339 Sussex Street, CBD, SydneyCBD","city":"Sydney","latitude":-33.8758262481,"longitude":151.2047240138,"price_range":20,"rating":4.5,"cuisine_string":["Fusion","Indonesian","Cafe Food","Coffee and Tea"],"photo":"https://b.zmtcdn.com/data/pictures/9/17744849/f81647aae7d6c2fdf9306c50bd6da7ca.jpg?resize=1204%3A832\u0026crop=1200%3A464%3B-1%2C178","locality":"CBD"},{"name":"Social Hideout","vote":"399","reviews":"400","address":"Shop 2a, 20 Victoria Road, Parramatta, SydneyParramattaNSW","city":"Sydney","latitude":-33.8084555246,"longitude":151.0060098767,"price_range":27,"rating":4.4,"cuisine_string":["Juices","Desserts","Modern Australian","Salad","Coffee and Tea","Vegetarian","Cafe Food"],"photo":"https://b.zmtcdn.com/data/pictures/chains/2/15546922/926d50340225a057f6cef2052832faa3.jpeg?resize=1204%3A1505\u0026crop=1200%3A464%3B-1%2C787","locality":"Parramatta"},{"name":"Oiden Bowl Restaurant","vote":"535","reviews":"535","address":"Shop 12, SkyView Shopping Plaza, 537-551 George Street, CBD, SydneyCBD","city":"Sydney","latitude":-33.875934,"longitude":151.206047,"price_range":15,"rating":4.5,"cuisine_string":["Japanese","Salad","Poké"],"photo":"https://b.zmtcdn.com/data/res_imagery/16564486_RESTAURANT_a43f6e2cf334c41537fd2e27716f647c_c.JPG?fit=around%7C1200%3A464\u0026crop=1200%3A464%3B0%2C0","locality":"CBD"},{"name":"The Baxter Inn","vote":"698","reviews":"698","address":"Basement, 152-156 Clarence Street, CBD, SydneyCBDNSW","city":"Sydney","latitude":-33.86972795,"longitude":151.2056527287,"price_range":30,"rating":4.6,"cuisine_string":["Bar Food"],"photo":"https://b.zmtcdn.com/data/res_imagery/16564699_RESTAURANT_b5e568555ea9cf4f1a5fba18de418ef8_c.jpg?fit=around%7C1200%3A464\u0026crop=1200%3A464%3B0%2C0","locality":"CBD"},{"name":"Mr Stonebowl","vote":"279","reviews":"279","address":"185 C Burwood Road, Burwood, SydneyBurwood","city":"Sydney","latitude":-33.8798763216,"longitude":151.1029640213,"price_range":20,"rating":4.5,"cuisine_string":["Chinese","Cantonese"],"photo":"https://b.zmtcdn.com/data/res_imagery/18246977_RESTAURANT_530c79db2fcbc33a520d4a108610c14c.jpg?fit=around%7C1200%3A464\u0026crop=1200%3A464%3B0%2C0","locality":"Burwood"},{"name":"Marigold","vote":"546","reviews":"546","address":"Level 4 \u0026 5, Citymark, 683-689 George Street, Haymarket, SydneyHaymarketNSW","city":"Sydney","latitude":-33.879871868,"longitude":151.2050364912,"price_range":60,"rating":4.2,"cuisine_string":["Chinese","Seafood","Yum Cha"],"photo":"https://b.zmtcdn.com/data/res_imagery/16558440_RESTAURANT_babc45937bc98b2c070d664e31965d8a_c.jpg?fit=around%7C1200%3A464\u0026crop=1200%3A464%3B0%2C0","locality":"Haymarket"},{"name":"Khao Pla","vote":"444","reviews":"444","address":"Shop 7, 370 Victoria Avenue, Chatswood, SydneyChatswoodNSW","city":"Sydney","latitude":-33.7964901601,"longitude":151.1835623905,"price_range":20,"rating":4.4,"cuisine_string":["Thai"],"photo":"https://b.zmtcdn.com/data/reviews_photos/f40/ca474017f1a353353dc6f63a86488f40_1548489253.jpg?resize=1204%3A1204\u0026crop=1200%3A464%3B0%2C300","locality":"Chatswood"},{"name":"Bowery Lane","vote":"560","reviews":"560","address":"Shop 1, Level 4, The Wintergarden, 1 O'Connell Street, CBD, SydneyCBDNSW","city":"Sydney","latitude":-33.864831069,"longitude":151.2098352984,"price_range":40,"rating":4.4,"cuisine_string":["Modern Australian"],"photo":"https://b.zmtcdn.com/data/res_imagery/16569020_RESTAURANT_817e5ad9618b57f235213a26776dc169_c.jpg?fit=around%7C1200%3A464\u0026crop=1200%3A464%3B0%2C0","locality":"CBD"},{"name":"Bowery Lane","vote":"560","reviews":"560","address":"Shop 1, Level 4, The Wintergarden, 1 O'Connell Street, CBD, SydneyCBDNSW","city":"Sydney","latitude":-33.864831069,"longitude":151.2098352984,"price_range":40,"rating":4.4,"cuisine_string":["Modern Australian"],"photo":"https://b.zmtcdn.com/data/res_imagery/16569020_RESTAURANT_817e5ad9618b57f235213a26776dc169_c.jpg?fit=around%7C1200%3A464\u0026crop=1200%3A464%3B0%2C0","locality":"CBD"},{"name":"Yulli's","vote":"606","reviews":"606","address":"417 Crown Street, Surry Hills, SydneySurry HillsNSW","city":"Sydney","latitude":-33.8863805323,"longitude":151.2136923149,"price_range":37,"rating":4.4,"cuisine_string":["Australian","Asian","Vegan"],"photo":"https://b.zmtcdn.com/data/reviews_photos/eca/b13074ab9291c36a2b95d80719516eca_1511952851.jpg?resize=1204%3A1605\u0026crop=1200%3A464%3B-3%2C757","locality":"Surry Hills"},{"name":"Pasticceria Papa","vote":"521","reviews":"521","address":"145 Ramsay Street, Haberfield, SydneyHaberfieldNSW","city":"Sydney","latitude":-33.8805772014,"longitude":151.1390843242,"price_range":10,"rating":4.5,"cuisine_string":["Coffee and Tea","Italian","Cafe Food"],"photo":"https://b.zmtcdn.com/data/pictures/9/16558689/bbfaf6b71e19314a8b311acff4a3ca2b.jpg?resize=1204%3A804\u0026crop=1200%3A464%3B-3%2C6","locality":"Haberfield"},{"name":"Sushi Rio","vote":"509","reviews":"509","address":"Shop 7, 345 Sussex Street, CBD, SydneyCBD","city":"Sydney","latitude":-33.8761778188,"longitude":151.2046116963,"price_range":15,"rating":4.3,"cuisine_string":["Japanese","Sushi"],"photo":"https://b.zmtcdn.com/data/reviews_photos/61b/c6117087edf10f0de412c4fd4364f61b_1538877680.jpg?resize=1204%3A1606\u0026crop=1200%3A464%3B-1%2C507","locality":"CBD"},{"name":"Cornersmith","vote":"529","reviews":"529","address":"314 Illawarra Road, Marrickville, SydneyMarrickville","city":"Sydney","latitude":-33.9127641477,"longitude":151.15449965,"price_range":27,"rating":4.4,"cuisine_string":["Coffee and Tea","Cafe Food"],"photo":"https://b.zmtcdn.com/data/pictures/chains/3/16564783/72275c83d54092634fa2162b00bdb874.jpg?resize=1204%3A1204\u0026crop=1200%3A464%3B1%2C175","locality":"Marrickville"},{"name":"Spice World","vote":"166","reviews":"166","address":"1/405 Sussex Street, Chinatown, Haymarket, SydneyHaymarketNSW","city":"Sydney","latitude":-33.8785051636,"longitude":151.2046703696,"price_range":50,"rating":4.4,"cuisine_string":["Chinese","Hot Pot","Asian","Sichuan","Seafood"],"photo":"https://b.zmtcdn.com/data/pictures/7/17744747/09d8235aceb549097f4a08a947d669e9.jpg?resize=1204%3A803\u0026crop=1200%3A464%3B1%2C262","locality":"Haymarket"},{"name":"West Juliett","vote":"427","reviews":"427","address":"30 Llewellyn Street, Marrickville, SydneyMarrickville","city":"Sydney","latitude":-33.9048074567,"longitude":151.1722381041,"price_range":25,"rating":4.4,"cuisine_string":["Healthy Food","Burger","Juices","Beverages","Bakery","Coffee and Tea","Cafe Food"],"photo":"https://b.zmtcdn.com/data/reviews_photos/b5c/f75a38c36485337f7a0ae5999e8bcb5c_1538345756.jpg?resize=1204%3A1605\u0026crop=1200%3A464%3B1%2C486","locality":"Marrickville"},{"name":"Bloodwood","vote":"586","reviews":"586","address":"416 King Street, Newtown, SydneyNewtown","city":"Sydney","latitude":-33.900069819,"longitude":151.1782268062,"price_range":50,"rating":4.4,"cuisine_string":["Modern Australian"],"photo":"https://b.zmtcdn.com/data/reviews_photos/2e8/21574f28e258dfe35b211a1e639972e8_1443356063.jpg?resize=1204%3A1204\u0026crop=1200%3A464%3B8%2C510","locality":"Newtown"},{"name":"Zilver","vote":"455","reviews":"456","address":"Level 1, 477 Pitt Street, Haymarket, SydneyHaymarketNSW","city":"Sydney","latitude":-33.8802512569,"longitude":151.2064443156,"price_range":45,"rating":4.3,"cuisine_string":["Chinese","Fusion","Yum Cha","Seafood","Cantonese","Shanghai","Tea"],"photo":"https://b.zmtcdn.com/data/pictures/0/16559410/809846feee26c3850bd552d1a7729888.jpg?resize=1204%3A902\u0026crop=1200%3A464%3B0%2C149","locality":"Haymarket"},{"name":"Yakitori Yebisu","vote":"333","reviews":"334","address":"Shop 7-10, Regent Place Arcade, 501 George Street, CBD, SydneyCBD","city":"Sydney","latitude":-33.8752024361,"longitude":151.2062230334,"price_range":27,"rating":4.0,"cuisine_string":["Japanese","Hot Pot"],"photo":"https://b.zmtcdn.com/data/res_imagery/16566774_RESTAURANT_a59a9c546b193a67cb2f617c1f3e2d6e.jpg?fit=around%7C1200%3A464\u0026crop=1200%3A464%3B0%2C0","locality":"CBD"},{"name":"Ester","vote":"367","reviews":"367","address":"46-52 Meagher Street, Chippendale, SydneyChippendale","city":"Sydney","latitude":-33.8875035774,"longitude":151.2008130178,"price_range":75,"rating":4.7,"cuisine_string":["Modern Australian"],"photo":"https://b.zmtcdn.com/data/reviews_photos/805/8031b8dde2b0acdfa4e308a06c822805_1518302532.jpg?resize=1204%3A903\u0026crop=1200%3A464%3B-7%2C67","locality":"Chippendale"},{"name":"Orto Trading Co.","vote":"563","reviews":"563","address":"38-55 Waterloo Street, Surry HillsSurry Hills","city":"Sydney","latitude":-33.8866836307,"longitude":151.2104032561,"price_range":30,"rating":4.3,"cuisine_string":["Modern Australian","Cafe Food","Coffee and Tea"],"photo":"https://b.zmtcdn.com/data/pictures/chains/4/16563714/59850aad684b988e03b5f026b8f508a6.png?resize=1204%3A568\u0026crop=1200%3A464%3B-1%2C66","locality":"Surry Hills"},{"name":"Do Dee Paidang Thai","vote":"365","reviews":"365","address":"Shop 9, 37 Ultimo Road, Haymarket, SydneyHaymarketNSW","city":"Sydney","latitude":-33.8807247251,"longitude":151.2031341344,"price_range":17,"rating":4.6,"cuisine_string":["Thai","Asian"],"photo":"https://b.zmtcdn.com/data/res_imagery/16569275_RESTAURANT_e0c2e92806df2ce59aadb845bd930ce2_c.jpg?fit=around%7C1200%3A464\u0026crop=1200%3A464%3B0%2C0","locality":"Haymarket"},{"name":"KIN by us.","vote":"401","reviews":"401","address":"2 Saunders Close, Macquarie Park, SydneyMacquarie Park","city":"Sydney","latitude":-33.7790213691,"longitude":151.1157900095,"price_range":20,"rating":4.5,"cuisine_string":["Salad","Asian","Australian","Healthy Food","Vegetarian","Modern Australian","Cafe Food","Coffee and Tea"],"photo":"https://b.zmtcdn.com/data/pictures/chains/7/15544507/efadb25e4f102d6a738eb63093dd6e39.jpg?resize=1204%3A963\u0026crop=1200%3A464%3B-3%2C238","locality":"Macquarie Park"},{"name":"Bistro Papillon","vote":"491","reviews":"491","address":"98 Clarence Street, CBD, SydneyCBD","city":"Sydney","latitude":-33.8680066963,"longitude":151.2053077295,"price_range":40,"rating":4.6,"cuisine_string":["French"],"photo":"https://b.zmtcdn.com/data/pictures/chains/7/16562527/19cadabd55bf9443b65381fc65dcaef9.jpg?resize=1204%3A602\u0026crop=1200%3A464%3B-1%2C130","locality":"CBD"},{"name":"La Mamma del Gelato Anita","vote":"476","reviews":"476","address":"Ground Floor, Central Park, 28 Broadway, Chippendale, SydneyChippendale","city":"Sydney","latitude":-33.8848491593,"longitude":151.200462319,"price_range":12,"rating":4.9,"cuisine_string":["Ice Cream"],"photo":"https://b.zmtcdn.com/data/pictures/chains/3/15546833/0a1044b0dfbb692b612115cb794110a2.jpg?resize=1204%3A804\u0026crop=1200%3A464%3B-5%2C70","locality":"Chippendale"},{"name":"Chiswick","vote":"539","reviews":"539","address":"65 Ocean Street, Woollahra, SydneyWoollahraNSW","city":"Sydney","latitude":-33.8868258556,"longitude":151.2403833121,"price_range":55,"rating":4.5,"cuisine_string":["Modern Australian"],"photo":"https://b.zmtcdn.com/data/res_imagery/16564904_RESTAURANT_57a4c0679f12027d67082736f090fee5_c.jpg?fit=around%7C1200%3A464\u0026crop=1200%3A464%3B0%2C0","locality":"Woollahra"},{"name":"Gigi Pizzeria","vote":"466","reviews":"466","address":"379 King Street, Newtown SydneyNewtownNSW","city":"Sydney","latitude":-33.8992363571,"longitude":151.1776427552,"price_range":40,"rating":4.4,"cuisine_string":["Italian","Pizza","Vegan"],"photo":"https://b.zmtcdn.com/data/res_imagery/16560215_RESTAURANT_762ed058f55368abba87b38d250697fa_c.jpg?fit=around%7C1200%3A464\u0026crop=1200%3A464%3B0%2C0","locality":"Newtown"},{"name":"The Boathouse on Blackwattle Bay","vote":"444","reviews":"444","address":"123 Ferry Road, Glebe, SydneyGlebeNSW","city":"Sydney","latitude":-33.8738384406,"longitude":151.1879065633,"price_range":100,"rating":4.5,"cuisine_string":["Seafood","Modern Australian"],"photo":"https://b.zmtcdn.com/data/res_imagery/16557372_RESTAURANT_3a075ca5631d40639e3e5ef4051a2ae2.jpg?fit=around%7C1200%3A464\u0026crop=1200%3A464%3B0%2C0","locality":"Glebe"},{"name":"Icebergs Dining Room and Bar","vote":"485","reviews":"485","address":"1 Notts Avenue, Bondi Beach, SydneyBondi BeachNSW","city":"Sydney","latitude":-33.8950625245,"longitude":151.2743102387,"price_range":55,"rating":4.3,"cuisine_string":["Italian","Seafood"],"photo":"https://b.zmtcdn.com/data/reviews_photos/fb3/2ef461e21d8de4702b758ef7f1057fb3_1506119343.jpg?resize=1204%3A903\u0026crop=1200%3A464%3B1%2C103","locality":"Bondi Beach"},{"name":"Ayam Goreng 99","vote":"426","reviews":"426","address":"464 Anzac Parade, Kingsford, SydneyKingsford","city":"Sydney","latitude":-33.9228378473,"longitude":151.2278262153,"price_range":20,"rating":4.5,"cuisine_string":["Indonesian","Fried Chicken"],"photo":"https://b.zmtcdn.com/data/reviews_photos/585/2d40e51920ccafb039f2b3a9be157585_1487676299.jpg?resize=1204%3A903\u0026crop=1200%3A464%3B-2%2C176","locality":"Kingsford"},{"name":"Belly Bao","vote":"399","reviews":"399","address":"184 King Street, Newtown, SydneyNewtown","city":"Sydney","latitude":-33.8944775372,"longitude":151.1826521158,"price_range":20,"rating":4.5,"cuisine_string":["Taiwanese","Street Food"],"photo":"https://b.zmtcdn.com/data/reviews_photos/1c1/5b8a11b16fdebe30abddb0dec31be1c1_1530881610.jpg?resize=1204%3A1204\u0026crop=1200%3A464%3B2%2C456","locality":"Newtown"},{"name":"Bare Witness","vote":"266","reviews":"266","address":"30 Shoreline Drive, Rhodes, SydneyRhodesNSW","city":"Sydney","latitude":-33.8284213753,"longitude":151.0836987197,"price_range":42,"rating":4.4,"cuisine_string":["Cafe Food","Coffee and Tea","Modern Australian"],"photo":"https://b.zmtcdn.com/data/pictures/chains/4/18419034/5860a979d124df019cd22c06ee0b99db.jpeg?resize=1204%3A803\u0026crop=1200%3A464%3B3%2C-1","locality":"Rhodes"},{"name":"Flying Fajita Sistas","vote":"451","reviews":"451","address":"65 Glebe Point Road, Glebe, SydneyGlebe","city":"Sydney","latitude":-33.8828473668,"longitude":151.1910296604,"price_range":40,"rating":4.0,"cuisine_string":["Mexican"],"photo":"https://b.zmtcdn.com/data/res_imagery/16557869_RESTAURANT_08bf2259e612a34aaf0ce8e443f0e81a.png?fit=around%7C1200%3A464\u0026crop=1200%3A464%3B0%2C0","locality":"Glebe"},{"name":"Kanzo","vote":"381","reviews":"381","address":"Shop 6/55-67 George Street, Parramatta, SydneyParramatta","city":"Sydney","latitude":-33.8140253063,"longitude":151.0047710314,"price_range":20,"rating":4.5,"cuisine_string":["Japanese","Sushi"],"photo":"https://b.zmtcdn.com/data/res_imagery/16564297_RESTAURANT_5702b5a63c670b45df40077df429205c.jpg?fit=around%7C1200%3A464\u0026crop=1200%3A464%3B0%2C0","locality":"Parramatta"},{"name":"Clipper Café","vote":"535","reviews":"535","address":"16 Glebe Point Road, Glebe, SydneyGlebe","city":"Sydney","latitude":-33.8840954309,"longitude":151.1922265962,"price_range":22,"rating":4.3,"cuisine_string":["Cafe Food","Coffee and Tea"],"photo":"https://b.zmtcdn.com/data/res_imagery/16559733_RESTAURANT_8968cbbb11371aff08cc87547e4d5eb6_c.jpg?fit=around%7C1200%3A464\u0026crop=1200%3A464%3B0%2C0","locality":"Glebe"},{"name":"Danjee","vote":"334","reviews":"334","address":"1- 7 Albion Place Sydney NSW","city":"Sydney","latitude":-33.8761204764,"longitude":151.2060238794,"price_range":25,"rating":4.3,"cuisine_string":["Korean BBQ","Korean","Fried Chicken"],"photo":"https://b.zmtcdn.com/data/reviews_photos/cac/f4b78e80dd715e39d3641e22815f4cac_1506498022.jpg?resize=1204%3A1204\u0026crop=1200%3A464%3B2%2C418","locality":"CBD"},{"name":"The Malaya","vote":"477","reviews":"477","address":"39 Lime Street, Darling Harbour, SydneyDarling HarbourNSW","city":"Sydney","latitude":-33.8679955608,"longitude":151.201941222,"price_range":67,"rating":4.3,"cuisine_string":["Asian","Malaysian","Seafood"],"photo":"https://b.zmtcdn.com/data/pictures/8/16558418/4d36524a842a30d681b160829a5587a2.jpg?resize=1204%3A603\u0026crop=1200%3A464%3B0%2C73","locality":"Darling Harbour"},{"name":"The Vogue Cafe","vote":"317","reviews":"317","address":"Shop 68, Level 2, Macquarie Shopping Centre, Corner Of Herring \u0026 Waterloo Road, Macquarie Park, SydneyMacquarie Park","city":"Sydney","latitude":-33.7766927081,"longitude":151.1204550415,"price_range":25,"rating":4.1,"cuisine_string":["Cafe Food","Coffee and Tea"],"photo":"https://b.zmtcdn.com/data/pictures/7/16568777/69ef548116245fd8666c7ca01d84f0b9.jpg?resize=1204%3A1505\u0026crop=1200%3A464%3B2%2C327","locality":"Macquarie Park"},{"name":"The Fine Food Store","vote":"448","reviews":"448","address":"Corner Mill \u0026 Kendall Lane, The Rocks, SydneyThe Rocks","city":"Sydney","latitude":-33.8587550942,"longitude":151.208473742,"price_range":25,"rating":4.3,"cuisine_string":["Cafe Food","Coffee and Tea"],"photo":"https://b.zmtcdn.com/data/reviews_photos/22f/6a0177d69af9932c0e6dc9f4afced22f_1514424360.jpg?resize=1204%3A1204\u0026crop=1200%3A464%3B3%2C290","locality":"The Rocks"},{"name":"Macchiato","vote":"460","reviews":"460","address":"Shop 2 / 338 Pitt St, Sydney CBDCBD","city":"Sydney","latitude":-33.8767014143,"longitude":151.2082035095,"price_range":0,"rating":3.8,"cuisine_string":["Italian","Pizza"],"photo":"https://b.zmtcdn.com/data/pictures/chains/1/16558391/bda5822a2348cb3f976f78db4cc4a58f.jpg?resize=1204%3A1806\u0026crop=1200%3A464%3B-1%2C1012","locality":"CBD"},{"name":"Lorraine's Patisserie","vote":"376","reviews":"377","address":"Ivy, Shop 5, Palings Lane, 320 George Street, CBD, SydneyCBDNSW","city":"Sydney","latitude":-33.8664053954,"longitude":151.2075711787,"price_range":10,"rating":4.7,"cuisine_string":["Desserts","Bakery"],"photo":"https://b.zmtcdn.com/data/pictures/5/16566535/6f55afcd0e5c7b30645c4edae6303efc.jpg?resize=1204%3A875\u0026crop=1200%3A464%3B-10%2C226","locality":"CBD"},{"name":"Pepper Lunch","vote":"360","reviews":"361","address":"Shop 10, SkyView Shopping Plaza, 537-551 George Street, CBD, SydneyCBD","city":"Sydney","latitude":-33.8762315424,"longitude":151.2062636018,"price_range":17,"rating":4.2,"cuisine_string":["Japanese","Asian"],"photo":"https://b.zmtcdn.com/data/reviews_photos/bf8/52c5cf79308b379fbd461ffc431e4bf8_1506917433.jpg?resize=1204%3A903\u0026crop=1200%3A464%3B0%2C171","locality":"CBD"},{"name":"Baja Cantina","vote":"432","reviews":"432","address":"45 Glebe Point Road, Glebe, SydneyGlebe","city":"Sydney","latitude":-33.8833032853,"longitude":151.1915650964,"price_range":30,"rating":4.1,"cuisine_string":["Latin American","Mexican"],"photo":"https://b.zmtcdn.com/data/res_imagery/16557200_RESTAURANT_382d6d9a0b2b2f30974f73bc402d5294.jpg?fit=around%7C1200%3A464\u0026crop=1200%3A464%3B0%2C0","locality":"Glebe"},{"name":"Ormeggio at the Spit","vote":"298","reviews":"298","address":"D'Albora Marinas The Spit, Spit Road, Mosman, SydneyMosman","city":"Sydney","latitude":-33.8041939538,"longitude":151.2457722053,"price_range":150,"rating":4.6,"cuisine_string":["Italian"],"photo":"https://b.zmtcdn.com/data/pictures/7/16561357/447529d9198957d5e9a0862c997a296b.jpg?resize=1204%3A903\u0026crop=1200%3A464%3B6%2C422","locality":"Mosman"},{"name":"Jazushi","vote":"492","reviews":"492","address":"145 Devonshire Street, Surry HillsSurry Hills","city":"Sydney","latitude":-33.8871077996,"longitude":151.2094101682,"price_range":30,"rating":4.4,"cuisine_string":["Japanese","Sushi"],"photo":"https://b.zmtcdn.com/data/res_imagery/16558176_RESTAURANT_687c839588a5c4bdb5fa3c685eab7eb9.jpg?fit=around%7C1200%3A464\u0026crop=1200%3A464%3B0%2C0","locality":"Surry Hills"},{"name":"Marrickville Pork Roll","vote":"478","reviews":"478","address":"362 Illawarra Road, Marrickville, SydneyMarrickville","city":"Sydney","latitude":-33.9147644034,"longitude":151.1526579782,"price_range":10,"rating":4.7,"cuisine_string":["Sandwich","Vietnamese"],"photo":"https://b.zmtcdn.com/data/reviews_photos/b49/88beaaea19892a6ec8c6f174cb58bb49_1504528055.jpg?resize=1204%3A1605\u0026crop=1200%3A464%3B6%2C256","locality":"Marrickville"},{"name":"NaruOne Korean Restaurant","vote":"423","reviews":"423","address":"375 Pitt Street, CBD, SydneyCBD","city":"Sydney","latitude":-33.8762131706,"longitude":151.2079416588,"price_range":42,"rating":2.6,"cuisine_string":["Korean","Hot Pot","Korean BBQ"],"photo":"https://b.zmtcdn.com/data/res_imagery/16563955_RESTAURANT_1b48a390e693de304e3e396f0f9b6aec.jpg?fit=around%7C1200%3A464\u0026crop=1200%3A464%3B0%2C0","locality":"CBD"},{"name":"Izu Village 伊豆野菜村","vote":"260","reviews":"260","address":"630 George Street, CBDCBD","city":"Sydney","latitude":-33.8763381546,"longitude":151.2067024782,"price_range":70,"rating":4.3,"cuisine_string":["Japanese","Asian","Hot Pot"],"photo":"https://b.zmtcdn.com/data/pictures/chains/6/17745366/efd70fcf4a59ffad62c6196718c398bb.jpeg?resize=1204%3A803\u0026crop=1200%3A464%3B-2%2C164","locality":"CBD"},{"name":"Via Napoli Pizzeria","vote":"491","reviews":"491","address":"141 Longueville Road, Lane Cove, SydneyLane Cove","city":"Sydney","latitude":-33.8157295414,"longitude":151.1697429791,"price_range":40,"rating":4.2,"cuisine_string":["Italian","Pizza"],"photo":"https://b.zmtcdn.com/data/pictures/chains/7/16568957/47049f23c4ee77fe98c2f12e44a0c885.jpg?resize=1204%3A803\u0026crop=1200%3A464%3B0%2C98","locality":"Lane Cove"},{"name":"The Wedge Espresso","vote":"463","reviews":"463","address":"53-55 Glebe Point Road, Glebe, SydneyGlebe","city":"Sydney","latitude":-33.8829734544,"longitude":151.1913907528,"price_range":20,"rating":4.4,"cuisine_string":["Coffee and Tea","Cafe Food"],"photo":"https://b.zmtcdn.com/data/res_imagery/16564601_RESTAURANT_47d2c07da23b99f9aae6491a3ebd213c.jpg?fit=around%7C1200%3A464\u0026crop=1200%3A464%3B0%2C0","locality":"Glebe"},{"name":"Pablo \u0026 Rusty's","vote":"302","reviews":"302","address":"161 Castlereagh Street, CBD, SydneyCBD","city":"Sydney","latitude":-33.8727246803,"longitude":151.2097642198,"price_range":20,"rating":4.2,"cuisine_string":["Coffee and Tea","Cafe Food","Beverages"],"photo":"https://b.zmtcdn.com/data/pictures/7/16567457/95f4d53bfd4264e941ea322dc485904d.jpg?resize=1204%3A1806\u0026crop=1200%3A464%3B-1%2C509","locality":"CBD"},{"name":"Gojima","vote":"339","reviews":"339","address":"The Star, 80 Pyrmont Street, \tPyrmontPyrmont","city":"Sydney","latitude":-33.8692638858,"longitude":151.1959079281,"price_range":27,"rating":4.5,"cuisine_string":["Japanese","Burger"],"photo":"https://b.zmtcdn.com/data/reviews_photos/76b/d9dff44369f12a77bc0f08629921576b_1519559019.jpg?resize=1204%3A1204\u0026crop=1200%3A464%3B0%2C291","locality":"Pyrmont"},{"name":"Alpha Restaurant","vote":"411","reviews":"411","address":"238 Castlereagh Street, CBD, SydneyCBD","city":"Sydney","latitude":-33.8755211626,"longitude":151.2094343081,"price_range":60,"rating":4.4,"cuisine_string":["Greek","Cafe Food","Coffee and Tea"],"photo":"https://b.zmtcdn.com/data/pictures/5/16567155/b405beb626e9b24eff531727a3d9593a.jpg?resize=1204%3A803\u0026crop=1200%3A464%3B-2%2C100","locality":"CBD"},{"name":"Hakiki Turkish Ice Cream","vote":"341","reviews":"341","address":"Shop 1, 63-71, Enmore Road, Newtown, SydneyNewtown","city":"Sydney","latitude":-33.8984805295,"longitude":151.1757249758,"price_range":15,"rating":4.6,"cuisine_string":["Ice Cream","Turkish","Desserts","Coffee and Tea"],"photo":"https://b.zmtcdn.com/data/res_imagery/17849181_RESTAURANT_921478b57782a49b65fe27db89fd6c9c_c.jpg?fit=around%7C1200%3A464\u0026crop=1200%3A464%3B0%2C0","locality":"Newtown"},{"name":"Social Brew Cafe","vote":"368","reviews":"369","address":"224 Harris Street, \tPyrmontPyrmont","city":"Sydney","latitude":-33.8716340107,"longitude":151.1952182651,"price_range":35,"rating":4.6,"cuisine_string":["Cafe Food","Coffee and Tea"],"photo":"https://b.zmtcdn.com/data/pictures/5/16568015/c6a839fce00c78f7f1f4443fa08d554d.jpg?resize=1204%3A1136\u0026crop=1200%3A464%3B-3%2C537","locality":"Pyrmont"},{"name":"Zaaffran","vote":"362","reviews":"362","address":"Level 2, Harbourside Shopping Centre, 2-10 Darling Drive, Darling Harbour, SydneyDarling HarbourNSW","city":"Sydney","latitude":-33.8724137379,"longitude":151.199137643,"price_range":0,"rating":4.3,"cuisine_string":["Indian"],"photo":"https://b.zmtcdn.com/data/pictures/chains/4/16559394/e6b48008bc23a116680b35d38786d73e.jpg?fit=around%7C1200%3A464\u0026crop=1200%3A464%3B0%2C99","locality":"Darling Harbour"},{"name":"Malay Chinese Takeaway","vote":"412","reviews":"412","address":"Shop 1, 50-58 Hunter Street, CBD, SydneyCBDNSW","city":"Sydney","latitude":-33.865910133,"longitude":151.2094946578,"price_range":17,"rating":4.6,"cuisine_string":["Chinese","Malaysian"],"photo":"https://b.zmtcdn.com/data/res_imagery/16558417_RESTAURANT_7b69f0c42af91de00a3c6159d90f2646_c.jpg?fit=around%7C1200%3A464\u0026crop=1200%3A464%3B0%2C0","locality":"CBD"},{"name":"The Sultan's Table","vote":"571","reviews":"571","address":"179 Enmore Road, Enmore, SydneyEnmore","city":"Sydney","latitude":-33.8989063095,"longitude":151.1722508445,"price_range":25,"rating":4.3,"cuisine_string":["Turkish","Kebab"],"photo":"https://b.zmtcdn.com/data/res_imagery/16559084_RESTAURANT_9d03ff77354cabe93e7a18d725295269.jpg?fit=around%7C1200%3A464\u0026crop=1200%3A464%3B0%2C0","locality":"Enmore"},{"name":"Bentley Restaurant and Bar - Radisson Blu Plaza Hotel","vote":"416","reviews":"416","address":"Radisson Blue Plaza Hotel, 27 O'Connell Street, CBD, SydneyCBDNSW","city":"Sydney","latitude":-33.8656161479,"longitude":151.2088770792,"price_range":85,"rating":4.5,"cuisine_string":["Modern Australian"],"photo":"https://b.zmtcdn.com/data/res_imagery/16557297_RESTAURANT_02cd07d4038f6699da5f5134e0d753bb.JPG?fit=around%7C1200%3A464\u0026crop=1200%3A464%3B0%2C0","locality":"CBD"},{"name":"Aqua Dining","vote":"247","reviews":"247","address":"Corner of Paul Street and Northcliff Street, Milsons Point, SydneyMilsons PointNSW","city":"Sydney","latitude":-33.8490071291,"longitude":151.2112655863,"price_range":110,"rating":4.3,"cuisine_string":["Italian"],"photo":"https://b.zmtcdn.com/data/res_imagery/16557137_RESTAURANT_42af298ac80df028b503dfd571de01e4_c.jpg?fit=around%7C1200%3A464\u0026crop=1200%3A464%3B0%2C0","locality":"Milsons Point"},{"name":"A Tavola","vote":"454","reviews":"454","address":"348 Victoria Street, Darlinghurst, SydneyDarlinghurst","city":"Sydney","latitude":-33.8778549275,"longitude":151.2216675282,"price_range":45,"rating":4.4,"cuisine_string":["Italian"],"photo":"https://b.zmtcdn.com/data/pictures/8/16557068/e14f34e9d2b51f2f523badb2bc569d1a.jpg?resize=1204%3A803\u0026crop=1200%3A464%3B-2%2C229","locality":"Darlinghurst"},{"name":"Hugos Manly","vote":"462","reviews":"462","address":"Shop 1, Manly Wharf, 21 East Esplanade, Manly, SydneyManly","city":"Sydney","latitude":-33.799914897,"longitude":151.2837895006,"price_range":65,"rating":4.5,"cuisine_string":["Modern Australian","Tapas"],"photo":"https://b.zmtcdn.com/data/res_imagery/16562375_RESTAURANT_5d68059c05101f121abae185e518d7fc.jpg?fit=around%7C1200%3A464\u0026crop=1200%3A464%3B0%2C0","locality":"Manly"},{"name":"Lindt Chocolate Café","vote":"419","reviews":"419","address":"1 Harbour Street, Cockle Bay Wharf, Darling Harbour, SydneyDarling HarbourNSW","city":"Sydney","latitude":-33.8721857499,"longitude":151.2022832036,"price_range":20,"rating":4.4,"cuisine_string":["Desserts","Coffee and Tea"],"photo":"https://b.zmtcdn.com/data/res_imagery/16560329_RESTAURANT_e5a939c0eb1c921eebb87daa88e4e6a7_c.jpg?fit=around%7C1200%3A464\u0026crop=1200%3A464%3B0%2C0","locality":"Darling Harbour"},{"name":"Hachibankan-Ramen Kan","vote":"402","reviews":"402","address":"Level 1, 90 Hay Street, Haymarket, SydneyHaymarketNSW","city":"Sydney","latitude":-33.8791656938,"longitude":151.2035344541,"price_range":17,"rating":4.3,"cuisine_string":["Japanese","Ramen"],"photo":"https://b.zmtcdn.com/data/res_imagery/16558811_RESTAURANT_a92ef5786508509fc4dba95a9232047a_c.jpg?fit=around%7C1200%3A464\u0026crop=1200%3A464%3B0%2C0","locality":"Haymarket"},{"name":"Chinese Noodle Restaurant","vote":"387","reviews":"387","address":"13/8 Quay Street, Chinatown, Haymarket, SydneyHaymarket","city":"Sydney","latitude":-33.8809551954,"longitude":151.2037000805,"price_range":20,"rating":4.4,"cuisine_string":["Chinese","Vegetarian","Salad"],"photo":"https://b.zmtcdn.com/data/reviews_photos/446/edb6197dff1b3ba6ee7e1113865eb446_1510162141.jpg?resize=1204%3A903\u0026crop=1200%3A464%3B0%2C126","locality":"Haymarket"},{"name":"Left of Field","vote":"334","reviews":"334","address":"Shop 3, 7 Gauthorpe Street, Rhodes, SydneyRhodes","city":"Sydney","latitude":-33.8279690629,"longitude":151.0837419704,"price_range":27,"rating":4.3,"cuisine_string":["Cafe Food","Coffee and Tea"],"photo":"https://b.zmtcdn.com/data/pictures/8/18260658/260a5b217eae41aa6d94cb5b46e33873.jpg?resize=1204%3A963\u0026crop=1200%3A464%3B-19%2C222","locality":"Rhodes"},{"name":"Fratelli Paradiso","vote":"471","reviews":"471","address":"12-16 Challis Avenue, Potts Point, SydneyPotts PointNSW","city":"Sydney","latitude":-33.8688457527,"longitude":151.2252459303,"price_range":35,"rating":4.3,"cuisine_string":["Italian"],"photo":"https://b.zmtcdn.com/data/reviews_photos/a56/52c2b2586cda97fa98d59d0a8572ca56_1532555673.jpg?resize=1204%3A1605\u0026crop=1200%3A464%3B-1%2C641","locality":"Potts Point"},{"name":"Sushi E","vote":"282","reviews":"282","address":"Establishment, 252 George Street, CBD, SydneyCBDNSW","city":"Sydney","latitude":-33.8640938679,"longitude":151.2076345459,"price_range":40,"rating":4.4,"cuisine_string":["Japanese","Sushi"],"photo":"https://b.zmtcdn.com/data/res_imagery/16559102_RESTAURANT_b3754e2089ff72d717b96f4bbd14eec6_c.jpg?fit=around%7C1200%3A464\u0026crop=1200%3A464%3B0%2C0","locality":"CBD"},{"name":"Emperor's Garden Cake \u0026 Bakery","vote":"417","reviews":"417","address":"75 Dixon Street, Chinatown, Haymarket, SydneyHaymarketNSW","city":"Sydney","latitude":-33.8792247042,"longitude":151.2040591613,"price_range":7,"rating":4.5,"cuisine_string":["Bakery","Asian"],"photo":"https://b.zmtcdn.com/data/pictures/2/16562872/63f25167c75cc99fb9f763fac2532f57.jpg?resize=1204%3A1204\u0026crop=1200%3A464%3B-2%2C134","locality":"Haymarket"},{"name":"Speedo's Cafe","vote":"289","reviews":"290","address":"126 Ramsgate Avenue, North Bondi, SydneyNorth BondiNSW","city":"Sydney","latitude":-33.8905748284,"longitude":151.2828809023,"price_range":20,"rating":4.4,"cuisine_string":["Cafe Food","Coffee and Tea"],"photo":"https://b.zmtcdn.com/data/pictures/9/16559039/9479996cd461abdbdb6bd942fbee68cf.jpg?resize=1204%3A502\u0026crop=1200%3A464%3B-3%2C25","locality":"North Bondi"},{"name":"Mikazuki","vote":"229","reviews":"229","address":"7 Smith Street, Parramatta, SydneyParramatta","city":"Sydney","latitude":-33.8162532289,"longitude":151.0058123991,"price_range":17,"rating":4.5,"cuisine_string":["Ramen","Japanese","Sushi","Poké"],"photo":"https://b.zmtcdn.com/data/reviews_photos/33a/89e9fd859416b8afa8b4f29f210a333a_1525171914.jpg?resize=1204%3A903\u0026crop=1200%3A464%3B0%2C149","locality":"Parramatta"},{"name":"Malacca Straits on Broadway","vote":"354","reviews":"354","address":"Shop 5, The Quadrant, 66 Mountain Street, Ultimo, SydneyUltimo","city":"Sydney","latitude":-33.8840314138,"longitude":151.1970837414,"price_range":20,"rating":4.4,"cuisine_string":["Asian","Malaysian"],"photo":"https://b.zmtcdn.com/data/res_imagery/16561634_RESTAURANT_e59420bd00b33aa7a740b7efdb765b11_c.jpg?fit=around%7C1200%3A464\u0026crop=1200%3A464%3B0%2C0","locality":"Ultimo"},{"name":"The Boathouse Palm Beach","vote":"360","reviews":"360","address":"Governor Phillip Park, Barrenjoey Beach, Palm Beach, SydneyPalm BeachNSW","city":"Sydney","latitude":-33.587425,"longitude":151.3241888889,"price_range":35,"rating":4.3,"cuisine_string":["Seafood","Modern Australian"],"photo":"https://b.zmtcdn.com/data/res_imagery/16562786_RESTAURANT_6c3f6a4e050ea3d6a2829e9491b2f1f2_c.jpg?fit=around%7C1200%3A464\u0026crop=1200%3A464%3B0%2C0","locality":"Palm Beach"},{"name":"Phamish","vote":"526","reviews":"526","address":"248 Palmer Street, Darlinghurst, SydneyDarlinghurst","city":"Sydney","latitude":-33.8781243752,"longitude":151.2167634442,"price_range":37,"rating":4.5,"cuisine_string":["Vietnamese"],"photo":"https://b.zmtcdn.com/data/res_imagery/16558720_CHAIN_fa8bfeda902095078bfc45a5310ad0ed_c.jpg?fit=around%7C1200%3A464\u0026crop=1200%3A464%3B0%2C0","locality":"Darlinghurst"},{"name":"O Bar and Dining","vote":"300","reviews":"300","address":"264 George Street, CBD, SydneyCBDNSW","city":"Sydney","latitude":-33.8649257243,"longitude":151.20768819,"price_range":105,"rating":4.2,"cuisine_string":["Tapas","Modern Australian"],"photo":"https://b.zmtcdn.com/data/res_imagery/16565919_RESTAURANT_4ba990bed540bf4859ed22325b75d1ad.jpg?fit=around%7C1200%3A464\u0026crop=1200%3A464%3B0%2C0","locality":"CBD"},{"name":"Menya Noodle Bar","vote":"445","reviews":"445","address":"Shop 2, 1 Market Street, \tCBDCBD","city":"Sydney","latitude":-33.871677159,"longitude":151.20481655,"price_range":22,"rating":4.4,"cuisine_string":["Japanese","Ramen"],"photo":"https://b.zmtcdn.com/data/res_imagery/16561249_RESTAURANT_5aaf277f0c76a7df5de49f8d2cca7e7a_c.jpg?fit=around%7C1200%3A464\u0026crop=1200%3A464%3B0%2C0","locality":"CBD"},{"name":"Meet Fresh","vote":"383","reviews":"383","address":"13 Goulburn Street, HaymarketHaymarketNSW","city":"Sydney","latitude":-33.8776934811,"longitude":151.2040484324,"price_range":12,"rating":4.2,"cuisine_string":["Desserts"],"photo":"https://b.zmtcdn.com/data/res_imagery/16562795_CHAIN_13b25aa968c3f6f747fcf9437e343135.jpg?fit=around%7C1200%3A464\u0026crop=1200%3A464%3B0%2C0","locality":"Haymarket"},{"name":"Henry Lee's","vote":"269","reviews":"269","address":"16 Eveleigh Street, Redfern, SydneyRedfernNSW","city":"Sydney","latitude":-33.8893057068,"longitude":151.1998715624,"price_range":15,"rating":4.5,"cuisine_string":["Cafe Food","Coffee and Tea"],"photo":"https://b.zmtcdn.com/data/pictures/1/15547151/e03f9e75ee09104e572399c4112b6b9d.jpg?resize=1203%3A902\u0026crop=1200%3A464%3B0%2C350","locality":"Redfern"},{"name":"Tenkomori Ramen House","vote":"324","reviews":"324","address":"Shop 29, Regent Place Arcade, 501 George Street, CBD, SydneyCBD","city":"Sydney","latitude":-33.8751389691,"longitude":151.2065432221,"price_range":17,"rating":4.3,"cuisine_string":["Japanese","Ramen"],"photo":"https://b.zmtcdn.com/data/reviews_photos/a0b/a9765d2086679f54b76e5445663d7a0b_1521176966.jpg?resize=1204%3A903\u0026crop=1200%3A464%3B1%2C74","locality":"CBD"},{"name":"Claire's Kitchen at Le Salon","vote":"343","reviews":"343","address":"35 Oxford Street, Surry Hills, SydneySurry HillsNSW","city":"Sydney","latitude":-33.8777872871,"longitude":151.2131863833,"price_range":60,"rating":4.5,"cuisine_string":["French"],"photo":"https://b.zmtcdn.com/data/res_imagery/16564943_CHAIN_c3d92138f7efe6ae1d157ade3a913182_c.jpg?fit=around%7C1200%3A464\u0026crop=1200%3A464%3B0%2C0","locality":"Surry Hills"},{"name":"Cyren","vote":"334","reviews":"334","address":"2-10 Darling Drive, SydneyNSW","city":"Sydney","latitude":-33.8729084059,"longitude":151.1992348731,"price_range":55,"rating":3.9,"cuisine_string":["Seafood","Modern Australian"],"photo":"https://b.zmtcdn.com/data/res_imagery/16564806_RESTAURANT_d0c6a63c42792f953fd1f71de7fdfe43.jpg?fit=around%7C1200%3A464\u0026crop=1200%3A464%3B0%2C0","locality":"Darling Harbour"},{"name":"Three Blue Ducks","vote":"465","reviews":"465","address":"141 - 143 Macpherson Street, Bronte, SydneyBronteNSW","city":"Sydney","latitude":-33.9069642817,"longitude":151.2644936889,"price_range":40,"rating":4.3,"cuisine_string":["Modern Australian","Cafe Food","Coffee and Tea"],"photo":"https://b.zmtcdn.com/data/res_imagery/16562971_RESTAURANT_76eb82a46eb6f69b28f7f53dabc2052c.jpg?fit=around%7C1200%3A464\u0026crop=1200%3A464%3B0%2C0","locality":"Bronte"},{"name":"Flour and Stone","vote":"299","reviews":"299","address":"53 Riley Street, Woolloomooloo, SydneyWoolloomoolooNSW","city":"Sydney","latitude":-33.8735712063,"longitude":151.215397194,"price_range":17,"rating":4.7,"cuisine_string":["Bakery","Coffee and Tea","Desserts","Cafe Food"],"photo":"https://b.zmtcdn.com/data/pictures/6/16564656/4ded590717ab792f34cff33c9fde11e3.jpg?resize=1204%3A658\u0026crop=1200%3A464%3B4%2C71","locality":"Woolloomooloo"},{"name":"Jang Ta Bal Korean Charcoal BBQ","vote":"301","reviews":"301","address":"48A The Boulevarde, Strathfield, SydneyStrathfield","city":"Sydney","latitude":-33.8742067216,"longitude":151.0941311717,"price_range":45,"rating":4.6,"cuisine_string":["Korean BBQ"],"photo":"https://b.zmtcdn.com/data/reviews_photos/905/1d2516da90459aeae9921bbf98a2d905_1499513880.jpg?resize=1204%3A677\u0026crop=1200%3A464%3B3%2C109","locality":"Strathfield"},{"name":"Excelsior Jones","vote":"346","reviews":"346","address":"139a Queen Street, Ashfield, SydneyAshfieldNSW","city":"Sydney","latitude":-33.9000865159,"longitude":151.1270908266,"price_range":25,"rating":4.3,"cuisine_string":["Cafe Food","Coffee and Tea"],"photo":"https://b.zmtcdn.com/data/reviews_photos/a8b/4883944c992714acfef98a945bcf5a8b_1551993097.jpg?resize=1204%3A1186\u0026crop=1200%3A464%3B-1%2C246","locality":"Ashfield"},{"name":"Wild Pear Cafe","vote":"347","reviews":"347","address":"658 Old Northern Road, Dural, SydneyDuralNSW","city":"Sydney","latitude":-33.6779336904,"longitude":151.0267175362,"price_range":25,"rating":4.3,"cuisine_string":["Cafe Food","Coffee and Tea"],"photo":"https://b.zmtcdn.com/data/res_imagery/16563262_RESTAURANT_dd59fceb2f46a8bbc302824f54965a87_c.jpg?fit=around%7C1200%3A464\u0026crop=1200%3A464%3B0%2C0","locality":"Dural"},{"name":"Flour Drum Newtown","vote":"180","reviews":"180","address":"531 King Street, Newtown, SydneyNewtown","city":"Sydney","latitude":-33.9033713054,"longitude":151.1795890331,"price_range":22,"rating":4.6,"cuisine_string":["Cafe Food","Coffee and Tea","Desserts"],"photo":"https://b.zmtcdn.com/data/pictures/chains/4/17976554/c8eaca7d2552d4c62a8eeb21c4975fb2.jpg?resize=1204%3A903\u0026crop=1200%3A464%3B2%2C339","locality":"Newtown"},{"name":"Baia The Italian","vote":"305","reviews":"305","address":"Shop 114, Cockle Bay Wharf, Darling Harbour, SydneyDarling HarbourNSW","city":"Sydney","latitude":-33.8718458545,"longitude":151.2021055073,"price_range":50,"rating":4.0,"cuisine_string":["Italian"],"photo":"https://b.zmtcdn.com/data/reviews_photos/d4b/87a75c3521f92bb31b670e74e2ff9d4b_1527424909.jpg?resize=1204%3A1204\u0026crop=1200%3A464%3B1%2C627","locality":"Darling Harbour"},{"name":"PappaRich","vote":"298","reviews":"298","address":"Shop 2185A - Zone G, Westfield Parramatta, 159-175 Church Street, Parramatta, SydneyParramattaNSW","city":"Sydney","latitude":-33.8175053305,"longitude":151.0043174028,"price_range":30,"rating":4.2,"cuisine_string":["Malaysian"],"photo":"https://b.zmtcdn.com/data/pictures/chains/9/16566859/06cfca5e6d699676e031da7e86be7930.jpg?resize=1205%3A503\u0026crop=1200%3A464%3B-1%2C5","locality":"Parramatta"},{"name":"Concrete Jungle","vote":"281","reviews":"281","address":"15 Kensington Street, Chippendale, SydneyChippendale","city":"Sydney","latitude":-33.8854038747,"longitude":151.201729998,"price_range":27,"rating":4.4,"cuisine_string":["Cafe Food","Coffee and Tea"],"photo":"https://b.zmtcdn.com/data/pictures/9/18498289/a517c30ac39a39917f73848b72e12d10.jpg?resize=1204%3A793\u0026crop=1200%3A464%3B-7%2C164","locality":"Chippendale"},{"name":"Vinh Phat","vote":"326","reviews":"326","address":"Shop 12/10 Hughes Street, Cabramatta, SydneyCabramatta","city":"Sydney","latitude":-33.8940934805,"longitude":150.9377486631,"price_range":30,"rating":4.5,"cuisine_string":["Chinese","Seafood","Yum Cha"],"photo":"https://b.zmtcdn.com/data/res_imagery/16559456_RESTAURANT_34051c9da77428da65475de93f4f739f_c.jpg?fit=around%7C1200%3A464\u0026crop=1200%3A464%3B0%2C0","locality":"Cabramatta"},{"name":"Kürtosh","vote":"377","reviews":"377","address":"604 Crown Street, \tSurry HillsSurry Hills","city":"Sydney","latitude":-33.8900017778,"longitude":151.2133587152,"price_range":10,"rating":4.4,"cuisine_string":["Desserts","Patisserie","Coffee and Tea"],"photo":"https://b.zmtcdn.com/data/res_imagery/16565752_RESTAURANT_75d04f58781cb7fafe49233b5453c016.jpg?fit=around%7C1200%3A464\u0026crop=1200%3A464%3B0%2C0","locality":"Surry Hills"},{"name":"Pastizzi Cafe","vote":"371","reviews":"371","address":"523 King Street, Newtown, SydneyNewtown","city":"Sydney","latitude":-33.9031957154,"longitude":151.1794482172,"price_range":32,"rating":4.4,"cuisine_string":["European","Italian"],"photo":"https://b.zmtcdn.com/data/reviews_photos/4e7/70292e5e571cadb5ed203510446cd4e7_1492146206.jpg?resize=1204%3A1204\u0026crop=1200%3A464%3B-2%2C291","locality":"Newtown"},{"name":"Sixpenny","vote":"229","reviews":"230","address":"83 Percival Rd, Stanmore, SydneyStanmore","city":"Sydney","latitude":-33.8925519485,"longitude":151.1647349596,"price_range":140,"rating":4.6,"cuisine_string":["Modern Australian"],"photo":"https://b.zmtcdn.com/data/res_imagery/16564814_RESTAURANT_90cb03a81daeca8e86cc65836a082ae6.jpg?fit=around%7C1200%3A464\u0026crop=1200%3A464%3B0%2C0","locality":"Stanmore"},{"name":"The Morrison Bar \u0026 Oyster Room","vote":"391","reviews":"391","address":"225 George Street, The Rocks, SydneyThe RocksNSW","city":"Sydney","latitude":-33.8632937412,"longitude":151.2073599547,"price_range":45,"rating":4.1,"cuisine_string":["Seafood","Modern Australian"],"photo":"https://b.zmtcdn.com/data/pictures/chains/1/16565631/a2bb31dd4fce0a717b80f7094617ac55.jpg?resize=1204%3A803\u0026crop=1200%3A464%3B-8%2C107","locality":"The Rocks"},{"name":"Chaco Bar","vote":"294","reviews":"294","address":"238 Crown Street, Darlinghurst, SydneyDarlinghurst","city":"Sydney","latitude":-33.8782256963,"longitude":151.2155762315,"price_range":25,"rating":4.5,"cuisine_string":["Japanese BBQ","Ramen"],"photo":"https://b.zmtcdn.com/data/res_imagery/16569582_CHAIN_4fd60cf99717740f96df7ad32e19bd93.jpg?fit=around%7C1200%3A464\u0026crop=1200%3A464%3B0%2C0","locality":"Darlinghurst"},{"name":"The Bathers' Pavilion Restaurant","vote":"389","reviews":"389","address":"The Bathers' Pavilion, 4 The Esplande, Balmoral Beach, Mosman, SydneyMosmanNSW","city":"Sydney","latitude":-33.8225124393,"longitude":151.2509907782,"price_range":150,"rating":4.4,"cuisine_string":["Modern Australian","Seafood","French"],"photo":"https://b.zmtcdn.com/data/pictures/chains/6/16557256/ab8f02b34c6c181a6b745bebaa58a5fc.jpg?fit=around%7C1200%3A464\u0026crop=1200%3A464%3B0%2C128","locality":"Mosman"},{"name":"Yang San Park","vote":"290","reviews":"290","address":"21/1 Dixon Street, HaymarketHaymarketNSW","city":"Sydney","latitude":-33.8773622367,"longitude":151.2037436664,"price_range":20,"rating":4.6,"cuisine_string":["Korean BBQ"],"photo":"https://b.zmtcdn.com/data/reviews_photos/d55/602b7b4a59c314ff102a041ea4506d55_1543095762.jpg?resize=1204%3A902\u0026crop=1200%3A464%3B1%2C270","locality":"Haymarket"},{"name":"Catalina","vote":"387","reviews":"387","address":"Lyne Park, Rose Bay, SydneyRose Bay","city":"Sydney","latitude":-33.8709636791,"longitude":151.2626520172,"price_range":85,"rating":4.4,"cuisine_string":["Mediterranean","Modern Australian"],"photo":"https://b.zmtcdn.com/data/reviews_photos/947/29107b5d7957fafc78ad06cb6db1c947_1516825249.jpg?resize=1204%3A803\u0026crop=1200%3A464%3B-5%2C225","locality":"Rose Bay"},{"name":"Rhodes Phoenix","vote":"327","reviews":"327","address":"Level 5, Rhodes Waterside, 1 Rider Boulevard, Rhodes, SydneyRhodes","city":"Sydney","latitude":-33.834635414,"longitude":151.0858461633,"price_range":30,"rating":4.1,"cuisine_string":["Chinese","Yum Cha","Dumplings"],"photo":"https://b.zmtcdn.com/data/res_imagery/16716666_RESTAURANT_71632bb8bf980a42d86d9d9ff0b94cfe.jpg?fit=around%7C1200%3A464\u0026crop=1200%3A464%3B0%2C0","locality":"Rhodes"},{"name":"Bay Vista- Brighton-Le-Sands","vote":"284","reviews":"284","address":"83 The Grand Parade, Brighton-Le-Sands, SydneyBrighton-Le-Sands","city":"Sydney","latitude":-33.961287351,"longitude":151.1559876055,"price_range":20,"rating":4.2,"cuisine_string":["Desserts","Coffee and Tea"],"photo":"https://b.zmtcdn.com/data/res_imagery/16557268_RESTAURANT_bc1572f25619d2d76c228ee9d8c5c99a.jpg?fit=around%7C1200%3A464\u0026crop=1200%3A464%3B0%2C0","locality":"Brighton-Le-Sands"},{"name":"Paper Plane Cafe","vote":"312","reviews":"312","address":"Shop 5, 2 Horwood Place, Parramatta, SydneyParramatta","city":"Sydney","latitude":-33.8136238953,"longitude":151.0053114966,"price_range":22,"rating":4.2,"cuisine_string":["Cafe Food","Coffee and Tea"],"photo":"https://b.zmtcdn.com/data/reviews_photos/43e/5fb1b213c14bf8ddefe1a4b902c9a43e_1507768755.jpg?resize=1204%3A903\u0026crop=1200%3A464%3B2%2C227","locality":"Parramatta"},{"name":"Belles Hot Chicken","vote":"275","reviews":"275","address":"Shop 5, 33 Barangaroo Avenue, Wulugul Walk, Barangaroo, SydneyBarangaroo","city":"Sydney","latitude":-33.8654351906,"longitude":151.2014326081,"price_range":22,"rating":4.3,"cuisine_string":["American","Fried Chicken"],"photo":"https://b.zmtcdn.com/data/res_imagery/18221891_RESTAURANT_9fd14b1ff885916856468dbe266a285a.JPG?fit=around%7C1200%3A464\u0026crop=1200%3A464%3B0%2C0","locality":"Barangaroo"},{"name":"Coogee Pavilion","vote":"328","reviews":"328","address":"169 Dolphin Street, Coogee, SydneyCoogee","city":"Sydney","latitude":-33.9188067854,"longitude":151.2582692877,"price_range":55,"rating":4.2,"cuisine_string":["Mediterranean","Australian","Seafood","Bar Food","Juices","Fish and Chips","Healthy Food"],"photo":"https://b.zmtcdn.com/data/res_imagery/16569273_RESTAURANT_de1f25bfec727f9ecaeb9a0f14e4ed49.jpg?fit=around%7C1200%3A464\u0026crop=1200%3A464%3B0%2C0","locality":"Coogee"},{"name":"Kazbah Balmain","vote":"371","reviews":"371","address":"379 Darling Street, Balmain, SydneyBalmainNSW","city":"Sydney","latitude":-33.8561585299,"longitude":151.1773400009,"price_range":35,"rating":4.3,"cuisine_string":["Middle Eastern","Moroccan"],"photo":"https://b.zmtcdn.com/data/pictures/chains/6/16563866/0a6fa4f858a6d091748442e9a03de9d4.jpeg?fit=around%7C1200%3A464\u0026crop=1200%3A464%3B0%2C158","locality":"Balmain"},{"name":"Pony Lounge \u0026 Dining","vote":"346","reviews":"346","address":"The Rocks Centre, Corner Argyle Street and Kendall Lane, The Rocks, SydneyThe Rocks","city":"Sydney","latitude":-33.8591103546,"longitude":151.2084137276,"price_range":50,"rating":4.4,"cuisine_string":["Modern Australian","Tapas"],"photo":"https://b.zmtcdn.com/data/res_imagery/16558768_CHAIN_8f02d09b40f427bc650170e9ccc6c661.jpg?fit=around%7C1200%3A464\u0026crop=1200%3A464%3B0%2C0","locality":"The Rocks"},{"name":"Wicks Park Cafe","vote":"335","reviews":"335","address":"199 Victoria Road, Marrickville, SydneyMarrickville","city":"Sydney","latitude":-33.9096010381,"longitude":151.162603274,"price_range":22,"rating":4.4,"cuisine_string":["Cafe Food","Coffee and Tea"],"photo":"https://b.zmtcdn.com/data/res_imagery/16564634_RESTAURANT_f6e11c89ae325475ac86475437e7e5dc.jpg?fit=around%7C1200%3A464\u0026crop=1200%3A464%3B0%2C0","locality":"Marrickville"},{"name":"Jonga Jip","vote":"310","reviews":"311","address":"87 Rowe Street, \tEastwoodEastwood","city":"Sydney","latitude":-33.7906316813,"longitude":151.0829084739,"price_range":45,"rating":4.3,"cuisine_string":["Korean","Hot Pot","Korean BBQ"],"photo":"https://b.zmtcdn.com/data/reviews_photos/c59/63ba14a065e8348182fd32eb04384c59_1524607375.jpg?resize=1204%3A1605\u0026crop=1200%3A464%3B-2%2C533","locality":"Eastwood"},{"name":"La Rosa The Strand","vote":"349","reviews":"349","address":"Level 2, The Strand Arcade, Shop 133/193 Pitt Street, CBD, SydneyCBDNSW","city":"Sydney","latitude":-33.8694512378,"longitude":151.2079641223,"price_range":75,"rating":4.3,"cuisine_string":["Italian","Grill"],"photo":"https://b.zmtcdn.com/data/pictures/chains/3/16563993/135733a0c81bc1f27a4f7131e2c20a31.jpg?resize=1204%3A803\u0026crop=1200%3A464%3B0%2C168","locality":"CBD"},{"name":"Se Jong Korean BBQ Buffet","vote":"314","reviews":"314","address":"Shop 1, 8 London Street, Campsie, SydneyCampsieNSW","city":"Sydney","latitude":-33.9099452351,"longitude":151.102395393,"price_range":40,"rating":4.2,"cuisine_string":["Korean BBQ"],"photo":"https://b.zmtcdn.com/data/reviews_photos/b35/b2bdbfc75b4468f812fc4d622a19cb35_1543584938.jpg?resize=1204%3A902\u0026crop=1200%3A464%3B-3%2C415","locality":"Campsie"},{"name":"The Apollo","vote":"356","reviews":"356","address":"44 Macleay Street, Elizabeth Bay, SydneyElizabeth BayNSW","city":"Sydney","latitude":-33.8709274899,"longitude":151.2253820524,"price_range":40,"rating":4.3,"cuisine_string":["Greek","Mediterranean"],"photo":"https://b.zmtcdn.com/data/res_imagery/16564944_RESTAURANT_635de0806482333b62554b1c4fb2a7d8_c.jpg?fit=around%7C1200%3A464\u0026crop=1200%3A464%3B0%2C0","locality":"Elizabeth Bay"},{"name":"Kashiwa Yakiniku","vote":"318","reviews":"318","address":"7 Falcon Street, Crows Nest, SydneyCrows Nest","city":"Sydney","latitude":-33.8278763163,"longitude":151.2013008446,"price_range":30,"rating":4.3,"cuisine_string":["Japanese BBQ"],"photo":"https://b.zmtcdn.com/data/res_imagery/16562237_RESTAURANT_fa8cfce9c1d1a6742b161aa70ca9fab5.jpg?fit=around%7C1200%3A464\u0026crop=1200%3A464%3B0%2C0","locality":"Crows Nest"},{"name":"LAB: The Bakery Cafe Experiment","vote":"181","reviews":"181","address":"4 The Boulevarde, Strathfield, SydneyStrathfield","city":"Sydney","latitude":-33.8727566931,"longitude":151.0944490135,"price_range":10,"rating":4.4,"cuisine_string":["Bakery","Korean","Coffee and Tea"],"photo":"https://b.zmtcdn.com/data/reviews_photos/768/13283863ad7403c1a163c9af42356768_1537687358.jpg?resize=1204%3A1605\u0026crop=1200%3A464%3B-5%2C743","locality":"Strathfield"},{"name":"Pilu at Freshwater","vote":"315","reviews":"315","address":"Moore Road, Freshwater, SydneyFreshwater","city":"Sydney","latitude":-33.7815954748,"longitude":151.2886040658,"price_range":85,"rating":4.2,"cuisine_string":["Italian","Mediterranean"],"photo":"https://b.zmtcdn.com/data/res_imagery/16558735_RESTAURANT_f0678e21592053cbd2683ecbc6e1e603_c.jpg?fit=around%7C1200%3A464\u0026crop=1200%3A464%3B0%2C0","locality":"Freshwater"},{"name":"Dae Jang Kum","vote":"314","reviews":"314","address":"35 Goulburn Street, Haymarket, SydneyHaymarketNSW","city":"Sydney","latitude":-33.8778006481,"longitude":151.205188036,"price_range":40,"rating":4.1,"cuisine_string":["Korean BBQ","Hot Pot","Korean BBQ"],"photo":"https://b.zmtcdn.com/data/pictures/chains/7/16570297/d6b55b075f158c93fe4b7565662fc995.jpg?resize=1204%3A803\u0026crop=1200%3A464%3B1%2C232","locality":"Haymarket"},{"name":"Nick's Seafood Restaurant","vote":"329","reviews":"329","address":"The Promenade, Cockle Bay Wharf, SydneyNSW","city":"Sydney","latitude":-33.8724680207,"longitude":151.2020478398,"price_range":50,"rating":4.0,"cuisine_string":["Seafood","Modern Australian"],"photo":"https://b.zmtcdn.com/data/reviews_photos/7e8/aadf41b7c95666f6c487333e634307e8_1522363877.jpg?resize=1204%3A1033\u0026crop=1200%3A464%3B-1%2C301","locality":"Darling Harbour"},{"name":"Gowings Bar \u0026 Grill","vote":"320","reviews":"320","address":"QT Sydney, Level 1, 49 Market Street, CBD, SydneyCBDNSW","city":"Sydney","latitude":-33.8709160764,"longitude":151.2072533369,"price_range":40,"rating":4.2,"cuisine_string":["European","Steak","Seafood","Poké"],"photo":"https://b.zmtcdn.com/data/res_imagery/16565721_RESTAURANT_d37de4c57e4e3a79a9cc17e578659ed9.jpg?fit=around%7C1200%3A464\u0026crop=1200%3A464%3B0%2C0","locality":"CBD"},{"name":"Altitude Restaurant - Shangri-La Hotel Sydney","vote":"302","reviews":"302","address":"176 Cumberland Street, The Rocks, SydneyThe Rocks","city":"Sydney","latitude":-33.8613073124,"longitude":151.2065314874,"price_range":85,"rating":4.4,"cuisine_string":["European","Modern Australian"],"photo":"https://b.zmtcdn.com/data/pictures/chains/6/16557116/87d0b33a20aa4526f29a99931f068310.jpg?resize=1204%3A803\u0026crop=1200%3A464%3B0%2C99","locality":"The Rocks"},{"name":"Tapavino","vote":"324","reviews":"324","address":"6-8 Bulletin Place, CBD, SydneyCBDNSW","city":"Sydney","latitude":-33.8624883174,"longitude":151.2094557658,"price_range":42,"rating":4.4,"cuisine_string":["Spanish","Tapas"],"photo":"https://b.zmtcdn.com/data/res_imagery/16565870_RESTAURANT_3712e3c1880296bdd6ce81231cffc29c.jpg?fit=around%7C1200%3A464\u0026crop=1200%3A464%3B0%2C0","locality":"CBD"},{"name":"Kingsleys Woolloomooloo","vote":"368","reviews":"368","address":"10/6 Cowper Wharf Roadway, Woolloomooloo, SydneyWoolloomoolooNSW","city":"Sydney","latitude":-33.8679014657,"longitude":151.2207210437,"price_range":75,"rating":4.4,"cuisine_string":["Steak","Modern Australian"],"photo":"https://b.zmtcdn.com/data/pictures/chains/0/16558220/3d11fd9b013017d35a7d24f95684477e.jpg?resize=1204%3A803\u0026crop=1200%3A464%3B-1%2C189","locality":"Woolloomooloo"},{"name":"The Tea Cosy","vote":"284","reviews":"284","address":"33 George Street, The Rocks, SydneyThe Rocks","city":"Sydney","latitude":-33.8574156154,"longitude":151.2084690481,"price_range":15,"rating":4.5,"cuisine_string":["Desserts","Cafe Food","Coffee and Tea"],"photo":"https://b.zmtcdn.com/data/reviews_photos/4cc/ed68447ad59f12785109311a5d9f74cc_1538234249.jpg?resize=1204%3A1052\u0026crop=1200%3A464%3B7%2C408","locality":"The Rocks"},{"name":"Hikaru Japanese Restaurant","vote":"322","reviews":"323","address":"134 King Street, Newtown, SydneyNewtown","city":"Sydney","latitude":-33.8935390999,"longitude":151.18378032,"price_range":20,"rating":4.2,"cuisine_string":["Japanese"],"photo":"https://b.zmtcdn.com/data/reviews_photos/350/b2ba8719edf6a0ce2831d2812a560350_1503873505.jpg?resize=1204%3A1605\u0026crop=1200%3A464%3B-8%2C728","locality":"Newtown"},{"name":"Azuma","vote":"295","reviews":"295","address":"Level 1, Chifley Plaza, 2 Chifley Square, CBD, SydneyCBDNSW","city":"Sydney","latitude":-33.8661214342,"longitude":151.2118664011,"price_range":110,"rating":4.4,"cuisine_string":["Japanese"],"photo":"https://b.zmtcdn.com/data/reviews_photos/b07/d60ba0d078718396f450c01dbda8cb07_1494481237.jpg?resize=1204%3A1204\u0026crop=1200%3A464%3B0%2C358","locality":"CBD"},{"name":"Harvest Buffet At The Star","vote":"275","reviews":"275","address":"80 Pyrmont Street Pyrmont, PyrmontPyrmont","city":"Sydney","latitude":-33.8689172976,"longitude":151.1955421418,"price_range":50,"rating":4.1,"cuisine_string":["Asian","Italian","Seafood","Indian"],"photo":"https://b.zmtcdn.com/data/res_imagery/16559060_RESTAURANT_f4277f8a2df1816b3d1c8bcc6b6a269f.jpg?fit=around%7C1200%3A464\u0026crop=1200%3A464%3B0%2C0","locality":"Pyrmont"},{"name":"Toriciya Japanese","vote":"299","reviews":"299","address":"18 Cammeray Road, Cammeray, SydneyCammerayNSW","city":"Sydney","latitude":-33.8227898606,"longitude":151.2191586569,"price_range":50,"rating":4.4,"cuisine_string":["Japanese","Sushi"],"photo":"https://b.zmtcdn.com/data/res_imagery/16559243_RESTAURANT_e8725eb1d25b663860b1f6b8b9c9546e.jpg?fit=around%7C1200%3A464\u0026crop=1200%3A464%3B0%2C0","locality":"Cammeray"},{"name":"HaNa Ju-Rin Japanese Restaurant","vote":"127","reviews":"127","address":"Shop1, 300 Pacific Highway, Crows Nest, SydneyCrows Nest","city":"Sydney","latitude":-33.8281130567,"longitude":151.2011120841,"price_range":40,"rating":4.1,"cuisine_string":["Japanese"],"photo":"https://b.zmtcdn.com/data/pictures/3/16563563/356a70047dc0bd85df67eb45560b3f63.jpg?resize=1204%3A677\u0026crop=1200%3A464%3B-5%2C89","locality":"Crows Nest"},{"name":"Milk Bar by Cafe Ish","vote":"311","reviews":"311","address":"105 Regent Street, Redfern, SydneyRedfern","city":"Sydney","latitude":-33.8919892087,"longitude":151.2009203062,"price_range":20,"rating":4.2,"cuisine_string":["Cafe Food","Coffee and Tea"],"photo":"https://b.zmtcdn.com/data/pictures/chains/1/16565581/cca2f8c23e016668f140415d8d056ed2.jpg?resize=1204%3A963\u0026crop=1200%3A464%3B2%2C180","locality":"Redfern"},{"name":"China Lane","vote":"222","reviews":"222","address":"2 Angel Place, CBD, SydneyCBDNSW","city":"Sydney","latitude":-33.8671119537,"longitude":151.2077790499,"price_range":35,"rating":4.2,"cuisine_string":["Asian","Chinese","Japanese"],"photo":"https://b.zmtcdn.com/data/res_imagery/16565251_RESTAURANT_85588b124753149d609dccf7b9b4e9d5_c.JPG?fit=around%7C1200%3A464\u0026crop=1200%3A464%3B0%2C0","locality":"CBD"},{"name":"Yellow","vote":"262","reviews":"262","address":"57 Macleay Street, Potts Point, SydneyPotts Point","city":"Sydney","latitude":-33.8687090656,"longitude":151.2254564837,"price_range":70,"rating":4.5,"cuisine_string":["Modern Australian","Vegan","Vegetarian"],"photo":"https://b.zmtcdn.com/data/pictures/chains/0/16567600/701158414e9b05d2bbb058d07ba27757.jpg?resize=1204%3A803\u0026crop=1200%3A464%3B0%2C151","locality":"Potts Point"},{"name":"Cook \u0026 Archie's","vote":"247","reviews":"247","address":"Shop 1a 4/14 Buckingham Street (Corner of Rutland), Surry HillsSurry Hills","city":"Sydney","latitude":-33.8866549631,"longitude":151.2077106535,"price_range":30,"rating":4.3,"cuisine_string":["Modern Australian","Coffee and Tea","Cafe Food"],"photo":"https://b.zmtcdn.com/data/pictures/5/16560405/8f3bb397c2d9e3a7ff8b4efbb31370bb.jpg?resize=1204%3A803\u0026crop=1200%3A464%3B-1%2C159","locality":"Surry Hills"},{"name":"Hukuya","vote":"247","reviews":"247","address":"25 Railway Parade, \tEastwoodEastwood","city":"Sydney","latitude":-33.7902978702,"longitude":151.0828927159,"price_range":30,"rating":4.3,"cuisine_string":["Japanese","Sushi"],"photo":"https://b.zmtcdn.com/data/res_imagery/16560977_RESTAURANT_54ce85c2539851b9985b2f0b306d89c7.jpg?fit=around%7C1200%3A464\u0026crop=1200%3A464%3B0%2C0","locality":"Eastwood"},{"name":"Betty's Burgers and Concrete Co.","vote":"295","reviews":"295","address":"Shop E-04, International Convention Centre, 14 Darling Drive, Darling Harbour, SydneyDarling HarbourNSW","city":"Sydney","latitude":-33.8753666709,"longitude":151.2007989362,"price_range":20,"rating":4.5,"cuisine_string":["Burger","American"],"photo":"https://b.zmtcdn.com/data/pictures/chains/5/17742625/50794803c248b2cac907619d0b4eb137.jpeg?resize=1204%3A1204\u0026crop=1200%3A464%3B0%2C300","locality":"Darling Harbour"},{"name":"The Sparrow's Mill","vote":"260","reviews":"260","address":"Shop 3, 116-120 Liverpool Street, CBD, SydneyCBDNSW","city":"Sydney","latitude":-33.8766407319,"longitude":151.2076623738,"price_range":40,"rating":4.2,"cuisine_string":["Korean","Asian","Hot Pot","Fried Chicken"],"photo":"https://b.zmtcdn.com/data/reviews_photos/7ae/ea25f30163365b1d67ac9d8c3416f7ae_1531475946.jpg?resize=1204%3A1605\u0026crop=1200%3A464%3B0%2C700","locality":"CBD"},{"name":"Lotus Restaurant @ The Galeries","vote":"249","reviews":"249","address":"Level 1, The Galeries, 500 George Street, CBD, SydneyCBD","city":"Sydney","latitude":-33.8725960722,"longitude":151.2079312652,"price_range":35,"rating":4.4,"cuisine_string":["Asian","Chinese","Dumplings"],"photo":"https://b.zmtcdn.com/data/res_imagery/17973096_RESTAURANT_bbd8e66aaab02275660c696fb5e2ed22.jpg?fit=around%7C1200%3A464\u0026crop=1200%3A464%3B0%2C0","locality":"CBD"},{"name":"Sushi Tengoku","vote":"288","reviews":"288","address":"Shop B, 262 Anzac Parade, Kensington, SydneyKensington","city":"Sydney","latitude":-33.9124591943,"longitude":151.2241924927,"price_range":20,"rating":4.2,"cuisine_string":["Japanese","Sushi"],"photo":"https://b.zmtcdn.com/data/reviews_photos/22d/4c8c9369709a4f106cfd181ebb2e222d_1512903779.jpg?resize=1204%3A1605\u0026crop=1200%3A464%3B0%2C558","locality":"Kensington"},{"name":"Albee's Kitchen","vote":"252","reviews":"252","address":"279 Beamish Street, Campsie, SydneyCampsieNSW","city":"Sydney","latitude":-33.9127007086,"longitude":151.104387939,"price_range":25,"rating":4.2,"cuisine_string":["Chinese","Malaysian"],"photo":"https://b.zmtcdn.com/data/res_imagery/16562690_RESTAURANT_0d0f4c9433aedb94ee192a12aae2fe36.jpg?fit=around%7C1200%3A464\u0026crop=1200%3A464%3B0%2C0","locality":"Campsie"},{"name":"Busshari Authentic Japanese Restaurant","vote":"298","reviews":"298","address":"119 Macleay Street, Elizabeth Bay, SydneyElizabeth BayNSW","city":"Sydney","latitude":-33.8726177853,"longitude":151.2247627974,"price_range":25,"rating":4.4,"cuisine_string":["Japanese","Sushi","Teriyaki"],"photo":"https://b.zmtcdn.com/data/pictures/6/16557436/434801d915e9b95e92a9c7ccda30cb29.jpg?resize=1204%3A803\u0026crop=1200%3A464%3B-2%2C163","locality":"Elizabeth Bay"},{"name":"The Copper Mill","vote":"304","reviews":"304","address":"338 Mitchell Road, Alexandria, SydneyAlexandria","city":"Sydney","latitude":-33.9064469937,"longitude":151.1890237033,"price_range":15,"rating":4.5,"cuisine_string":["Sandwich","Cafe Food","Coffee and Tea"],"photo":"https://b.zmtcdn.com/data/reviews_photos/c19/760c25f3ece6411007f5f769f2477c19_1477921011.jpg?resize=1204%3A903\u0026crop=1200%3A464%3B2%2C286","locality":"Alexandria"},{"name":"Frankie's Pizza","vote":"374","reviews":"374","address":"50 Hunter Street, CBD, SydneyCBDNSW","city":"Sydney","latitude":-33.8658795096,"longitude":151.2093887106,"price_range":40,"rating":4.4,"cuisine_string":["Pizza"],"photo":"https://b.zmtcdn.com/data/reviews_photos/b84/fe31712ac58795d6534bfb6ce2550b84_1532293528.jpg?resize=1204%3A1605\u0026crop=1200%3A464%3B0%2C214","locality":"CBD"},{"name":"Hot Star Large Fried Chicken","vote":"393","reviews":"393","address":"96 Liverpool Street, CBD, SydneyCBD","city":"Sydney","latitude":-33.8763618152,"longitude":151.2067319825,"price_range":12,"rating":4.3,"cuisine_string":["Fast Food","Taiwanese","Fried Chicken"],"photo":"https://b.zmtcdn.com/data/res_imagery/16568512_RESTAURANT_2e6dd16d8759071a1e0abed10b9e7286.jpg?fit=around%7C1200%3A464\u0026crop=1200%3A464%3B0%2C0","locality":"CBD"},{"name":"Bangbang Cafe","vote":"293","reviews":"293","address":"113 Reservoir Street, Surry Hills, SydneySurry Hills","city":"Sydney","latitude":-33.8814965756,"longitude":151.2124038488,"price_range":20,"rating":4.4,"cuisine_string":["Cafe Food","Coffee and Tea"],"photo":"https://b.zmtcdn.com/data/res_imagery/16560736_RESTAURANT_0b39c62cbbd43c98aa0b42bf3ca3223b.jpg?fit=around%7C1200%3A464\u0026crop=1200%3A464%3B0%2C0","locality":"Surry Hills"},{"name":"Thanon Khaosan","vote":"272","reviews":"272","address":"413 Pitt Street, Haymarket, SydneyHaymarket","city":"Sydney","latitude":-33.8784227709,"longitude":151.2072027102,"price_range":25,"rating":4.1,"cuisine_string":["Thai"],"photo":"https://b.zmtcdn.com/data/res_imagery/16563131_RESTAURANT_4b7bffd6e16236d34205e21f33364580.jpeg?fit=around%7C1200%3A464\u0026crop=1200%3A464%3B0%2C0","locality":"Haymarket"},{"name":"The Choc Pot","vote":"261","reviews":"261","address":"7/1 Railway Parade, Burwood, SydneyBurwood","city":"Sydney","latitude":-33.8771776857,"longitude":151.1028201878,"price_range":15,"rating":4.3,"cuisine_string":["Desserts"],"photo":"https://b.zmtcdn.com/data/pictures/chains/1/16567681/98756fa5972abd4787c408d1eacfbeb7.jpg?resize=1204%3A803\u0026crop=1200%3A464%3B2%2C140","locality":"Burwood"},{"name":"Cafe Morso","vote":"302","reviews":"302","address":"108/26-32 Pirrama Road, Jones Bay Warf, PyrmontPyrmont","city":"Sydney","latitude":-33.8636122337,"longitude":151.1947465316,"price_range":30,"rating":4.3,"cuisine_string":["Cafe Food","Coffee and Tea"],"photo":"https://b.zmtcdn.com/data/pictures/6/16557466/4d330df518beed6861f4583e9690b618.jpg?resize=1204%3A801\u0026crop=1200%3A464%3B0%2C199","locality":"Pyrmont"},{"name":"The Hub House Diner","vote":"311","reviews":"311","address":"410-412 New Canterbury Road, Dulwich Hill, SydneyDulwich HillNSW","city":"Sydney","latitude":-33.9032591616,"longitude":151.1427680031,"price_range":25,"rating":4.1,"cuisine_string":["American","Burger"],"photo":"https://b.zmtcdn.com/data/pictures/chains/7/16566337/d7fdfe192aa06c7c629a2d2d9feb61e8.jpeg?resize=1204%3A677\u0026crop=1200%3A464%3B0%2C72","locality":"Dulwich Hill"},{"name":"Something for Jess","vote":"229","reviews":"229","address":"Corner of O'Connor Street and Abercrombie Street, Chippendale, SydneyChippendale","city":"Sydney","latitude":-33.8860490433,"longitude":151.1985639855,"price_range":20,"rating":4.4,"cuisine_string":["Sandwich","Vegetarian","Cafe Food","Coffee and Tea"],"photo":"https://b.zmtcdn.com/data/pictures/chains/2/16566692/0dc744bb2059f687c48b8c2663e965c6.jpg?resize=1204%3A719\u0026crop=1200%3A464%3B3%2C124","locality":"Chippendale"},{"name":"Shiki Japanese Restaurant","vote":"227","reviews":"227","address":"Level 1, Clock Tower, The Rocks Centre, 35-75 Harrington Street, The Rocks, SydneyThe Rocks","city":"Sydney","latitude":-33.8593325308,"longitude":151.2078645453,"price_range":60,"rating":4.4,"cuisine_string":["Japanese","Seafood","Hot Pot"],"photo":"https://b.zmtcdn.com/data/pictures/chains/1/16558981/ef42dd50ce9c0f7e55e505c23b6ae5cc.jpg?resize=1204%3A802\u0026crop=1200%3A464%3B1%2C137","locality":"The Rocks"},{"name":"Blackbird Cafe","vote":"288","reviews":"288","address":"Balcony Level 1, Wheat Rd, Cockle Bay Wharf, Darling Harbour, SydneyDarling HarbourNSW","city":"Sydney","latitude":-33.8722044009,"longitude":151.2022446469,"price_range":45,"rating":3.0,"cuisine_string":["Australian","Pub Food"],"photo":"https://b.zmtcdn.com/data/res_imagery/16557347_RESTAURANT_9f26c87583a50accdb098aa10027f500_c.jpg?fit=around%7C1200%3A464\u0026crop=1200%3A464%3B0%2C0","locality":"Darling Harbour"},{"name":"Seoul-Ria","vote":"167","reviews":"168","address":"2/605 George Street, Chinatown, CBD, SydneyCBDNSW","city":"Sydney","latitude":-33.8777316159,"longitude":151.2054404989,"price_range":30,"rating":4.3,"cuisine_string":["Korean BBQ","Hot Pot","Asian","Fried Chicken"],"photo":"https://b.zmtcdn.com/data/reviews_photos/896/5dcd07bd90a7a732e12765d0c5e7b896_1553257951.jpg?resize=1204%3A903\u0026crop=1200%3A464%3B2%2C232","locality":"CBD"},{"name":"Chir Chir","vote":"194","reviews":"194","address":"Shop 11, Level 1, Emerald Square, 27-31 Belmore Street, Burwood, SydneyBurwoodNSW","city":"Sydney","latitude":-33.87868832,"longitude":151.1023229733,"price_range":37,"rating":4.1,"cuisine_string":["Korean","Fried Chicken"],"photo":"https://b.zmtcdn.com/data/res_imagery/18460813_RESTAURANT_956f73ee0da07aa70c1453f53c9de7fb.jpg?fit=around%7C1200%3A464\u0026crop=1200%3A464%3B0%2C0","locality":"Burwood"},{"name":"The Tea Room QVB","vote":"243","reviews":"243","address":"Level 3, North End, QVB, 455 George Street, \tCBDCBD","city":"Sydney","latitude":-33.8712072595,"longitude":151.2069391832,"price_range":50,"rating":4.3,"cuisine_string":["British","Cafe Food","Coffee and Tea"],"photo":"https://b.zmtcdn.com/data/res_imagery/16559159_RESTAURANT_dac683a9dd6ff4861138daec0efcdc9b.jpg?fit=around%7C1200%3A464\u0026crop=1200%3A464%3B0%2C0","locality":"CBD"},{"name":"Musou Yakiniku","vote":"200","reviews":"200","address":"Shop 1, 324 Pitt Street, CBD, SydneyCBDNSW","city":"Sydney","latitude":-33.8758680024,"longitude":151.2081579119,"price_range":40,"rating":4.3,"cuisine_string":["Japanese BBQ","Japanese"],"photo":"https://b.zmtcdn.com/data/pictures/6/17743836/addb2071ea432aef5d659ee55980cc17.jpg?resize=1204%3A803\u0026crop=1200%3A464%3B-6%2C255","locality":"CBD"},{"name":"XS Espresso","vote":"235","reviews":"235","address":"9A 1183-1187, The Horsely Drive, Wetherill Park, SydneyWetherill Park","city":"Sydney","latitude":-33.8500462968,"longitude":150.8985035867,"price_range":22,"rating":3.9,"cuisine_string":["Cafe Food","Coffee and Tea"],"photo":"https://b.zmtcdn.com/data/res_imagery/16566787_CHAIN_0c5e05af6f4a388bc72f8de8114a35bf_c.JPG?fit=around%7C1200%3A464\u0026crop=1200%3A464%3B0%2C0","locality":"Wetherill Park"},{"name":"Stitch","vote":"375","reviews":"375","address":"61 York Street, \tCBDCBD","city":"Sydney","latitude":-33.8674443514,"longitude":151.2057536468,"price_range":37,"rating":4.3,"cuisine_string":["Bar Food","Poké"],"photo":"https://b.zmtcdn.com/data/reviews_photos/836/54d049aa28157bd9f0232c55b69bb836_1472199248.jpg?resize=1204%3A803\u0026crop=1200%3A464%3B-3%2C205","locality":"CBD"},{"name":"Cooh","vote":"249","reviews":"249","address":"90-96 Bourke Road, Alexandria, SydneyAlexandria","city":"Sydney","latitude":-33.9110315194,"longitude":151.1963699386,"price_range":27,"rating":4.4,"cuisine_string":["Healthy Food","Salad","Cafe Food","Salad","Coffee and Tea"],"photo":"https://b.zmtcdn.com/data/res_imagery/15545332_RESTAURANT_a4b9f54c987d11947bf492beca55f275.jpg?fit=around%7C1200%3A464\u0026crop=1200%3A464%3B0%2C0","locality":"Alexandria"},{"name":"The Mandoo","vote":"210","reviews":"210","address":"12A The Boulevarde, Strathfield, SydneyStrathfield","city":"Sydney","latitude":-33.8729100761,"longitude":151.0943983868,"price_range":22,"rating":4.3,"cuisine_string":["Korean","Dumplings"],"photo":"https://b.zmtcdn.com/data/res_imagery/16568091_RESTAURANT_20ffdaeb7749e123922fe75e7acd70fb_c.jpg?fit=around%7C1200%3A464\u0026crop=1200%3A464%3B0%2C0","locality":"Strathfield"},{"name":"The Rice Den","vote":"281","reviews":"281","address":"30-32 Chandos Street, St Leonards, SydneySt Leonards","city":"Sydney","latitude":-33.8219548085,"longitude":151.1963293701,"price_range":40,"rating":4.4,"cuisine_string":["Cantonese","Chinese"],"photo":"https://b.zmtcdn.com/data/res_imagery/15544558_RESTAURANT_ce9a22c09375cadaf784ca21d84c0e24.jpg?fit=around%7C1200%3A464\u0026crop=1200%3A464%3B0%2C0","locality":"St Leonards"},{"name":"Burnt Orange","vote":"282","reviews":"282","address":"1108/1109 Middle Head Road, Mosman, SydneyMosmanNSW","city":"Sydney","latitude":-33.828449784,"longitude":151.260144487,"price_range":40,"rating":4.2,"cuisine_string":["Modern Australian","Vegetarian"],"photo":"https://b.zmtcdn.com/data/pictures/chains/1/16562151/42d63643d14356a210a56521e1420319.jpg?resize=1204%3A1806\u0026crop=1200%3A464%3B0%2C601","locality":"Mosman"},{"name":"Manta Restaurant and Bar","vote":"213","reviews":"213","address":"Shop 7, 6 Cowper Wharf Road, Woolloomooloo, SydneyWoolloomoolooNSW","city":"Sydney","latitude":-33.8683382554,"longitude":151.2204296887,"price_range":100,"rating":4.4,"cuisine_string":["Modern Australian","Seafood","Grill","Australian","Steak"],"photo":"https://b.zmtcdn.com/data/res_imagery/16558437_RESTAURANT_b8d7d86aa476585c09575af04607a2ee.jpg?fit=around%7C1200%3A464\u0026crop=1200%3A464%3B0%2C0","locality":"Woolloomooloo"}]