[{"name":"Stay Grounded","vote":"20","reviews":"20","address":"1093 Pittwater Road, Collaroy, SydneyCollaroyNSW","city":"Sydney","latitude":-33.7331836598,"longitude":151.3014444709,"price_range":20.0,"rating":3.8,"cuisine_string":["Vegetarian","Cafe Food","Coffee and Tea"],"photo":"https://b.zmtcdn.com/data/reviews_photos/b2a/783c7a3b350794affd9de03f644efb2a_1489497676.jpg?fit=around%7C1200%3A464\u0026crop=1200%3A464%3B%2A%2C%2A","locality":"Collaroy"},{"name":"Eunhasu Korean Restaurant","vote":"20","reviews":"20","address":"33 Everton Road, Strathfield, SydneyStrathfield","city":"Sydney","latitude":-33.8715532817,"longitude":151.0949837789,"price_range":32.5,"rating":3.6,"cuisine_string":["Korean"],"photo":"https://b.zmtcdn.com/data/pictures/chains/1/16569801/09003e48de00734e0472b15134da6e08.jpg?resize=1204%3A802\u0026crop=1200%3A464%3B-1%2C161","locality":"Strathfield"},{"name":"JD's Cafe x Burgers","vote":"13","reviews":"13","address":"216 Crown Street, Darlinghurst, SydneyDarlinghurst","city":"Sydney","latitude":-33.8776642537,"longitude":151.2157488987,"price_range":25.0,"rating":3.8,"cuisine_string":["Burger"],"photo":"https://b.zmtcdn.com/data/pictures/chains/6/18935966/82e287d22a7ed230e0ed0af52df61eeb.jpg?resize=1204%3A903\u0026crop=1200%3A464%3B-3%2C226","locality":"Darlinghurst"},{"name":"Rainbow Cakes","vote":"12","reviews":"12","address":"2 Churchill Avenue, Strathfield, SydneyStrathfield","city":"Sydney","latitude":-33.8727038024,"longitude":151.0940044373,"price_range":10.0,"rating":3.7,"cuisine_string":["Cafe Food","Coffee and Tea"],"photo":"","locality":"Strathfield"},{"name":"Ayam Bakar 7 Saudara","vote":"12","reviews":"12","address":"34 Penshurst StreetPenshurst","city":"Sydney","latitude":-33.9649429531,"longitude":151.0883536935,"price_range":12.5,"rating":3.7,"cuisine_string":["Indonesian"],"photo":"","locality":"Penshurst"},{"name":"Frothy","vote":"8","reviews":"8","address":"441 Elizabeth Street, Surry Hills, SydneySurry HillsNSW","city":"Sydney","latitude":-33.8862088039,"longitude":151.2081176788,"price_range":15.0,"rating":3.6,"cuisine_string":["Cafe Food","Coffee and Tea"],"photo":"https://b.zmtcdn.com/data/reviews_photos/cc8/8c0746c8d9819322b8fd3e763f9fecc8_1509241523.jpg?fit=around%7C1200%3A464\u0026crop=1200%3A464%3B%2A%2C%2A","locality":"Surry Hills"},{"name":"The Thai Mascot","vote":"21","reviews":"21","address":"1181 Botany Road, \tMascotMascot","city":"Sydney","latitude":-33.9310231899,"longitude":151.1946503073,"price_range":25.0,"rating":3.9,"cuisine_string":["Thai"],"photo":"https://b.zmtcdn.com/data/reviews_photos/1c1/c8066c43ae6d87cfee6c74354e6bd1c1_1481015551.jpg?fit=around%7C1200%3A464\u0026crop=1200%3A464%3B%2A%2C%2A","locality":"Mascot"},{"name":"Penny Lane","vote":"15","reviews":"15","address":"639 Darling Street, Rozelle, SydneyRozelle","city":"Sydney","latitude":-33.8621233268,"longitude":151.1713046953,"price_range":40.0,"rating":3.8,"cuisine_string":["Cafe Food","Coffee and Tea"],"photo":"https://b.zmtcdn.com/data/res_imagery/16568788_RESTAURANT_b259f3e9ad87b7181af4d120464a400f_c.jpg?fit=around%7C1200%3A464\u0026crop=1200%3A464%3B0%2C0","locality":"Rozelle"},{"name":"Urban Piccolo","vote":"20","reviews":"20","address":"Shop 13, 137-141 Regent Street, Redfern, SydneyRedfern","city":"Sydney","latitude":-33.8938928241,"longitude":151.200321503,"price_range":25.0,"rating":3.8,"cuisine_string":["Cafe Food","Coffee and Tea"],"photo":"https://b.zmtcdn.com/data/pictures/7/15544267/39b9a1934c6c43bbe3330aa3c96a6d61.jpg?resize=1204%3A677\u0026crop=1200%3A464%3B2%2C41","locality":"Redfern"},{"name":"Swagath Biryani House","vote":"21","reviews":"21","address":"46 Station Street, Wentworthville, SydneyWentworthville","city":"Sydney","latitude":-33.8085630571,"longitude":150.9716269746,"price_range":30.0,"rating":2.9,"cuisine_string":["Indian"],"photo":"","locality":"Wentworthville"},{"name":"Vertical Espresso","vote":"16","reviews":"16","address":"217A Kissing Point Road, Turramurra, SydneyNSW","city":"Sydney","latitude":-33.7488257983,"longitude":151.1120158061,"price_range":15.0,"rating":3.7,"cuisine_string":["Vegetarian","Cafe Food","Coffee and Tea"],"photo":"https://b.zmtcdn.com/data/res_imagery/15544968_RESTAURANT_eda71f92bb4be2f693879dccaf8fd901_c.jpg?fit=around%7C1200%3A464\u0026crop=1200%3A464%3B0%2C0","locality":"South Turramurra"},{"name":"Koi Bento","vote":"12","reviews":"12","address":"123 Norton Street, Leichhardt, SydneyLeichhardtNSW","city":"Sydney","latitude":-33.8824562992,"longitude":151.1570091918,"price_range":25.0,"rating":3.0,"cuisine_string":["Japanese"],"photo":"https://b.zmtcdn.com/data/res_imagery/16568443_CHAIN_b09e80ba6cb6a1a44ab6dba525c587c2_c.jpg?fit=around%7C1200%3A464\u0026crop=1200%3A464%3B0%2C0","locality":"Leichhardt"},{"name":"Cesare's No Name","vote":"22","reviews":"22","address":"198-200 Norton Street, Leichhardt, SydneyLeichhardtNSW","city":"Sydney","latitude":-33.8802448549,"longitude":151.1564975604,"price_range":37.5,"rating":2.8,"cuisine_string":["Italian"],"photo":"https://b.zmtcdn.com/data/res_imagery/16565792_RESTAURANT_1d44bfe3a287e4b32989056cef643949.jpg?fit=around%7C1200%3A464\u0026crop=1200%3A464%3B0%2C0","locality":"Leichhardt"},{"name":"Baked Patisserie","vote":"24","reviews":"24","address":"1/10-14 Marshall Road, Kirrawee, SydneyKirrawee","city":"Sydney","latitude":-34.023254,"longitude":151.081975,"price_range":12.5,"rating":3.8,"cuisine_string":["Desserts","Cafe Food","Coffee and Tea"],"photo":"https://b.zmtcdn.com/data/pictures/5/16565825/32ee499794eced9fc4e7896cda0e0d7b.jpg?resize=1204%3A1204\u0026crop=1200%3A464%3B0%2C56","locality":"Kirrawee"},{"name":"Cooked On King","vote":"12","reviews":"12","address":"186 King Street, NewtownNewtown","city":"Sydney","latitude":-33.8945128814,"longitude":151.1825622618,"price_range":17.5,"rating":3.8,"cuisine_string":["Lebanese"],"photo":"https://b.zmtcdn.com/data/reviews_photos/2e4/b75df4b6156d67ed762ef405cef402e4_1532594457.jpg?resize=1267%3A1901\u0026crop=1200%3A464%3B25%2C1226","locality":"Newtown"},{"name":"Alpha Gourmet Cafe","vote":"17","reviews":"17","address":"38 Pitt Street, CBD, SydneyCBDNSW","city":"Sydney","latitude":-33.8628908911,"longitude":151.2092602998,"price_range":15.0,"rating":3.7,"cuisine_string":["Cafe Food","Coffee and Tea"],"photo":"https://b.zmtcdn.com/data/reviews_photos/fa5/a17dedb30781c74e7446d6647512efa5.jpg?resize=1204%3A1605\u0026crop=1200%3A464%3B3%2C470","locality":"CBD"},{"name":"350 Restaurant \u0026 Lounge","vote":"5","reviews":"5","address":"Novotel Parramatta, 350 Church Street, Parramatta, SydneyParramattaNSW","city":"Sydney","latitude":-33.8102214359,"longitude":151.0052890331,"price_range":35.0,"rating":3.7,"cuisine_string":["Pizza","Steak"],"photo":"https://b.zmtcdn.com/data/reviews_photos/bde/0b1e00d0301281959002b188f8c64bde_1494632535.jpg?fit=around%7C1200%3A464\u0026crop=1200%3A464%3B%2A%2C%2A","locality":"Parramatta"},{"name":"Pink Diamond Restaurant","vote":"27","reviews":"27","address":"4 Blaxland Road, Campbelltown, SydneyCampbelltown","city":"Sydney","latitude":-34.0539241628,"longitude":150.8225125819,"price_range":25.0,"rating":3.6,"cuisine_string":["Chinese"],"photo":"","locality":"Campbelltown"},{"name":"Maddies Cafe","vote":"24","reviews":"24","address":"Shop 423, Level 2, Westfield Hurstville, Park Road And Cross Street, \tHurstville, Hurstville, SydneyHurstville","city":"Sydney","latitude":-33.9668866484,"longitude":151.1042937264,"price_range":30.0,"rating":2.9,"cuisine_string":["Cafe Food","Coffee and Tea"],"photo":"https://b.zmtcdn.com/data/pictures/0/16566630/b4efcd9e3e7dd3136ccead397c6f7175.jpg?fit=around%7C1200%3A464\u0026crop=1200%3A464%3B%2A%2C%2A","locality":"Hurstville"},{"name":"Profiterole Patisserie","vote":"8","reviews":"8","address":"289 Liverpool Road, Strathfield, SydneyStrathfieldNSW","city":"Sydney","latitude":-33.8860966376,"longitude":151.0929996148,"price_range":20.0,"rating":3.7,"cuisine_string":["Desserts","Coffee and Tea"],"photo":"https://b.zmtcdn.com/data/pictures/0/17744110/2470c45001bf3325e95358d2c35a4d8c.png?resize=1204%3A1057\u0026crop=1200%3A464%3B0%2C226","locality":"Strathfield"},{"name":"Khalsa Foods","vote":"15","reviews":"15","address":"105 Best Road, Seven Hills, SydneySeven HillsNSW","city":"Sydney","latitude":-33.775669649,"longitude":150.9358868748,"price_range":27.5,"rating":2.7,"cuisine_string":["Indian","Vegetarian"],"photo":"https://b.zmtcdn.com/data/res_imagery/16567858_RESTAURANT_66fecca35ae65d6e74b84cf5c5c254b1.jpg?fit=around%7C1200%3A464\u0026crop=1200%3A464%3B0%2C0","locality":"Seven Hills"},{"name":"Phuong Nam Noodle house","vote":"20","reviews":"20","address":"4/219 Canley Vale Road, Canley Heights, SydneyCanley Heights","city":"Sydney","latitude":-33.8839145129,"longitude":150.9267123789,"price_range":20.0,"rating":4.0,"cuisine_string":["Vietnamese"],"photo":"https://b.zmtcdn.com/data/pictures/8/17742308/5231af2977e24253275b0c91120c1fdd.jpg?resize=1204%3A803\u0026crop=1200%3A464%3B-1%2C167","locality":"Canley Heights"},{"name":"Green Mango","vote":"23","reviews":"23","address":"220 Clovelly road, Clovelly, SydneyNSW","city":"Sydney","latitude":-33.9116428265,"longitude":151.2540702894,"price_range":15.0,"rating":3.7,"cuisine_string":["Coffee and Tea","Cafe Food"],"photo":"https://b.zmtcdn.com/data/reviews_photos/401/6bdb86d8bba218849c7cdd183983e401_1478222911.jpg?resize=1204%3A903\u0026crop=1200%3A464%3B16%2C83","locality":"Randwick"},{"name":"Mr. Fat Duck Peking Restaurant","vote":"12","reviews":"12","address":"172 Victoria Avenue, Chatswood, SydneyChatswood","city":"Sydney","latitude":-33.7937833174,"longitude":151.1918541044,"price_range":0,"rating":2.8,"cuisine_string":["Chinese"],"photo":"https://b.zmtcdn.com/data/reviews_photos/5d2/eeace824f91860bf5c6a656d92f3f5d2_1530540388.jpg?resize=1204%3A1204\u0026crop=1200%3A464%3B-2%2C283","locality":"Chatswood"},{"name":"Quattro Woodfire Pizza Bar","vote":"25","reviews":"25","address":"222 Princes Highway, Sylvania, SydneySylvaniaNSW","city":"Sydney","latitude":-34.0116466334,"longitude":151.0946176574,"price_range":40.0,"rating":3.5,"cuisine_string":["Italian","Pizza"],"photo":"https://b.zmtcdn.com/data/res_imagery/16563314_RESTAURANT_4f05fa9cd7039f3aa82a0f2fa239fed9.jpg?fit=around%7C1200%3A464\u0026crop=1200%3A464%3B0%2C0","locality":"Sylvania"},{"name":"Koffie Cafe et Patisserie","vote":"13","reviews":"13","address":"Food Court, 2nd Floor, Central Park, 28 Broadway, Chippendale, SydneyChippendale","city":"Sydney","latitude":-33.8847278062,"longitude":151.2005136162,"price_range":15.0,"rating":3.0,"cuisine_string":["Desserts","Cafe Food","Coffee and Tea"],"photo":"https://b.zmtcdn.com/data/reviews_photos/2f1/2fd7a2d46f6a06c34d10bdc8e662a2f1_1442840101.jpg?fit=around%7C1200%3A464\u0026crop=1200%3A464%3B%2A%2C%2A","locality":"Chippendale"},{"name":"Zaitoune Mezza \u0026 Grill","vote":"20","reviews":"20","address":"Shop 2, 225 Morrison Road, Putney, SydneyPutneyNSW","city":"Sydney","latitude":-33.8228266272,"longitude":151.1080501601,"price_range":40.0,"rating":3.9,"cuisine_string":["Lebanese","Desserts"],"photo":"https://b.zmtcdn.com/data/pictures/chains/2/18279812/8de2668d87605c95093ebe034a8cc7be.jpg?resize=1204%3A1204\u0026crop=1200%3A464%3B-2%2C356","locality":"Putney"},{"name":"Grill @ Gordon","vote":"12","reviews":"12","address":"770 Pacific Highway, Gordon, SydneyGordonNSW","city":"Sydney","latitude":-33.7561110137,"longitude":151.1527759954,"price_range":47.5,"rating":3.5,"cuisine_string":["Steak","Pub Food"],"photo":"https://b.zmtcdn.com/data/res_imagery/16569661_RESTAURANT_c1ae3f5ef558346a41c709e961d9ff0f_c.jpg?fit=around%7C1200%3A464\u0026crop=1200%3A464%3B0%2C0","locality":"Gordon"},{"name":"Mazza","vote":"19","reviews":"19","address":"99 Walker Street, North SydneyNorth Sydney","city":"Sydney","latitude":-33.8397423295,"longitude":151.2088767439,"price_range":20.0,"rating":3.8,"cuisine_string":["Greek","Cafe Food","Coffee and Tea"],"photo":"https://b.zmtcdn.com/data/pictures/8/18274218/09382b11c1c9625f621302992a558fe3.jpg?resize=1203%3A802\u0026crop=1200%3A464%3B0%2C98","locality":"North Sydney"},{"name":"GU Thai Studio Kitchen","vote":"23","reviews":"23","address":"5/110 Spring Street, Bondi Junction, SydneyBondi JunctionNSW","city":"Sydney","latitude":-33.8927910144,"longitude":151.2490351126,"price_range":22.5,"rating":3.7,"cuisine_string":["Thai"],"photo":"https://b.zmtcdn.com/data/res_imagery/16714591_RESTAURANT_fdf2c7d6bdcb2c88c50ead2e567c8597.jpg?fit=around%7C1200%3A464\u0026crop=1200%3A464%3B0%2C0","locality":"Bondi Junction"},{"name":"Taste of Belgium","vote":"20","reviews":"20","address":"Shop 1, 549 Sydney Road, Seaforth, SydneySeaforthNSW","city":"Sydney","latitude":-33.7972229294,"longitude":151.2514782697,"price_range":20.0,"rating":3.9,"cuisine_string":["European","Coffee and Tea","Cafe Food","Burger"],"photo":"https://b.zmtcdn.com/data/res_imagery/16564528_RESTAURANT_fdfd0959100fb792fe9d9771209c50bd_c.jpg?fit=around%7C1200%3A464\u0026crop=1200%3A464%3B0%2C0","locality":"Seaforth"},{"name":"DunKirk Pyrmont","vote":"18","reviews":"18","address":"205 Harris Street, \tPyrmontPyrmont","city":"Sydney","latitude":-33.8714082476,"longitude":151.194751896,"price_range":35.0,"rating":3.7,"cuisine_string":["Pub Food","Cafe Food","Coffee and Tea"],"photo":"https://b.zmtcdn.com/data/res_imagery/16716145_RESTAURANT_88e0b9c7a289606b555a0f56fe97d23c.jpg?fit=around%7C1200%3A464\u0026crop=1200%3A464%3B0%2C0","locality":"Pyrmont"},{"name":"Paddock \u0026 Vine","vote":"","reviews":"3","address":"Shop 8/5, Bungan Street, Mona Vale, SydneyMona ValeNSW","city":"Sydney","latitude":-33.6756742703,"longitude":151.3031899184,"price_range":20.0,"rating":0.0,"cuisine_string":["Tapas"],"photo":"https://b.zmtcdn.com/data/res_imagery/17743312_RESTAURANT_a8d1f289ecd81f1c7f537d1ab5ae033b.jpg?fit=around%7C1200%3A464\u0026crop=1200%3A464%3B0%2C0","locality":"Mona Vale"},{"name":"Town Hall Hotel","vote":"18","reviews":"18","address":"326 King Street, Newtown, SydneyNewtown","city":"Sydney","latitude":-33.8980480684,"longitude":151.178689152,"price_range":37.5,"rating":3.6,"cuisine_string":["Pub Food","Burger"],"photo":"https://b.zmtcdn.com/data/pictures/0/16714460/5d93ad654b424223afd33a5b1b0d2e2e.jpg?resize=1204%3A804\u0026crop=1200%3A464%3B0%2C100","locality":"Newtown"},{"name":"Boon Table","vote":"10","reviews":"10","address":"Shop 9, Lower Ground Floor, The Galeries, 500 George Street, CBD, SydneyCBD","city":"Sydney","latitude":-33.8728076352,"longitude":151.2077455223,"price_range":20.0,"rating":2.9,"cuisine_string":["Cafe Food","Coffee and Tea"],"photo":"https://b.zmtcdn.com/data/pictures/6/18944756/25588578fe26dc4e00d677c9b61f2a9a.jpg?resize=1204%3A570\u0026crop=1200%3A464%3B-1%2C104","locality":"CBD"},{"name":"Balkan Oven Burek Bakery Cafe","vote":"26","reviews":"26","address":"Shop 2, 1-3 King Street, Rockdale, SydneyRockdaleNSW","city":"Sydney","latitude":-33.9524571976,"longitude":151.1383906379,"price_range":10.0,"rating":4.0,"cuisine_string":["Bakery","Eastern European","Cafe Food","Coffee and Tea"],"photo":"","locality":"Rockdale"},{"name":"The Alchemist Espresso","vote":"15","reviews":"15","address":"8 Carter Street, Cammeray, SydneyCammerayNSW","city":"Sydney","latitude":-33.8217158227,"longitude":151.2152724713,"price_range":15.0,"rating":3.7,"cuisine_string":["Cafe Food","Coffee and Tea"],"photo":"https://b.zmtcdn.com/data/pictures/chains/8/15547968/4c6784e6d0d3ec379ea1184ff379b4bd.jpg?fit=around%7C1200%3A464\u0026crop=1200%3A464%3B%2A%2C%2A","locality":"Cammeray"},{"name":"The Church Glenbrook","vote":"14","reviews":"14","address":"20 Ross Street, Glenbrook, SydneyGlenbrookNSW","city":"Sydney","latitude":-33.7679128414,"longitude":150.6218665838,"price_range":20.5,"rating":3.0,"cuisine_string":["Cafe Food","Coffee and Tea"],"photo":"https://b.zmtcdn.com/data/res_imagery/16570316_RESTAURANT_9bc128cdcf7ae61ab8937a3da9445d12.jpg?fit=around%7C1200%3A464\u0026crop=1200%3A464%3B0%2C0","locality":"Glenbrook"},{"name":"Lane 198","vote":"12","reviews":"12","address":"198 Victoria Road, Gladesville, SydneyGladesville","city":"Sydney","latitude":-33.8314585459,"longitude":151.1266811192,"price_range":30.0,"rating":3.5,"cuisine_string":["Asian Fusion"],"photo":"","locality":"Gladesville"},{"name":"Chong Co Thai","vote":"21","reviews":"21","address":"2 Sentry Drive, Stanhope Gardens, Sydney, Quakers Hill, SydneyStanhope GardensNSW","city":"Sydney","latitude":-33.719132,"longitude":150.919644,"price_range":0,"rating":2.8,"cuisine_string":["Thai"],"photo":"","locality":"Stanhope Gardens"},{"name":"Bowan Island Bakery","vote":"11","reviews":"11","address":"2 Defries Avenue, Zetland, SydneyZetlandNSW","city":"Sydney","latitude":null,"longitude":null,"price_range":12.5,"rating":2.7,"cuisine_string":["Cafe Food","Coffee and Tea"],"photo":"https://b.zmtcdn.com/data/res_imagery/16560938_CHAIN_3a9f1083706993e0c637f3596f911214_c.jpg?fit=around%7C1200%3A464\u0026crop=1200%3A464%3B0%2C0","locality":"Zetland"},{"name":"Lavie \u0026 Belle Bakery","vote":"14","reviews":"14","address":"100 Fitzroy Street, Surry Hills, SydneySurry Hills","city":"Sydney","latitude":-33.8856362807,"longitude":151.2169850618,"price_range":15.0,"rating":4.1,"cuisine_string":["Bakery","Desserts","French","Patisserie","Vegetarian"],"photo":"https://b.zmtcdn.com/data/reviews_photos/d5d/55326cafc2527d203f92bf25dfe68d5d_1524567853.jpg?resize=1204%3A801\u0026crop=1200%3A464%3B-1%2C15","locality":"Surry Hills"},{"name":"Kabul International Restaurant","vote":"21","reviews":"21","address":"20 Civic Road, Auburn, SydneyAuburnNSW","city":"Sydney","latitude":-33.8511447601,"longitude":151.0334686562,"price_range":20.0,"rating":3.5,"cuisine_string":["Indian","Pakistani","Afghan"],"photo":"https://b.zmtcdn.com/data/reviews_photos/e8c/6754e9d6274eb89ffa2c38d593fbee8c_1521600998.jpg?resize=1204%3A1605\u0026crop=1200%3A464%3B-1%2C472","locality":"Auburn"},{"name":"Charing Cross Pizza Restaurant","vote":"27","reviews":"27","address":"268 Bronte Road, Waverley, SydneyWaverleyNSW","city":"Sydney","latitude":-33.9008935329,"longitude":151.254035756,"price_range":25.0,"rating":3.6,"cuisine_string":["Italian","Pizza"],"photo":"https://b.zmtcdn.com/data/res_imagery/16561127_CHAIN_8cc9089fb7af339f4e05301c6fbf7925_c.jpg?fit=around%7C1200%3A464\u0026crop=1200%3A464%3B0%2C0","locality":"Waverley"},{"name":"Chilli Club","vote":"21","reviews":"21","address":"1355 Pittwater Road, Narrabeen, SydneyNarrabeen","city":"Sydney","latitude":-33.7126082541,"longitude":151.297464408,"price_range":22.5,"rating":3.7,"cuisine_string":["Thai","Vegetarian"],"photo":"https://b.zmtcdn.com/data/reviews_photos/d75/8f1ed0e633b5ac3afbf65db6689efd75_1497792853.jpg?resize=1204%3A1605\u0026crop=1200%3A464%3B0%2C500","locality":"Narrabeen"},{"name":"Café \u0026 Cucina","vote":"18","reviews":"18","address":"24 Cooper Street, Surry Hills, SydneySurry Hills","city":"Sydney","latitude":-33.8854125029,"longitude":151.2090430409,"price_range":15.0,"rating":3.8,"cuisine_string":["Italian","Cafe Food","Coffee and Tea"],"photo":"https://b.zmtcdn.com/data/pictures/8/15544978/23462cb2af5ff3b8d6ac872f28deb1e2.jpg?fit=around%7C1200%3A464\u0026crop=1200%3A464%3B%2A%2C%2A","locality":"Surry Hills"},{"name":"Shepherd's Artisan Bakehouse","vote":"17","reviews":"17","address":"Level G, Westfield Eastgardens, 152 Bunnerong Road, Eastgardens, SydneyEastgardens","city":"Sydney","latitude":-33.944759266,"longitude":151.2235209346,"price_range":10.0,"rating":3.5,"cuisine_string":["Bakery","Cafe Food","Coffee and Tea"],"photo":"https://b.zmtcdn.com/data/res_imagery/15544649_RESTAURANT_bf32c7dd2ac0ccd0c5884056b70fdb7b_c.jpg?fit=around%7C1200%3A464\u0026crop=1200%3A464%3B0%2C0","locality":"Eastgardens"},{"name":"Reantong Thai in Surry Hills","vote":"14","reviews":"14","address":"78 Devonshire Street, Surry Hills, SydneySurry Hills","city":"Sydney","latitude":-33.8860412501,"longitude":151.2077659741,"price_range":25.0,"rating":3.7,"cuisine_string":["Thai","Asian"],"photo":"https://b.zmtcdn.com/data/res_imagery/16714144_RESTAURANT_b35f661dbf4cfebb119dadaa1f007ca3_c.jpeg?fit=around%7C1200%3A464\u0026crop=1200%3A464%3B0%2C0","locality":"Surry Hills"},{"name":"Two Governors","vote":"12","reviews":"12","address":"1 Farrer Place, CBD, SydneyCBDNSW","city":"Sydney","latitude":-33.8643399735,"longitude":151.2107509375,"price_range":20.0,"rating":3.6,"cuisine_string":["Cafe Food","Coffee and Tea"],"photo":"https://b.zmtcdn.com/data/res_imagery/16570069_RESTAURANT_6d5d764584fc649e11bfb6d0d2a6a90b.JPG?fit=around%7C1200%3A464\u0026crop=1200%3A464%3B0%2C0","locality":"CBD"},{"name":"Le Comptoir","vote":"19","reviews":"19","address":"109 Johnston Street, Annandale, SydneyAnnandaleNSW","city":"Sydney","latitude":-33.8812507977,"longitude":151.1709596962,"price_range":20.0,"rating":2.9,"cuisine_string":["French","Cafe Food","Coffee and Tea"],"photo":"https://b.zmtcdn.com/data/reviews_photos/862/fbd12a4c0ed0ff6d814ae34985b52862_1447497161.jpg?fit=around%7C1200%3A464\u0026crop=1200%3A464%3B%2A%2C%2A","locality":"Annandale"},{"name":"Arthur's Pizza","vote":"7","reviews":"7","address":"35 Mc Keon Street, Maroubra, SydneyMaroubra","city":"Sydney","latitude":-33.9460275619,"longitude":151.2559102848,"price_range":20.0,"rating":3.8,"cuisine_string":["Pizza","Italian"],"photo":"https://b.zmtcdn.com/data/pictures/4/17745744/424baf7d2bc021ceaf69bcb10b4e26ac.jpg?resize=1204%3A963\u0026crop=1200%3A464%3B-6%2C471","locality":"Maroubra"},{"name":"The Grange Buffet","vote":"9","reviews":"9","address":"124 Princes Highway, Beverley Park, SydneyBeverley Park","city":"Sydney","latitude":-33.9750090898,"longitude":151.1290585622,"price_range":27.5,"rating":2.8,"cuisine_string":["Australian"],"photo":"https://b.zmtcdn.com/data/reviews_photos/9f6/94fda658e6eed89e7091e7124c15a9f6_1495279864.jpg?fit=around%7C1200%3A464\u0026crop=1200%3A464%3B%2A%2C%2A","locality":"Beverley Park"},{"name":"Chantilly's Coffee Lounge","vote":"22","reviews":"22","address":"F9, Level 1, Macquarie Centre, Corner Of Herring And Waterloo Roads, Macquarie Park, SydneyMacquarie Park","city":"Sydney","latitude":-33.7768902956,"longitude":151.1205921695,"price_range":27.5,"rating":3.0,"cuisine_string":["Cafe Food","Coffee and Tea"],"photo":"https://b.zmtcdn.com/data/res_imagery/16567781_RESTAURANT_444eb1e801aa2d27e3cefc484f60c7e8.jpg?fit=around%7C1200%3A464\u0026crop=1200%3A464%3B0%2C0","locality":"Macquarie Park"},{"name":"Health Freak Cafe","vote":"15","reviews":"15","address":"Level 3 Upper, Macquarie Centre, Corner Of Herring Road And Waterloo Road, Macquarie Park, SydneyMacquarie Park","city":"Sydney","latitude":-33.7780638278,"longitude":151.1211272702,"price_range":30.0,"rating":3.2,"cuisine_string":["Healthy Food","Coffee and Tea","Cafe Food"],"photo":"https://b.zmtcdn.com/data/reviews_photos/524/308200479fb57f89f04bbafa2ce19524_1503713946.jpg?fit=around%7C1200%3A464\u0026crop=1200%3A464%3B%2A%2C%2A","locality":"Macquarie Park"},{"name":"Jingogae Korean Restaurant","vote":"17","reviews":"17","address":"57 Ridge Street, \tNorth SydneyNorth Sydney","city":"Sydney","latitude":-33.8329254287,"longitude":151.207696572,"price_range":15.0,"rating":3.9,"cuisine_string":["Asian","Korean"],"photo":"https://b.zmtcdn.com/data/res_imagery/16565806_RESTAURANT_1014eeb01308ee536aaec651ec6e4b32.jpg?fit=around%7C1200%3A464\u0026crop=1200%3A464%3B0%2C0","locality":"North Sydney"},{"name":"Incanto Coffee","vote":"16","reviews":"16","address":"Shop 1, SkyView Shopping Plaza, 528 Kent Street, CBD, SydneyCBD","city":"Sydney","latitude":-33.8760517211,"longitude":151.2058787048,"price_range":20.0,"rating":3.3,"cuisine_string":["Cafe Food","Coffee and Tea"],"photo":"https://b.zmtcdn.com/data/res_imagery/16563528_CHAIN_ca3bbdbba0e4560d8b9ac72b147cd079.jpg?fit=around%7C1200%3A464\u0026crop=1200%3A464%3B0%2C0","locality":"CBD"},{"name":"Rams Indian and Sri Lankan Food","vote":"25","reviews":"25","address":"Shop 17C, 16-20 Henley Road, Homebush West, SydneyHomebush WestNSW","city":"Sydney","latitude":-33.8664568981,"longitude":151.0701190308,"price_range":12.5,"rating":3.9,"cuisine_string":["Indian"],"photo":"","locality":"Homebush West"},{"name":"Tehwaru","vote":"16","reviews":"16","address":"Shop B9. 1 Avenue Of Europe, Newington, SydneyNewington","city":"Sydney","latitude":-33.8343808679,"longitude":151.0570399091,"price_range":20.0,"rating":3.3,"cuisine_string":["Korean","Chinese"],"photo":"https://b.zmtcdn.com/data/res_imagery/16715250_RESTAURANT_a85de1133d5ac34e388ef569371fada2.jpg?fit=around%7C1200%3A464\u0026crop=1200%3A464%3B0%2C0","locality":"Newington"},{"name":"Brother Zhao Chuan Style Noodles","vote":"17","reviews":"17","address":"Macquarie ParkMacquarie ParkNSW","city":"Sydney","latitude":-33.7769061806,"longitude":151.120063439,"price_range":15.0,"rating":3.5,"cuisine_string":["Chinese"],"photo":"","locality":"Macquarie Park"},{"name":"Cafe Ventotto","vote":"8","reviews":"8","address":"510 Elizabeth Street, Surry Hills, SydneySurry Hills","city":"Sydney","latitude":-33.8897209565,"longitude":151.2080720812,"price_range":30.0,"rating":3.6,"cuisine_string":["Coffee and Tea","Cafe Food"],"photo":"https://b.zmtcdn.com/data/pictures/chains/9/17744139/2931943d981edc18d6c8984c5574afe7.jpg?resize=1204%3A1505\u0026crop=1200%3A464%3B1%2C623","locality":"Surry Hills"},{"name":"Juice Box Cafe","vote":"18","reviews":"18","address":"Shop 1, 1215 Anzac Parade, Malabar, Sydney","city":"Sydney","latitude":-33.962638268,"longitude":151.2457272783,"price_range":15.0,"rating":3.7,"cuisine_string":["Burger","Cafe Food","Coffee and Tea","Healthy Food","Juices"],"photo":"https://b.zmtcdn.com/data/pictures/0/16716540/0e62424077ed6fec3f0771b08e88ba38.jpg?fit=around%7C1200%3A464\u0026crop=1200%3A464%3B%2A%2C%2A","locality":"Matraville"},{"name":"The Bistro","vote":"8","reviews":"8","address":"26 Bridge Road, Belmore, SydneyBelmore","city":"Sydney","latitude":-33.9188883044,"longitude":151.0878222808,"price_range":42.5,"rating":3.7,"cuisine_string":["Modern Australian"],"photo":"https://b.zmtcdn.com/data/pictures/6/17744976/229fcc32f2fd1a13353d5d1db02223dc.jpg?resize=1204%3A1204\u0026crop=1200%3A464%3B5%2C416","locality":"Belmore"},{"name":"Little Fish Shoppe","vote":"20","reviews":"20","address":"Shop 83, 455 George Street, CBD, SydneyCBDnsw","city":"Sydney","latitude":-33.8730072277,"longitude":151.2072540075,"price_range":10.0,"rating":3.8,"cuisine_string":["Seafood","Healthy Food","Fish and Chips"],"photo":"https://b.zmtcdn.com/data/res_imagery/16566679_RESTAURANT_aed3e6093b3684dcbb7b6cab1d447d4d.jpg?fit=around%7C1200%3A464\u0026crop=1200%3A464%3B0%2C0","locality":"CBD"},{"name":"Munoushee On Majors Bay","vote":"16","reviews":"16","address":"39b Majors Bay Road, Concord, SydneyConcord","city":"Sydney","latitude":-33.8571630861,"longitude":151.103659384,"price_range":15.0,"rating":3.8,"cuisine_string":["Falafel","Pizza","Bakery","Lebanese","Coffee and Tea","Vegetarian","Middle Eastern","Cafe Food"],"photo":"https://b.zmtcdn.com/data/res_imagery/18278658_RESTAURANT_045c463b125721618ceafeee88c5420c.jpg?fit=around%7C1200%3A464\u0026crop=1200%3A464%3B0%2C0","locality":"Concord"},{"name":"May's Malaysian","vote":"17","reviews":"17","address":"Food Court, Level 2, Mandarin Centre, 61-65 Albert Avenue, Chatswood, SydneyChatswood","city":"Sydney","latitude":-33.7978487038,"longitude":151.1824103817,"price_range":20.0,"rating":3.7,"cuisine_string":["Malaysian"],"photo":"https://b.zmtcdn.com/data/reviews_photos/03c/e9a840521f842521eccbe0310eb8603c_1476170986.jpg?resize=1204%3A903\u0026crop=1200%3A464%3B0%2C149","locality":"Chatswood"},{"name":"Society Pizza e Pesce","vote":"10","reviews":"10","address":"88–90 Curlewis Street, Bondi Beach, SydneyBondi Beach","city":"Sydney","latitude":-33.8877315245,"longitude":151.2725983188,"price_range":45.0,"rating":3.7,"cuisine_string":["Italian","Mediterranean","Desserts","Pizza","Seafood"],"photo":"https://b.zmtcdn.com/data/reviews_photos/e3d/31be810f0b465f72594008490546ee3d_1534851481.jpg?resize=1204%3A1605\u0026crop=1200%3A464%3B-2%2C884","locality":"Bondi Beach"},{"name":"Bar 53","vote":"22","reviews":"22","address":"53 Canley Vale Road, Canley Vale, SydneyCanley ValeNSW","city":"Sydney","latitude":-33.8864659789,"longitude":150.9406008571,"price_range":25.0,"rating":3.9,"cuisine_string":["Bar Food"],"photo":"https://b.zmtcdn.com/data/pictures/4/17744474/e60028de3d59f11670634291196b381b.png?resize=1204%3A774\u0026crop=1200%3A464%3B0%2C85","locality":"Canley Vale"},{"name":"Legal Grounds Cafe","vote":"19","reviews":"19","address":"225 Macquarie Street, CBD, SydneyCBD","city":"Sydney","latitude":-33.8684348555,"longitude":151.2120394036,"price_range":17.5,"rating":3.1,"cuisine_string":["Cafe Food","Coffee and Tea"],"photo":"https://b.zmtcdn.com/data/res_imagery/16565206_RESTAURANT_df579cac8656dd31bfeb614f49456f73_c.jpg?fit=around%7C1200%3A464\u0026crop=1200%3A464%3B0%2C0","locality":"CBD"},{"name":"Billy the Greek","vote":"20","reviews":"20","address":"506 Old Northern Road, Dural, SydneyDuralNSW","city":"Sydney","latitude":-33.6938545293,"longitude":151.0188496113,"price_range":40.0,"rating":3.4,"cuisine_string":["Greek"],"photo":"https://b.zmtcdn.com/data/pictures/2/17849122/feca824d77f0a2f6716aa89b12df242e.jpg?fit=around%7C1200%3A464\u0026crop=1200%3A464%3B%2A%2C%2A","locality":"Dural"},{"name":"Jack \u0026 Knife","vote":"9","reviews":"9","address":"76 Stanley Street, Darlinghurst, SydneyDarlinghurst","city":"Sydney","latitude":-33.8757341101,"longitude":151.2155950069,"price_range":62.5,"rating":3.2,"cuisine_string":["Modern Australian"],"photo":"https://b.zmtcdn.com/data/pictures/9/17745649/5b8e439d194da5a1c5371281469e0dcb.jpg?resize=1204%3A1204\u0026crop=1200%3A464%3B-4%2C146","locality":"Darlinghurst"},{"name":"Zensation Teahouse","vote":"30","reviews":"30","address":"Shop 160, 806 Bourke Street, Waterloo, SydneyWaterlooNSW","city":"Sydney","latitude":-33.8990496271,"longitude":151.2122838199,"price_range":30.0,"rating":3.9,"cuisine_string":["Chinese","Cafe Food","Coffee and Tea"],"photo":"https://b.zmtcdn.com/data/reviews_photos/fbc/aaeb799b9295f571f7279ab2f4b69fbc.jpg?resize=1204%3A1169\u0026crop=1200%3A464%3B-10%2C370","locality":"Waterloo"},{"name":"Bowie Espresso","vote":"16","reviews":"16","address":"Lot 15B, Regent Shopping Place, 501 George Street, CBD, SydneyCBD","city":"Sydney","latitude":-33.8748274787,"longitude":151.2067360058,"price_range":17.5,"rating":3.8,"cuisine_string":["Cafe Food"],"photo":"https://b.zmtcdn.com/data/pictures/6/17746546/a6c063dbf8bbb32e1847fc680b7bec05.jpg?resize=1204%3A1204\u0026crop=1200%3A464%3B-2%2C304","locality":"CBD"},{"name":"Chimack","vote":"11","reviews":"11","address":"233/1 Katherine Street, Chatswood, SydneyChatswoodNSW","city":"Sydney","latitude":-33.7974686704,"longitude":151.1797291786,"price_range":25.0,"rating":3.1,"cuisine_string":["Korean","Hot Pot"],"photo":"","locality":"Chatswood"},{"name":"Golden Territory Seafood Restaurant 金都海鲜酒楼","vote":"17","reviews":"17","address":"202 Beamish Street, Campsie, SydneyCampsie","city":"Sydney","latitude":-33.911472262,"longitude":151.1037874594,"price_range":35.0,"rating":3.8,"cuisine_string":["Asian","Cantonese","Chinese","Dumplings","Seafood","Yum Cha"],"photo":"","locality":"Campsie"},{"name":"Joseph Hyde","vote":"15","reviews":"15","address":"36 Llankelly Place, Potts Point, SydneyPotts PointNSW","city":"Sydney","latitude":-33.8729020033,"longitude":151.2244278565,"price_range":20.0,"rating":3.9,"cuisine_string":["Cafe Food","Coffee and Tea"],"photo":"https://b.zmtcdn.com/data/reviews_photos/4d3/9db5d666979b041ec562313a892144d3_1522108523.jpg?resize=1204%3A677\u0026crop=1200%3A464%3B0%2C36","locality":"Potts Point"},{"name":"Joseph Hyde","vote":"15","reviews":"15","address":"36 Llankelly Place, Potts Point, SydneyPotts PointNSW","city":"Sydney","latitude":-33.8729020033,"longitude":151.2244278565,"price_range":20.0,"rating":3.9,"cuisine_string":["Cafe Food","Coffee and Tea"],"photo":"https://b.zmtcdn.com/data/reviews_photos/4d3/9db5d666979b041ec562313a892144d3_1522108523.jpg?resize=1204%3A677\u0026crop=1200%3A464%3B0%2C36","locality":"Potts Point"},{"name":"The Rise Cafe","vote":"15","reviews":"15","address":"2 John Street, Cabramatta, SydneyCabramatta","city":"Sydney","latitude":-33.8958478819,"longitude":150.9383672476,"price_range":22.5,"rating":3.5,"cuisine_string":["Cafe Food","Coffee and Tea"],"photo":"https://b.zmtcdn.com/data/reviews_photos/eb8/7e8408c127f3fb28652340f6dd107eb8_1466904349.jpg?fit=around%7C1200%3A464\u0026crop=1200%3A464%3B%2A%2C%2A","locality":"Cabramatta"},{"name":"Funhouse Malatang","vote":"20","reviews":"20","address":"Pavilion 5, Chatswood Interchange Podium Level, 436 Victoria Avenue, Chatswood, SydneyChatswood","city":"Sydney","latitude":-33.7973538799,"longitude":151.1808111146,"price_range":20.0,"rating":3.9,"cuisine_string":["Chinese","Hot Pot"],"photo":"https://b.zmtcdn.com/data/pictures/0/18986640/13983c4dcec9c39a4ffce35b956ad5cb.png?resize=1204%3A469\u0026crop=1200%3A464%3B0%2C5","locality":"Chatswood"},{"name":"Tago-an Japanese Dining","vote":"19","reviews":"19","address":"25 Kent Street, Millers Point, SydneyMillers PointNSW","city":"Sydney","latitude":-33.8585245639,"longitude":151.2034077197,"price_range":40.0,"rating":3.7,"cuisine_string":["Japanese"],"photo":"https://b.zmtcdn.com/data/res_imagery/15544554_RESTAURANT_40906080a22a55f9cb3e8d55d8bd24a6.jpg?fit=around%7C1200%3A464\u0026crop=1200%3A464%3B0%2C0","locality":"Millers Point"},{"name":"Marta","vote":"16","reviews":"16","address":"30 McLachlan Avenue, Darlinghurst, SydneyDarlinghurstNSW","city":"Sydney","latitude":-33.8778518656,"longitude":151.2281782553,"price_range":25.0,"rating":3.7,"cuisine_string":["Italian","Coffee and Tea","Cafe Food"],"photo":"https://b.zmtcdn.com/data/pictures/8/17743028/130a5cb2146f99441990a4fc30b08a69.jpg?resize=1204%3A963\u0026crop=1200%3A464%3B-6%2C247","locality":"Darlinghurst"},{"name":"Hothi's Indian Restaurant","vote":"25","reviews":"25","address":"46 Beecroft Road, Epping, SydneyEpping","city":"Sydney","latitude":-33.7733311424,"longitude":151.0817688704,"price_range":18.0,"rating":3.9,"cuisine_string":["Indian"],"photo":"https://b.zmtcdn.com/data/reviews_photos/321/aaf6926783b084d268b6300536f42321.jpg?resize=1204%3A903\u0026crop=1200%3A464%3B4%2C366","locality":"Epping"},{"name":"Harvest","vote":"25","reviews":"25","address":"352 Barrenjoey Road, Newport, SydneyNewportNSW","city":"Sydney","latitude":-33.6553334691,"longitude":151.3204452395,"price_range":35.0,"rating":3.8,"cuisine_string":["Coffee and Tea","Modern Australian","Cafe Food"],"photo":"https://b.zmtcdn.com/data/reviews_photos/cf7/c10a5846bb86bd2cac847c1800862cf7_1523025314.jpg?resize=1204%3A903\u0026crop=1200%3A464%3B0%2C220","locality":"Newport"},{"name":"Georges on Queen","vote":"20","reviews":"20","address":"187 Queen Street, Campbelltown, SydneyCampbelltown","city":"Sydney","latitude":-34.0671765629,"longitude":150.8137129247,"price_range":20.0,"rating":2.8,"cuisine_string":["Cafe Food","Coffee and Tea"],"photo":"https://b.zmtcdn.com/data/res_imagery/16561695_CHAIN_7dcd570cf1b6fa80ad05cd0f3300cb06.JPG?fit=around%7C1200%3A464\u0026crop=1200%3A464%3B0%2C0","locality":"Campbelltown"},{"name":"Sam's Pizza \u0026 Pasta","vote":"24","reviews":"24","address":"3/2 Marsden \u0026 Victoria Road, Ermington, SydneyErmingtonNSW","city":"Sydney","latitude":-33.8066909698,"longitude":151.0700053722,"price_range":22.5,"rating":2.9,"cuisine_string":["Italian"],"photo":"https://b.zmtcdn.com/data/reviews_photos/94d/1f46977220e7471fc4d9ae5c0d15094d_1446469542.jpg?resize=1204%3A1204\u0026crop=1200%3A464%3B0%2C300","locality":"Ermington"},{"name":"Thai Square","vote":"22","reviews":"22","address":"130 Megalong Street, Leura, SydneyLeuraNSW","city":"Sydney","latitude":-33.7140456587,"longitude":150.3303909302,"price_range":32.5,"rating":3.8,"cuisine_string":["Thai"],"photo":"https://b.zmtcdn.com/data/res_imagery/16565769_RESTAURANT_3d6f4e87eccbf2f0f8597544d6e37fc0.jpg?fit=around%7C1200%3A464\u0026crop=1200%3A464%3B0%2C0","locality":"Leura"},{"name":"Two Brothers Cafe and Restaurant","vote":"22","reviews":"22","address":"8 Burns Bay Road, Lane Cove, SydneyLane Cove","city":"Sydney","latitude":-33.8147478972,"longitude":151.1696206033,"price_range":22.5,"rating":3.5,"cuisine_string":["Cafe Food","Coffee and Tea"],"photo":"https://b.zmtcdn.com/data/res_imagery/18171600_RESTAURANT_ac7a0f34aa6645fc459398254bbc28ed.jpg?fit=around%7C1200%3A464\u0026crop=1200%3A464%3B0%2C0","locality":"Lane Cove"},{"name":"No Ordinary Cafe","vote":"19","reviews":"19","address":"83 Penshurst Street, Willoughby, SydneyWilloughbyNSW","city":"Sydney","latitude":-33.8007660449,"longitude":151.1989472061,"price_range":25.0,"rating":3.7,"cuisine_string":["Cafe Food","Coffee and Tea"],"photo":"https://b.zmtcdn.com/data/reviews_photos/fd1/4d339b04b009e8eb4fd5b34199464fd1_1474600057.jpg?fit=around%7C1200%3A464\u0026crop=1200%3A464%3B%2A%2C%2A","locality":"Willoughby"},{"name":"Athena's Cake Shop","vote":"26","reviews":"26","address":"412 Illawarra Road, Marrickville, SydneyMarrickville","city":"Sydney","latitude":-33.9166853169,"longitude":151.1498567462,"price_range":15.0,"rating":3.8,"cuisine_string":["Desserts"],"photo":"https://b.zmtcdn.com/data/res_imagery/16564102_RESTAURANT_80965481f36a427e9757bbc4635e9605.jpg?fit=around%7C1200%3A464\u0026crop=1200%3A464%3B0%2C0","locality":"Marrickville"},{"name":"Chips ‘N’ Chicks","vote":"","reviews":"5","address":"Shop 1, 11 Australia Avenue, Sydney Olympic Park, SydneySydney Olympic Park","city":"Sydney","latitude":-33.847938,"longitude":151.07341,"price_range":0,"rating":0.0,"cuisine_string":["Charcoal Chicken","Lebanese"],"photo":"https://b.zmtcdn.com/data/pictures/8/17747958/f8f386df0a4fa866f6282d571c0ead63.jpg?resize=1204%3A1204\u0026crop=1200%3A464%3B1%2C288","locality":"Sydney Olympic Park"},{"name":"Sal Sydney","vote":"12","reviews":"12","address":"2 Chifley Square, CBD, SydneyCBDNSW","city":"Sydney","latitude":-33.8660234395,"longitude":151.2118952349,"price_range":20.0,"rating":3.0,"cuisine_string":["Italian"],"photo":"https://b.zmtcdn.com/data/reviews_photos/575/7a158e34847cffd0633d076cc63e5575_1479338297.jpg?fit=around%7C1200%3A464\u0026crop=1200%3A464%3B%2A%2C%2A","locality":"CBD"},{"name":"Salty Rooster Manly","vote":"23","reviews":"23","address":"73 Collingwood Street, Manly, SydneyManlyNSW","city":"Sydney","latitude":-33.7860406897,"longitude":151.2872062996,"price_range":12.5,"rating":3.8,"cuisine_string":["Burger","Desserts"],"photo":"https://b.zmtcdn.com/data/reviews_photos/b62/3cc89216c7b480e2d763e5c09160db62_1494145633.jpg?fit=around%7C1200%3A464\u0026crop=1200%3A464%3B%2A%2C%2A","locality":"Manly"},{"name":"The Heritage Kitchen Garden","vote":"16","reviews":"16","address":"1212 Anzac Parade, Malabar, SydneyMalabar","city":"Sydney","latitude":-33.9621861109,"longitude":151.2469507009,"price_range":20.0,"rating":3.7,"cuisine_string":["Cafe Food","Coffee and Tea"],"photo":"https://b.zmtcdn.com/data/res_imagery/16569970_CHAIN_4bd4040ac0d838e8b67dd5948700640a.jpg?fit=around%7C1200%3A464\u0026crop=1200%3A464%3B0%2C0","locality":"Malabar"},{"name":"Christo's Five Ways Pizzeria","vote":"31","reviews":"31","address":"224 Glenmore Road, Paddington, SydneyPaddington","city":"Sydney","latitude":-33.882451289,"longitude":151.2284374237,"price_range":35.0,"rating":3.6,"cuisine_string":["Italian","Pizza"],"photo":"https://b.zmtcdn.com/data/pictures/5/16557585/cc6d8f29d7f1b6732a6a6ce0e09b6d84.jpg?fit=around%7C1200%3A464\u0026crop=1200%3A464%3B%2A%2C%2A","locality":"Paddington"},{"name":"Frenchies Bistro \u0026 Brewery","vote":"14","reviews":"14","address":"6/61-71 Mentmore Avenue, Rosebery, SydneyRosebery","city":"Sydney","latitude":-33.9169418435,"longitude":151.2029292807,"price_range":52.5,"rating":3.1,"cuisine_string":["French"],"photo":"https://b.zmtcdn.com/data/reviews_photos/47d/22a78199a790ba2addbab90698c7a47d_1504654519.jpg?resize=1204%3A677\u0026crop=1200%3A464%3B-3%2C111","locality":"Rosebery"},{"name":"Sydney Markets Plaza Cafe","vote":"7","reviews":"7","address":"Sydney Markets Plaza, 250-318 Parramatta Road, Flemington, Homebush West, SydneyHomebush WestNSW","city":"Sydney","latitude":-33.8601828089,"longitude":151.0715499893,"price_range":25.0,"rating":3.4,"cuisine_string":["Cafe Food","Coffee and Tea"],"photo":"https://b.zmtcdn.com/data/res_imagery/15545337_CHAIN_8cd3ebb52c97bbc6fde40b6941059782.jpg?fit=around%7C1200%3A464\u0026crop=1200%3A464%3B0%2C0","locality":"Homebush West"},{"name":"Castle Hill Tavern Bistro","vote":"21","reviews":"21","address":"25 Victoria Avenue, Castle HillCastle Hill","city":"Sydney","latitude":-33.7278085516,"longitude":150.9784733132,"price_range":22.5,"rating":2.7,"cuisine_string":["Pub Food"],"photo":"https://b.zmtcdn.com/data/pictures/4/16557524/aee79075bce459916859db273a26328e.jpg?fit=around%7C1200%3A464\u0026crop=1200%3A464%3B%2A%2C%2A","locality":"Castle Hill"},{"name":"Borruso's","vote":"15","reviews":"15","address":"83 Willoughby Road, Crows Nest, SydneyCrows NestNSW","city":"Sydney","latitude":-33.82479139,"longitude":151.2014795467,"price_range":25.0,"rating":3.8,"cuisine_string":["Italian"],"photo":"","locality":"Crows Nest"},{"name":"Café Relish","vote":"23","reviews":"23","address":"1 North Avalon Road, Avalon, SydneyAvalonNSW","city":"Sydney","latitude":-33.6274464196,"longitude":151.3346844167,"price_range":25.0,"rating":3.7,"cuisine_string":["Cafe Food","Coffee and Tea"],"photo":"https://b.zmtcdn.com/data/pictures/2/16564792/4064af3c746d740c8805023c3b873470.jpg?fit=around%7C1200%3A464\u0026crop=1200%3A464%3B%2A%2C%2A","locality":"Avalon"},{"name":"Sushi Izakaya Waka","vote":"24","reviews":"24","address":"155 Pittwater Road, Manly, SydneyManly","city":"Sydney","latitude":-33.7900306532,"longitude":151.2847775593,"price_range":20.0,"rating":3.8,"cuisine_string":["Japanese","Sushi"],"photo":"https://b.zmtcdn.com/data/res_imagery/16568376_RESTAURANT_82eb9f8300a5010af04f773e65fa9cda_c.jpg?fit=around%7C1200%3A464\u0026crop=1200%3A464%3B0%2C0","locality":"Manly"},{"name":"Baiboon Thai Restaurant","vote":"27","reviews":"27","address":"Shop 3B, The Piazza, Sydney Olympic Park, SydneyNSW","city":"Sydney","latitude":-33.8314131493,"longitude":151.0738985986,"price_range":40.0,"rating":3.9,"cuisine_string":["Thai"],"photo":"https://b.zmtcdn.com/data/res_imagery/16563374_RESTAURANT_7720cde2305b57c8193ff9d806adc7ba.jpg?fit=around%7C1200%3A464\u0026crop=1200%3A464%3B0%2C0","locality":"Wentworth Point"},{"name":"Cafe Fred","vote":"22","reviews":"22","address":"7/354 High Steet, Penrith, SydneyPenrithNSW","city":"Sydney","latitude":-33.7540367946,"longitude":150.6990246847,"price_range":20.0,"rating":3.7,"cuisine_string":["Cafe Food","Coffee and Tea"],"photo":"https://b.zmtcdn.com/data/res_imagery/16568933_CHAIN_b66470b7f4e4f9bef69fdd49a52327b9.jpg?fit=around%7C1200%3A464\u0026crop=1200%3A464%3B0%2C0","locality":"Penrith"},{"name":"Vermicelli","vote":"14","reviews":"14","address":"Shop 2, 191 Clarence Street, Sydney, \tCBDCBD","city":"Sydney","latitude":-33.8716729833,"longitude":151.2088321522,"price_range":17.5,"rating":3.7,"cuisine_string":["Thai","Vietnamese"],"photo":"https://b.zmtcdn.com/data/res_imagery/16569277_RESTAURANT_268d8534ed018173c37c7e9a359c5d20.jpg?fit=around%7C1200%3A464\u0026crop=1200%3A464%3B0%2C0","locality":"CBD"},{"name":"Bloomfield Eatery","vote":"9","reviews":"9","address":"g02/77 Dunning Avenue, Rosebery, SydneyRosebery","city":"Sydney","latitude":-33.9158317066,"longitude":151.2027157098,"price_range":20.0,"rating":3.7,"cuisine_string":["Cafe Food","Coffee and Tea"],"photo":"https://b.zmtcdn.com/data/pictures/4/17745694/b632af52a493bd9758edb4c09cbb421b.jpg?resize=1204%3A1043\u0026crop=1200%3A464%3B2%2C301","locality":"Rosebery"},{"name":"Little ME","vote":"13","reviews":"13","address":"693 Botany Road, Rosebery, SydneyRosebery","city":"Sydney","latitude":-33.9130963676,"longitude":151.2018376216,"price_range":12.5,"rating":3.8,"cuisine_string":["Cafe Food","Coffee and Tea"],"photo":"https://b.zmtcdn.com/data/reviews_photos/69a/ae13288f248547b26a6683420b59669a_1446589911.jpg?fit=around%7C1200%3A464\u0026crop=1200%3A464%3B%2A%2C%2A","locality":"Rosebery"},{"name":"Stapleton's Restaurant","vote":"27","reviews":"27","address":"782 Old Princes Highway, SutherlandSutherland","city":"Sydney","latitude":-34.031956,"longitude":151.057806,"price_range":35.0,"rating":3.7,"cuisine_string":["European","Steak"],"photo":"","locality":"Sutherland"},{"name":"Savoury Court","vote":"12","reviews":"12","address":"Shop 1, 93 - 105 Quay Street, Chinatown, Haymarket, SydneyHaymarket","city":"Sydney","latitude":-33.8819967577,"longitude":151.2034228072,"price_range":20.0,"rating":3.4,"cuisine_string":["Chinese"],"photo":"https://b.zmtcdn.com/data/reviews_photos/735/356818ea6db61dce1e40f99dab30e735_1470312290.jpg?resize=1204%3A677\u0026crop=1200%3A464%3B0%2C64","locality":"Haymarket"},{"name":"Shepherds Bay Cake and Bakery","vote":"21","reviews":"21","address":"4B/11 Bay Drive, Meadowbank, SydneyMeadowbankNSW","city":"Sydney","latitude":-33.8185323465,"longitude":151.090323776,"price_range":5.0,"rating":3.8,"cuisine_string":["Bakery"],"photo":"https://b.zmtcdn.com/data/reviews_photos/a2a/c44b51aa60bacfa67ecad23fb1bc1a2a.jpg?resize=1204%3A903\u0026crop=1200%3A464%3B1%2C198","locality":"Meadowbank"},{"name":"Yuen Kee Dessert","vote":"15","reviews":"15","address":"11/309 Forest Road, \tHurstvilleHurstville","city":"Sydney","latitude":-33.9654067745,"longitude":151.1004953831,"price_range":15.0,"rating":3.8,"cuisine_string":["Desserts"],"photo":"https://b.zmtcdn.com/data/reviews_photos/08d/1661edec77849fe9a8f821f8326bb08d_1497146868.jpg?resize=1204%3A1605\u0026crop=1200%3A464%3B0%2C500","locality":"Hurstville"},{"name":"Conservatorium","vote":"16","reviews":"16","address":"3/16 George Street, North Strathfield, SydneyNorth StrathfieldNSW","city":"Sydney","latitude":-33.8641829559,"longitude":151.088305749,"price_range":27.5,"rating":3.7,"cuisine_string":["Bakery","Cafe Food","Coffee and Tea"],"photo":"https://b.zmtcdn.com/data/reviews_photos/8fe/1dac75501159c9bfe000c72def37c8fe_1516762445.jpg?resize=1204%3A1605\u0026crop=1200%3A464%3B2%2C688","locality":"North Strathfield"},{"name":"Spears Cafe","vote":"13","reviews":"13","address":"Floor 3 shop 481,Castle Towers, Castle Hill, SydneyCastle Hill","city":"Sydney","latitude":-33.7305598616,"longitude":151.006160751,"price_range":20.0,"rating":3.0,"cuisine_string":["Cafe Food","Coffee and Tea"],"photo":"https://b.zmtcdn.com/data/reviews_photos/7ae/c7e8740fea1969699cd619476d1d07ae_1532945654.jpg?resize=1204%3A1204\u0026crop=1200%3A464%3B0%2C300","locality":"Castle Hill"},{"name":"Lobster Tail Seafoods","vote":"12","reviews":"12","address":"Food Court, Level 5, Westfield Bondi Junction, 500 Oxford Street, Bondi Junction, SydneyBondi JunctionNSW","city":"Sydney","latitude":-33.8910936042,"longitude":151.2513622642,"price_range":25.0,"rating":2.6,"cuisine_string":["Seafood"],"photo":"https://b.zmtcdn.com/data/res_imagery/15547474_RESTAURANT_385269f2932aab1bb748f3c948740db5.jpg?fit=around%7C1200%3A464\u0026crop=1200%3A464%3B0%2C0","locality":"Bondi Junction"},{"name":"WBC Wolli Burger Cafe","vote":"6","reviews":"6","address":"Shop 9, 5 Brodie Spark Drive, Wolli CreekWolli Creek","city":"Sydney","latitude":-33.9290700516,"longitude":151.1541543156,"price_range":20.0,"rating":3.4,"cuisine_string":["Burger"],"photo":"https://b.zmtcdn.com/data/reviews_photos/cc7/17f66187621c7d6f4dda26a09b115cc7_1541708938.jpg?resize=1204%3A902\u0026crop=1200%3A464%3B2%2C251","locality":"Wolli Creek"},{"name":"X Dream","vote":"16","reviews":"16","address":"14-16 Aurelia Street, Old Toongabbie, SydneyToongabbie","city":"Sydney","latitude":-33.7878608428,"longitude":150.9505582228,"price_range":17.5,"rating":3.8,"cuisine_string":["Sri Lankan","Indian","Malaysian"],"photo":"","locality":"Toongabbie"},{"name":"We Thai Cuisine","vote":"15","reviews":"15","address":"Shop 5, 90 Charles Street, Putney, Ryde, SydneyPutneyNSW","city":"Sydney","latitude":-33.823584796,"longitude":151.1088105664,"price_range":22.5,"rating":3.9,"cuisine_string":["Thai"],"photo":"","locality":"Putney"},{"name":"The Restaurant Chinese Skewers BBQ","vote":"13","reviews":"13","address":"207 Liverpool Road Ashfield NSW 2131, Ashfield, Sydney, SydneyAshfield","city":"Sydney","latitude":-33.8896744776,"longitude":151.126557067,"price_range":25.0,"rating":3.5,"cuisine_string":["Chinese"],"photo":"https://b.zmtcdn.com/data/pictures/chains/8/18679318/832015405f67454e52c0778b83fd1e3e.jpg?resize=1204%3A722\u0026crop=1200%3A464%3B0%2C59","locality":"Ashfield"},{"name":"Mischica Cafe","vote":"12","reviews":"12","address":"237 Mona Vale Road, St Ives, SydneySt IvesNSW","city":"Sydney","latitude":-33.7295761258,"longitude":151.1627219617,"price_range":10.0,"rating":3.6,"cuisine_string":["Coffee and Tea","Sandwich","Cafe Food"],"photo":"https://b.zmtcdn.com/data/reviews_photos/e3c/a0f50909416848a47f420b4245dd6e3c.jpg?fit=around%7C1200%3A464\u0026crop=1200%3A464%3B%2A%2C%2A","locality":"St Ives"},{"name":"Khao Hom Thai Restaurant","vote":"19","reviews":"19","address":"372A Military Road, Cremorne, SydneyCremorneNSW","city":"Sydney","latitude":-33.8283383772,"longitude":151.2294720858,"price_range":20.0,"rating":3.3,"cuisine_string":["Thai"],"photo":"https://b.zmtcdn.com/data/res_imagery/16561899_RESTAURANT_2fc799a524a253344469d667d80622b6_c.jpg?fit=around%7C1200%3A464\u0026crop=1200%3A464%3B0%2C0","locality":"Cremorne"},{"name":"Sushi Naya","vote":"11","reviews":"11","address":"Lidcombe Shopping Centre, 92 Parramatta Road, Lidcombe, SydneyLidcombe","city":"Sydney","latitude":-33.849532562,"longitude":151.0492775962,"price_range":5.0,"rating":3.0,"cuisine_string":["Sushi","Japanese"],"photo":"https://b.zmtcdn.com/data/res_imagery/15546058_RESTAURANT_d1bcb6a74d18850e43cdb4ccdbee372c.jpg?fit=around%7C1200%3A464\u0026crop=1200%3A464%3B0%2C0","locality":"Lidcombe"},{"name":"Lifeboat Seafood","vote":"20","reviews":"20","address":"1 Dangar Road, Brooklyn, SydneyBrooklynNSW","city":"Sydney","latitude":-33.5468317224,"longitude":151.2275921926,"price_range":37.5,"rating":3.7,"cuisine_string":["Seafood"],"photo":"https://b.zmtcdn.com/data/reviews_photos/191/644afc7d46aa483e8aac688b857ac191.jpg?resize=1204%3A1611\u0026crop=1200%3A464%3B1%2C588","locality":"Brooklyn"},{"name":"Golden Age Cinema \u0026 Bar","vote":"23","reviews":"23","address":"80 Commonwealth Street, Surry Hills, SydneySurry Hills","city":"Sydney","latitude":-33.8794089724,"longitude":151.2110463157,"price_range":32.5,"rating":4.0,"cuisine_string":["Bar Food"],"photo":"https://b.zmtcdn.com/data/res_imagery/16567635_RESTAURANT_e015a0b56461766297ce625d6e0a843c.jpg?fit=around%7C1200%3A464\u0026crop=1200%3A464%3B0%2C0","locality":"Surry Hills"},{"name":"Amici di Toni","vote":"30","reviews":"30","address":"Level 1, 1775 Pittwater Road, Mona Vale, SydneyMona ValeNSW","city":"Sydney","latitude":-33.6763960747,"longitude":151.3034474105,"price_range":30.0,"rating":3.6,"cuisine_string":["Italian"],"photo":"https://b.zmtcdn.com/data/res_imagery/16561020_RESTAURANT_0cb6f250b6e90c0ec76155e1d823e7fe_c.jpg?fit=around%7C1200%3A464\u0026crop=1200%3A464%3B0%2C0","locality":"Mona Vale"},{"name":"I Maccheroni","vote":"","reviews":"7","address":"3 Jersey Road, Woollahra, SydneyWoollahra","city":"Sydney","latitude":-33.8885005284,"longitude":151.2329210714,"price_range":40.0,"rating":0.0,"cuisine_string":["Italian"],"photo":"https://b.zmtcdn.com/data/res_imagery/15548219_RESTAURANT_e0e20aa0fb03466c68f1ae00675b8c7b.jpg?fit=around%7C1200%3A464\u0026crop=1200%3A464%3B0%2C0","locality":"Woollahra"},{"name":"Citta","vote":"26","reviews":"26","address":"Shop 4/118 Devonshire Street, Surry Hills, SydneySurry Hills","city":"Sydney","latitude":-33.8865853813,"longitude":151.2091784924,"price_range":12.5,"rating":3.8,"cuisine_string":["Cafe Food","Coffee and Tea"],"photo":"https://b.zmtcdn.com/data/res_imagery/16559710_RESTAURANT_a51a526de1fe0f17cd50c2d288f33c88.jpg?fit=around%7C1200%3A464\u0026crop=1200%3A464%3B0%2C0","locality":"Surry Hills"},{"name":"Pie Mine","vote":"8","reviews":"8","address":"Shop 2/18 Princess Highway, Sylvania, SydneySylvaniaNSW","city":"Sydney","latitude":-34.0069038237,"longitude":151.1121767387,"price_range":17.5,"rating":3.6,"cuisine_string":["Cafe Food","Coffee and Tea"],"photo":"https://b.zmtcdn.com/data/reviews_photos/7d5/044e4957db2a622ad7173ed9998f17d5_1520941307.jpg?resize=1204%3A903\u0026crop=1200%3A464%3B2%2C362","locality":"Sylvania"},{"name":"Bite Box","vote":"18","reviews":"18","address":"Shop 6B, 164 Campbell Parade, Bondi Beach, SydneyBondi BeachNSW","city":"Sydney","latitude":-33.890332,"longitude":151.274746,"price_range":25.0,"rating":3.8,"cuisine_string":["Middle Eastern","Turkish"],"photo":"https://b.zmtcdn.com/data/res_imagery/16564602_RESTAURANT_d0e447f745928b7e7dbff7fb2dee7eb5_c.jpeg?fit=around%7C1200%3A464\u0026crop=1200%3A464%3B0%2C0","locality":"Bondi Beach"},{"name":"Cinnamon Thai Cuisine","vote":"23","reviews":"23","address":"557 Great North Road, Abbotsford, SydneyAbbotsfordNSW","city":"Sydney","latitude":-33.84777331,"longitude":151.1280825734,"price_range":25.0,"rating":3.8,"cuisine_string":["Thai"],"photo":"https://b.zmtcdn.com/data/pictures/2/16562672/ac648845958e56a177abf70e43568f2c.jpg?fit=around%7C1200%3A464\u0026crop=1200%3A464%3B%2A%2C%2A","locality":"Abbotsford"},{"name":"Fat Angel","vote":"14","reviews":"14","address":"512-514 Elizabeth Street, Surry Hills, SydneySurry Hills","city":"Sydney","latitude":-33.8898047299,"longitude":151.2080727518,"price_range":32.5,"rating":3.0,"cuisine_string":["Mediterranean","Bar Food"],"photo":"https://b.zmtcdn.com/data/res_imagery/15546399_RESTAURANT_48c43c48fc5e0c7c6e9c4e0c90c80038.jpg?fit=around%7C1200%3A464\u0026crop=1200%3A464%3B0%2C0","locality":"Surry Hills"},{"name":"Non Finito Pizzeria Ristorante","vote":"24","reviews":"24","address":"16 Pitt Street, MortdaleMortdale","city":"Sydney","latitude":-33.9715243649,"longitude":151.0799137875,"price_range":30.0,"rating":3.7,"cuisine_string":["Italian"],"photo":"https://b.zmtcdn.com/data/res_imagery/16559905_RESTAURANT_6ee031cf6c06ec7d24883ca2c59ba0f4.jpg?fit=around%7C1200%3A464\u0026crop=1200%3A464%3B0%2C0","locality":"Mortdale"},{"name":"Cornerstone Cafe","vote":"9","reviews":"9","address":"Building 7, UTS, 67 Thomas Street, Broadway, ultimo","city":"Sydney","latitude":-33.8832111554,"longitude":151.1997451633,"price_range":15.0,"rating":3.6,"cuisine_string":["Cafe Food","Coffee and Tea"],"photo":"https://b.zmtcdn.com/data/res_imagery/15545099_RESTAURANT_ac3dbbf27f8e993fad1877bf34c21a19.jpg?fit=around%7C1200%3A464\u0026crop=1200%3A464%3B0%2C0","locality":"Ultimo"},{"name":"Charlie Phi Pork Roll","vote":"17","reviews":"17","address":"87 New Canterbury Road, Petersham, SydneyPetersham","city":"Sydney","latitude":-33.896652156,"longitude":151.1521138251,"price_range":15.0,"rating":3.8,"cuisine_string":["Vietnamese","Asian","Cafe Food","Coffee and Tea"],"photo":"https://b.zmtcdn.com/data/res_imagery/15547183_RESTAURANT_319e3d99f73844016b788c832f2feb52.jpg?fit=around%7C1200%3A464\u0026crop=1200%3A464%3B0%2C0","locality":"Petersham"},{"name":"Rolls Vietnam","vote":"26","reviews":"26","address":"Shop 23, Oxford Square, 63 Oxford Street, Surry Hills, SydneySurry HillsNSW","city":"Sydney","latitude":-33.8784394722,"longitude":151.2138002738,"price_range":15.0,"rating":3.6,"cuisine_string":["Sandwich","Vietnamese"],"photo":"https://b.zmtcdn.com/data/res_imagery/16564647_RESTAURANT_c0ed92127083e29e699026521332e4cf.jpg?fit=around%7C1200%3A464\u0026crop=1200%3A464%3B0%2C0","locality":"Surry Hills"},{"name":"The Doss House","vote":"17","reviews":"17","address":"77/79 George Street, The Rocks, SydneyThe Rocks","city":"Sydney","latitude":-33.858777646,"longitude":151.2088472396,"price_range":45.0,"rating":3.9,"cuisine_string":["Bar Food"],"photo":"https://b.zmtcdn.com/data/pictures/9/18667249/447aa887c802849797dc4c743ea47d5c.jpg?resize=1204%3A803\u0026crop=1200%3A464%3B-1%2C160","locality":"The Rocks"},{"name":"Jagos","vote":"20","reviews":"20","address":"232 Miller Street, \tNorth SydneyNorth Sydney","city":"Sydney","latitude":-33.8334392634,"longitude":151.2077881023,"price_range":25.0,"rating":3.4,"cuisine_string":["Cafe Food","Coffee and Tea"],"photo":"https://b.zmtcdn.com/data/pictures/3/16558163/7748e9050cc9bcc3d148d140b78eb334.jpg?fit=around%7C1200%3A464\u0026crop=1200%3A464%3B%2A%2C%2A","locality":"North Sydney"},{"name":"Cherubini Espresso Bar","vote":"20","reviews":"20","address":"85 Boundary Street, Darlinghurst, SydneyDarlinghurst","city":"Sydney","latitude":-33.8811458618,"longitude":151.2215894088,"price_range":10.0,"rating":3.6,"cuisine_string":["Healthy Food","Cafe Food","Coffee and Tea"],"photo":"https://b.zmtcdn.com/data/res_imagery/16562077_RESTAURANT_a1fae5d32657e5efc0d885e868350481_c.jpg?fit=around%7C1200%3A464\u0026crop=1200%3A464%3B0%2C0","locality":"Darlinghurst"},{"name":"Palace of North India","vote":"21","reviews":"21","address":"700 Darling Street, Rozelle, SydneyRozelle","city":"Sydney","latitude":-33.8648889758,"longitude":151.1699096113,"price_range":20.0,"rating":2.9,"cuisine_string":["Indian"],"photo":"https://b.zmtcdn.com/data/res_imagery/16564946_RESTAURANT_6d07e442ef18e25ab20daff4fde38af4.jpg?fit=around%7C1200%3A464\u0026crop=1200%3A464%3B0%2C0","locality":"Rozelle"},{"name":"Gilt Lounge - QT Sydney","vote":"21","reviews":"21","address":"QT Sydney, 49 Market Street, SydneyNSW","city":"Sydney","latitude":-33.8711649461,"longitude":151.20753631,"price_range":50.0,"rating":3.4,"cuisine_string":["Bar Food"],"photo":"https://b.zmtcdn.com/data/res_imagery/16565764_RESTAURANT_ceda0a521163c8d5a08dffcab6805c99.jpg?fit=around%7C1200%3A464\u0026crop=1200%3A464%3B0%2C0","locality":"CBD"},{"name":"Tasting Deck","vote":"6","reviews":"6","address":"2 Myoora Road, Terrey Hills, SydneyTerrey HillsNSW","city":"Sydney","latitude":-33.7001106888,"longitude":151.2127894163,"price_range":32.5,"rating":3.8,"cuisine_string":["Cafe Food","Coffee and Tea"],"photo":"https://b.zmtcdn.com/data/reviews_photos/d76/bae910dd1678c1ac8b83045ccfa5dd76_1526821593.jpg?resize=1204%3A1496\u0026crop=1200%3A464%3B0%2C625","locality":"Terrey Hills"},{"name":"AA Thai Spicy","vote":"12","reviews":"12","address":"Shop 16, 105-107 John Street, Cabramatta, SydneyCabramatta","city":"Sydney","latitude":-33.8942393109,"longitude":150.9371180087,"price_range":15.0,"rating":3.9,"cuisine_string":["Thai"],"photo":"https://b.zmtcdn.com/data/res_imagery/18198197_RESTAURANT_0eb46255b31b556a7b970269e415eb9d.jpg?fit=around%7C1200%3A464\u0026crop=1200%3A464%3B0%2C0","locality":"Cabramatta"},{"name":"Shiba's Kitchen","vote":"18","reviews":"18","address":"261 Harris Street, PyrmontPyrmont","city":"Sydney","latitude":-33.8734359186,"longitude":151.1959290505,"price_range":35.0,"rating":3.9,"cuisine_string":["Korean","Japanese","Poké","Ramen","Salad","Seafood","Sushi","Teriyaki"],"photo":"https://b.zmtcdn.com/data/pictures/chains/7/17745167/536137eaf256bdff2d57fb8db50400f2.jpeg?resize=1204%3A1605\u0026crop=1200%3A464%3B0%2C500","locality":"Pyrmont"},{"name":"Bodyfit Eats","vote":"8","reviews":"8","address":"522 Kingsway, Miranda, SydneyMirandaNSW","city":"Sydney","latitude":-34.0350013492,"longitude":151.104223989,"price_range":25.0,"rating":3.4,"cuisine_string":["Cafe Food","Juices"],"photo":"https://b.zmtcdn.com/data/reviews_photos/068/e185ec59253e9e4aa4e22b567cb0e068_1528280276.jpg?resize=1204%3A897\u0026crop=1200%3A464%3B0%2C146","locality":"Miranda"},{"name":"Hayashi Teppenyaki","vote":"21","reviews":"21","address":"Mont Ro Gardens, 23 Terminus Street, \tCastle HillCastle Hill","city":"Sydney","latitude":-33.7346223928,"longitude":151.0054285079,"price_range":50.0,"rating":3.7,"cuisine_string":["Japanese","Teppanyaki"],"photo":"","locality":"Castle Hill"},{"name":"Copper \u0026 Cocoa","vote":"","reviews":"4","address":"11 Lawndale Ave North Rocks, NSW 2151North Rocks","city":"Sydney","latitude":-33.7693640912,"longitude":151.0261458904,"price_range":0,"rating":0.0,"cuisine_string":["Cafe Food","Coffee and Tea","Patisserie","Desserts"],"photo":"https://b.zmtcdn.com/data/pictures/1/17747941/f21ac72f799a863d8f33571a6893f356.jpg?resize=1204%3A1204\u0026crop=1200%3A464%3B1%2C518","locality":"North Rocks"},{"name":"Summer House - Fairfield RSL","vote":"7","reviews":"7","address":"Fairfield RSL, 14 Anzac Avenue, Fairfield, SydneyFairfield","city":"Sydney","latitude":-33.8729518318,"longitude":150.9577891231,"price_range":50.0,"rating":3.6,"cuisine_string":["Modern Australian"],"photo":"https://b.zmtcdn.com/data/res_imagery/15544640_RESTAURANT_fa10a9c52ef6255baf67b0d8cde2e34f_c.jpg?fit=around%7C1200%3A464\u0026crop=1200%3A464%3B0%2C0","locality":"Fairfield"},{"name":"Sushi Rozelle","vote":"21","reviews":"21","address":"617 Darling Street, Rozelle, SydneyRozelle","city":"Sydney","latitude":-33.8620915884,"longitude":151.1719095334,"price_range":24.0,"rating":3.6,"cuisine_string":["Japanese","Sushi"],"photo":"https://b.zmtcdn.com/data/reviews_photos/269/5877f1196bf0eb5463013943952be269_1538380235.jpg?resize=1204%3A903\u0026crop=1200%3A464%3B1%2C213","locality":"Rozelle"},{"name":"Rustic Board","vote":"16","reviews":"16","address":"121 Walker Street, North Sydney, SydneyNorth Sydney","city":"Sydney","latitude":-33.8387086062,"longitude":151.2091788277,"price_range":20.0,"rating":3.7,"cuisine_string":["Cafe Food","Coffee and Tea"],"photo":"https://b.zmtcdn.com/data/res_imagery/16569539_RESTAURANT_06edd58f0677940b1cddb4c048459db1.jpg?fit=around%7C1200%3A464\u0026crop=1200%3A464%3B0%2C0","locality":"North Sydney"},{"name":"Ma's Kitchen","vote":"15","reviews":"15","address":"Shop F4, Level 1, Sussex Centre, 401 Sussex Street, Chinatown, Haymarket, SydneyHaymarketNSW","city":"Sydney","latitude":-33.8782465729,"longitude":151.2043726444,"price_range":17.5,"rating":2.3,"cuisine_string":["Chinese"],"photo":"https://b.zmtcdn.com/data/res_imagery/16565449_RESTAURANT_60f7e5a8aa4ba1ae98b880ae58e1fddb.jpg?fit=around%7C1200%3A464\u0026crop=1200%3A464%3B0%2C0","locality":"Haymarket"},{"name":"Banana Blossom","vote":"16","reviews":"16","address":"15 The Corso, Manly, SydneyManlyNSW","city":"Sydney","latitude":-33.798132056,"longitude":151.2855523825,"price_range":15.0,"rating":3.7,"cuisine_string":["Healthy Food"],"photo":"https://b.zmtcdn.com/data/reviews_photos/415/326210737b234176b50853a10e4f2415_1507018151.jpg?fit=around%7C1200%3A464\u0026crop=1200%3A464%3B%2A%2C%2A","locality":"Manly"},{"name":"The York Street Eatery","vote":"14","reviews":"14","address":"65 York Street, \tCBDCBD","city":"Sydney","latitude":-33.8683154277,"longitude":151.2058907747,"price_range":15.0,"rating":2.7,"cuisine_string":["Cafe Food","Coffee and Tea"],"photo":"https://b.zmtcdn.com/data/reviews_photos/8a3/de3c0c4e971ccede6375a56c8dc758a3_1493877584.jpg?fit=around%7C1200%3A464\u0026crop=1200%3A464%3B%2A%2C%2A","locality":"CBD"},{"name":"Dumplings \u0026 Co","vote":"12","reviews":"12","address":"Level 2, Westfield Chatswood,1 Anderson Street, Hawker Lane, Chatswood, SydneyChatswood","city":"Sydney","latitude":-33.796591578,"longitude":151.1841662228,"price_range":15.0,"rating":2.8,"cuisine_string":["Dumplings","Chinese"],"photo":"https://b.zmtcdn.com/data/reviews_photos/4e2/768396f0d2f2240303be0853341a84e2_1459007636.jpg?fit=around%7C1200%3A464\u0026crop=1200%3A464%3B%2A%2C%2A","locality":"Chatswood"},{"name":"Moonlight Modern Vietnamese Restaurant","vote":"24","reviews":"24","address":"742 Old Princes Highway, Sutherland, SydneySutherland","city":"Sydney","latitude":-34.030917,"longitude":151.058584,"price_range":40.0,"rating":3.7,"cuisine_string":["Vietnamese"],"photo":"https://b.zmtcdn.com/data/res_imagery/16564915_RESTAURANT_b1e3533aa844a8ed60c17b18a6328d94.jpg?fit=around%7C1200%3A464\u0026crop=1200%3A464%3B0%2C0","locality":"Sutherland"},{"name":"Canton Story","vote":"10","reviews":"10","address":"43A Burwood Rd, Burwood, SydneyBurwood","city":"Sydney","latitude":-33.8747331128,"longitude":151.1040697619,"price_range":15.0,"rating":3.2,"cuisine_string":["Cantonese","Chinese"],"photo":"https://b.zmtcdn.com/data/reviews_photos/507/a19edb0437e15c12efb4716bf2eb2507_1511062502.jpg?resize=1204%3A1605\u0026crop=1200%3A464%3B0%2C936","locality":"Burwood"},{"name":"Little Green Bean Espresso Bar","vote":"17","reviews":"17","address":"26 Clovelly Road, RandwickRandwick","city":"Sydney","latitude":-33.9036737869,"longitude":151.2427912653,"price_range":15.0,"rating":3.6,"cuisine_string":["Cafe Food","Coffee and Tea"],"photo":"https://b.zmtcdn.com/data/res_imagery/16560717_RESTAURANT_c1db4269efc063d6f0e91dbdf8cfaac0.jpg?fit=around%7C1200%3A464\u0026crop=1200%3A464%3B0%2C0","locality":"Randwick"},{"name":"Woodland Cafe","vote":"9","reviews":"9","address":"1205 Botany Road, Mascot, SydneyMascot","city":"Sydney","latitude":-33.9318685808,"longitude":151.1945457012,"price_range":27.5,"rating":3.6,"cuisine_string":["Cafe Food","Coffee and Tea"],"photo":"https://b.zmtcdn.com/data/pictures/5/17746775/a533c74c36ae77e1c4cee27195b6a417.jpg?resize=1204%3A1204\u0026crop=1200%3A464%3B-7%2C330","locality":"Mascot"},{"name":"La Vera Pizzeria","vote":"17","reviews":"17","address":"Shop 2, 57 Canberra Street, St Johns Park, Canley Heights, SydneySt Johns Park","city":"Sydney","latitude":-33.8787150418,"longitude":150.8997732773,"price_range":17.0,"rating":3.6,"cuisine_string":["Pizza","Cafe Food","Coffee and Tea"],"photo":"https://b.zmtcdn.com/data/res_imagery/16567022_RESTAURANT_899c2d91359ddb4afe12492646e110fb_c.jpg?fit=around%7C1200%3A464\u0026crop=1200%3A464%3B0%2C0","locality":"St Johns Park"},{"name":"Fisher Coffee Cart","vote":"15","reviews":"15","address":"Fisher Library, Eastern Avenue, University Of Sydney, Camperdown, SydneyCamperdownNSW","city":"Sydney","latitude":-33.88678355,"longitude":151.1899551004,"price_range":12.5,"rating":2.6,"cuisine_string":["Cafe Food","Coffee and Tea"],"photo":"https://b.zmtcdn.com/data/reviews_photos/62e/9e23f8b76e102f3735aafb5dcb64562e_1456639711.jpg?fit=around%7C1200%3A464\u0026crop=1200%3A464%3B%2A%2C%2A","locality":"Camperdown"},{"name":"The Prince","vote":"16","reviews":"16","address":"533-541 Princes Highway","city":"Sydney","latitude":-34.0317655405,"longitude":151.0757349059,"price_range":40.0,"rating":3.7,"cuisine_string":["Pub Food"],"photo":"https://b.zmtcdn.com/data/res_imagery/15548709_CHAIN_b15c5de879e26065b5358b681dec04a6.jpg?fit=around%7C1200%3A464\u0026crop=1200%3A464%3B0%2C0","locality":"Kirrawee"},{"name":"Room Two Ten","vote":"23","reviews":"23","address":"Shop 7-8, 10-14 Lawrence Street, Freshwater, SydneyFreshwater","city":"Sydney","latitude":-33.7790996775,"longitude":151.2847356498,"price_range":22.5,"rating":3.7,"cuisine_string":["Modern Australian","Cafe Food","Coffee and Tea"],"photo":"https://b.zmtcdn.com/data/res_imagery/16714922_RESTAURANT_d0253619124cbf6018668604aef3eb33.jpg?fit=around%7C1200%3A464\u0026crop=1200%3A464%3B0%2C0","locality":"Freshwater"},{"name":"Char Cha","vote":"9","reviews":"9","address":"246 Belmore Road, Riverwood, SydneyRiverwoodNSW","city":"Sydney","latitude":-33.9506269229,"longitude":151.0526048765,"price_range":22.5,"rating":3.1,"cuisine_string":["Lebanese"],"photo":"","locality":"Riverwood"},{"name":"Burger Mill - The Mill Hotel","vote":"21","reviews":"21","address":"189 Beaconsfield Street, Revesby, SydneyNSW","city":"Sydney","latitude":-33.9428481643,"longitude":150.9977563843,"price_range":36.0,"rating":3.9,"cuisine_string":["Australian"],"photo":"https://b.zmtcdn.com/data/reviews_photos/9be/6f88b05585ccf8fe1f63b1396691a9be_1510033768.jpg?resize=1204%3A2140\u0026crop=1200%3A464%3B0%2C502","locality":"Milperra"},{"name":"Pane e Cipolla","vote":"14","reviews":"14","address":"Shop 4, 1 Orange Grove Plaza, Lilyfield, Sydney, Leichhardt, SydneyLilyfieldNSW","city":"Sydney","latitude":null,"longitude":null,"price_range":22.5,"rating":3.8,"cuisine_string":["Cafe Food","Coffee and Tea"],"photo":"https://b.zmtcdn.com/data/res_imagery/18209489_RESTAURANT_c78e035020b089e77a6a858b94711298.jpg?fit=around%7C1200%3A464\u0026crop=1200%3A464%3B0%2C0","locality":"Lilyfield"},{"name":"Empire Lounge","vote":"9","reviews":"9","address":"Lyne Park, Rose Bay, SydneyRose Bay","city":"Sydney","latitude":-33.8704726188,"longitude":151.2633309513,"price_range":47.5,"rating":3.8,"cuisine_string":["Modern Australian","Seafood","Bar Food","Tapas"],"photo":"https://b.zmtcdn.com/data/pictures/2/17742732/9ca75ce7899565b9db74786552569008.jpg?resize=1204%3A802\u0026crop=1200%3A464%3B-14%2C319","locality":"Rose Bay"},{"name":"Top Shop Cafe - Wanda Beach","vote":"21","reviews":"21","address":"35 Mitchell Road, Cronulla, SydneyCronulla","city":"Sydney","latitude":-34.0426363795,"longitude":151.1598231643,"price_range":20.0,"rating":3.8,"cuisine_string":["Healthy Food","Cafe Food","Coffee and Tea"],"photo":"https://b.zmtcdn.com/data/res_imagery/16565120_RESTAURANT_4f78ba7d4183d75bc2e6436962f4da0f.jpg?fit=around%7C1200%3A464\u0026crop=1200%3A464%3B0%2C0","locality":"Cronulla"},{"name":"Wolf \u0026 Stone","vote":"17","reviews":"17","address":"244 Wardell Road, Marrickville, SydneyMarrickvilleNSW","city":"Sydney","latitude":-33.9115882904,"longitude":151.1409323663,"price_range":17.5,"rating":3.7,"cuisine_string":["Cafe Food","Coffee and Tea"],"photo":"https://b.zmtcdn.com/data/res_imagery/15544178_RESTAURANT_c0cb4d4dbf861f21d0fb1fd5cd8d92cf.jpg?fit=around%7C1200%3A464\u0026crop=1200%3A464%3B0%2C0","locality":"Marrickville"},{"name":"Jade Delight","vote":"19","reviews":"19","address":"Shop 77, Shepherds Bay Shopping Centre, 11 Bay Drive, Meadowbank, SydneyMeadowbankNSW","city":"Sydney","latitude":-33.818127614,"longitude":151.0900867358,"price_range":20.0,"rating":2.8,"cuisine_string":["Chinese","Vegetarian"],"photo":"https://b.zmtcdn.com/data/res_imagery/16560657_CHAIN_3a1bda3bd16ab66d45109924d59e6941.jpg?fit=around%7C1200%3A464\u0026crop=1200%3A464%3B0%2C0","locality":"Meadowbank"},{"name":"Nefeli","vote":"17","reviews":"17","address":"480 King Street, Newtown, SydneyNewtown","city":"Sydney","latitude":-33.9012578011,"longitude":151.1787327379,"price_range":50.0,"rating":3.9,"cuisine_string":["Greek"],"photo":"https://b.zmtcdn.com/data/res_imagery/18479951_RESTAURANT_de7ff0c89a98612d04443711de9360da.jpg?fit=around%7C1200%3A464\u0026crop=1200%3A464%3B0%2C0","locality":"Newtown"},{"name":"Little Vienna","vote":"21","reviews":"21","address":"83 Mount Street, North Sydney, SydneyNorth Sydney","city":"Sydney","latitude":-33.8392006845,"longitude":151.208323203,"price_range":15.0,"rating":3.9,"cuisine_string":["Sandwich","Cafe Food","Coffee and Tea"],"photo":"https://b.zmtcdn.com/data/reviews_photos/e9b/6dfa4fd6b70a4855dedb522371568e9b_1485163838.jpg?fit=around%7C1200%3A464\u0026crop=1200%3A464%3B%2A%2C%2A","locality":"North Sydney"},{"name":"Muretto \u0026 Co","vote":"13","reviews":"13","address":"182 Harris Street, \tPyrmontPyrmont","city":"Sydney","latitude":-33.8704795783,"longitude":151.1946134269,"price_range":32.5,"rating":3.6,"cuisine_string":["Italian"],"photo":"https://b.zmtcdn.com/data/res_imagery/18364174_RESTAURANT_62c3fc35b61ce6eb1683ae458f168727.jpg?fit=around%7C1200%3A464\u0026crop=1200%3A464%3B0%2C0","locality":"Pyrmont"},{"name":"Laneway","vote":"20","reviews":"20","address":"Level 3, Wentworth Building, 1 Butlin Avenue, Darlington, SydneyDarlingtonNSW","city":"Sydney","latitude":-33.8891840817,"longitude":151.1911205202,"price_range":12.5,"rating":3.8,"cuisine_string":["Cafe Food","Coffee and Tea"],"photo":"https://b.zmtcdn.com/data/reviews_photos/f59/760e9288031a81a7854b46379638ef59_1506122289.jpg?resize=1204%3A903\u0026crop=1200%3A464%3B-1%2C284","locality":"Darlington"},{"name":"Ice Cube Sweet","vote":"18","reviews":"18","address":"169 Burwood Road, Burwood, SydneyBurwood","city":"Sydney","latitude":-33.878803558,"longitude":151.1032168195,"price_range":15.0,"rating":2.7,"cuisine_string":["Desserts"],"photo":"https://b.zmtcdn.com/data/pictures/chains/1/18935991/88115e405c47b3ef8518454fe7cdc91f.png?resize=1204%3A829\u0026crop=1200%3A464%3B1%2C111","locality":"Burwood"},{"name":"Avli Restaurant","vote":"9","reviews":"9","address":"540A Cranebrook Road, Cranebrook, Penrith, SydneyPenrith","city":"Sydney","latitude":-33.7208053768,"longitude":150.6968071684,"price_range":55.0,"rating":3.7,"cuisine_string":["Greek"],"photo":"https://b.zmtcdn.com/data/pictures/5/17743945/0ad4c073c050c4d5d15a02f6e76760df.png?resize=1204%3A714\u0026crop=1200%3A464%3B0%2C55","locality":"Penrith"},{"name":"This Must Be The Place","vote":"21","reviews":"21","address":"239 Oxford Street, Darlinghurst, SydneyDarlinghurst","city":"Sydney","latitude":-33.8814487004,"longitude":151.2183663994,"price_range":40.0,"rating":4.0,"cuisine_string":["Bar Food"],"photo":"https://b.zmtcdn.com/data/res_imagery/16570667_RESTAURANT_6f3b78e7345e4b8b9cbe86f6d3a6245a.jpg?fit=around%7C1200%3A464\u0026crop=1200%3A464%3B0%2C0","locality":"Darlinghurst"},{"name":"Brickworks Cafe","vote":"9","reviews":"9","address":"2/53 Dickson Avenue, Artarmon, SydneyArtarmonNSW","city":"Sydney","latitude":-33.816317854,"longitude":151.1831942573,"price_range":20.0,"rating":3.1,"cuisine_string":["Cafe Food","Coffee and Tea"],"photo":"https://b.zmtcdn.com/data/res_imagery/16569335_RESTAURANT_759d1381f17c9a89de9292a1efd34151_c.jpg?fit=around%7C1200%3A464\u0026crop=1200%3A464%3B0%2C0","locality":"Artarmon"},{"name":"The Front Room","vote":"14","reviews":"14","address":"26 Newtown Road, Newtown, SydneyNewtown","city":"Sydney","latitude":-33.8981908309,"longitude":151.1771136895,"price_range":27.5,"rating":3.8,"cuisine_string":["Cafe Food","Coffee and Tea"],"photo":"https://b.zmtcdn.com/data/res_imagery/15546864_RESTAURANT_e5cca970dcb8fb5bc6fc2f02afa5a03c.jpg?fit=around%7C1200%3A464\u0026crop=1200%3A464%3B0%2C0","locality":"Newtown"},{"name":"Tastebuds@Hills","vote":"18","reviews":"18","address":"287 Mona Vale Road, Terrey Hills, SydneyTerrey HillsNSW","city":"Sydney","latitude":-33.689607345,"longitude":151.224180758,"price_range":20.0,"rating":3.9,"cuisine_string":["Cafe Food","Coffee and Tea"],"photo":"https://b.zmtcdn.com/data/res_imagery/16566954_RESTAURANT_ee6441a8f7aef5c32aaff4991b495245_c.jpg?fit=around%7C1200%3A464\u0026crop=1200%3A464%3B0%2C0","locality":"Terrey Hills"},{"name":"Birichina Cafe","vote":"21","reviews":"21","address":"8/10 Lamrock Avenue, Bondi Beach, SydneyBondi Beach","city":"Sydney","latitude":-33.8926103931,"longitude":151.2728578225,"price_range":17.5,"rating":3.6,"cuisine_string":["Cafe Food","Coffee and Tea"],"photo":"https://b.zmtcdn.com/data/res_imagery/16566598_RESTAURANT_6f839acdef9c9b0a31382fa173a69be4_c.jpg?fit=around%7C1200%3A464\u0026crop=1200%3A464%3B0%2C0","locality":"Bondi Beach"},{"name":"Taste of Beijing","vote":"9","reviews":"9","address":"Food Court, F19, Level 1, Hunter Connection, 7-13 Hunter Street, CBD, SydneyCBDNSW","city":"Sydney","latitude":-33.8661584605,"longitude":151.2081408128,"price_range":12.5,"rating":3.7,"cuisine_string":["Chinese"],"photo":"https://b.zmtcdn.com/data/pictures/0/16714170/0ceeeb9a026793a67824c5cc21d2e1eb.jpg?fit=around%7C1200%3A464\u0026crop=1200%3A464%3B%2A%2C%2A","locality":"CBD"},{"name":"Auburn Kebab House","vote":"21","reviews":"21","address":"77 Rawson Street, Auburn, SydneyAuburnNSW","city":"Sydney","latitude":-33.8492279394,"longitude":151.0335635394,"price_range":20.0,"rating":3.7,"cuisine_string":["Turkish"],"photo":"https://b.zmtcdn.com/data/res_imagery/16563444_RESTAURANT_ffe4749c3066325ac4bd1ac521f7f401.jpg?fit=around%7C1200%3A464\u0026crop=1200%3A464%3B0%2C0","locality":"Auburn"},{"name":"Mami Korean Restaurant","vote":"21","reviews":"21","address":"139 Stephen Street, Blacktown, SydneyBlacktown","city":"Sydney","latitude":-33.7637125236,"longitude":150.9197252244,"price_range":0,"rating":4.0,"cuisine_string":["Korean"],"photo":"","locality":"Blacktown"},{"name":"Nahm Jimm","vote":"13","reviews":"13","address":"Hawker Lane, Westfield Chatswood, 1 Anderson Street, Chatswood, SydneyChatswood","city":"Sydney","latitude":-33.796283702,"longitude":151.1839938909,"price_range":22.5,"rating":3.4,"cuisine_string":["Thai"],"photo":"https://b.zmtcdn.com/data/res_imagery/18226739_RESTAURANT_c39fe594c18abeee540e92f1a7804122.jpg?fit=around%7C1200%3A464\u0026crop=1200%3A464%3B0%2C0","locality":"Chatswood"},{"name":"Ricefields 米味","vote":"16","reviews":"16","address":"Shop 4, Steam Mill Lane, Haymarket NSW 2000Haymarket","city":"Sydney","latitude":-33.87816418,"longitude":151.2018238753,"price_range":17.5,"rating":3.7,"cuisine_string":["Chinese","Asian"],"photo":"https://b.zmtcdn.com/data/pictures/chains/6/17745256/e3affa82a6d414035622f10be6ee4d6d.jpg?resize=1203%3A999\u0026crop=1200%3A464%3B0%2C196","locality":"Haymarket"},{"name":"Ricefields 米味","vote":"16","reviews":"16","address":"Shop 4, Steam Mill Lane, Haymarket NSW 2000Haymarket","city":"Sydney","latitude":-33.87816418,"longitude":151.2018238753,"price_range":17.5,"rating":3.7,"cuisine_string":["Chinese","Asian"],"photo":"https://b.zmtcdn.com/data/pictures/chains/6/17745256/e3affa82a6d414035622f10be6ee4d6d.jpg?resize=1203%3A999\u0026crop=1200%3A464%3B0%2C196","locality":"Haymarket"},{"name":"Miles \u0026 Co","vote":"16","reviews":"16","address":"Shop A06, Lower Ground Floor, The Galeries, 500 George Street, CBD, SydneyCBD","city":"Sydney","latitude":-33.8727669929,"longitude":151.2078685686,"price_range":17.5,"rating":3.7,"cuisine_string":["Cafe Food","Coffee and Tea"],"photo":"https://b.zmtcdn.com/data/pictures/5/17741845/b330f305aefa59a9f7f0d8c8a3bf5e1b.jpg?resize=1204%3A903\u0026crop=1200%3A464%3B0%2C97","locality":"CBD"},{"name":"Deli in the Park Cafe","vote":"21","reviews":"21","address":"13 Hughes Place, Lindfield, SydneyNSW","city":"Sydney","latitude":-33.7674886382,"longitude":151.1876507476,"price_range":27.5,"rating":3.8,"cuisine_string":["Cafe Food","Coffee and Tea"],"photo":"https://b.zmtcdn.com/data/res_imagery/16566953_RESTAURANT_7d74598aaf8c0420a8ee1bdbb20a2306.jpg?fit=around%7C1200%3A464\u0026crop=1200%3A464%3B0%2C0","locality":"East Lindfield"},{"name":"Zeko","vote":"17","reviews":"17","address":"Shop 2, 4 Harwood Street, Seven Hills, SydneySeven Hills","city":"Sydney","latitude":-33.7839666378,"longitude":150.9409243986,"price_range":35.0,"rating":3.7,"cuisine_string":["Mediterranean"],"photo":"https://b.zmtcdn.com/data/res_imagery/18269311_RESTAURANT_1a13559cdfa2c3acd17a518d3b7ea577.jpg?fit=around%7C1200%3A464\u0026crop=1200%3A464%3B0%2C0","locality":"Seven Hills"},{"name":"Little Red Wolf Artisan Gelato and Desserts","vote":"14","reviews":"14","address":"2/37 Glebe Point Road, Glebe, SydneyGlebe","city":"Sydney","latitude":-33.8838404755,"longitude":151.192317456,"price_range":20.0,"rating":3.8,"cuisine_string":["Desserts","Coffee and Tea"],"photo":"https://b.zmtcdn.com/data/pictures/chains/9/17744309/b6d026d77cdbfab1f1e60716f5ef3a14.png?resize=1204%3A2140\u0026crop=1200%3A464%3B-18%2C711","locality":"Glebe"},{"name":"Sahara Grill","vote":"12","reviews":"12","address":"Food Court, Level 1, DFO Homebush, 3-5 Underwood Road, Homebush, SydneyHomebush","city":"Sydney","latitude":-33.8550743309,"longitude":151.0776714608,"price_range":15.0,"rating":2.7,"cuisine_string":["Turkish"],"photo":"https://b.zmtcdn.com/data/res_imagery/15545342_RESTAURANT_dd924d5f692a43398098cbd30b9362b8.jpg?fit=around%7C1200%3A464\u0026crop=1200%3A464%3B0%2C0","locality":"Homebush"},{"name":"Gelato Republic","vote":"10","reviews":"10","address":"61-63 New Canterbury Road, Petersham, SydneyPetersham","city":"Sydney","latitude":-33.8963975164,"longitude":151.1529047415,"price_range":10.0,"rating":3.7,"cuisine_string":["Ice Cream"],"photo":"https://b.zmtcdn.com/data/reviews_photos/220/f3c6b5b2db9735847534f22d0346b220_1533552966.jpg?resize=1204%3A1605\u0026crop=1200%3A464%3B-2%2C460","locality":"Petersham"},{"name":"Tod \u0026 Bekki","vote":"10","reviews":"10","address":"3/11-15 Falcon Street, Crows Nest, SydneyCrows Nest","city":"Sydney","latitude":-33.8279456674,"longitude":151.2016642839,"price_range":12.5,"rating":3.6,"cuisine_string":["Cafe Food","Coffee and Tea"],"photo":"https://b.zmtcdn.com/data/reviews_photos/656/e4960a305eb57efe8a2a7f529bf87656_1503321347.jpg?fit=around%7C1200%3A464\u0026crop=1200%3A464%3B%2A%2C%2A","locality":"Crows Nest"},{"name":"Little Bread","vote":"14","reviews":"14","address":"Food Court, Level 3, Westfield Hurstville, Park Road And Cross Street, \tHurstvilleHurstville","city":"Sydney","latitude":-33.9658586365,"longitude":151.1054521054,"price_range":15.0,"rating":3.7,"cuisine_string":["Sandwich","Bakery","Salad","Burger","Roast","Coffee and Tea"],"photo":"https://b.zmtcdn.com/data/pictures/9/15547789/cc7e1852c170af2f32ed6ebb11535104.jpg?resize=1204%3A963\u0026crop=1200%3A464%3B-1%2C339","locality":"Hurstville"},{"name":"Thai Me","vote":"15","reviews":"15","address":"361 Macquarie Street, Liverpool, SydneyLiverpool","city":"Sydney","latitude":-33.9261551437,"longitude":150.9207608923,"price_range":35.0,"rating":3.0,"cuisine_string":["Thai"],"photo":"https://b.zmtcdn.com/data/res_imagery/15545603_RESTAURANT_4534c83a1293891dafcd949f45e307a8.jpg?fit=around%7C1200%3A464\u0026crop=1200%3A464%3B0%2C0","locality":"Liverpool"},{"name":"The Little Belgrave Cartel","vote":"19","reviews":"19","address":"75 The Corso, Manly, SydneyManlyNSW","city":"Sydney","latitude":-33.7967581928,"longitude":151.2878791988,"price_range":17.5,"rating":3.8,"cuisine_string":["Cafe Food","Coffee and Tea"],"photo":"https://b.zmtcdn.com/data/reviews_photos/7a9/659c6131487bbaa3b393c9e6384187a9_1455737343.jpg?fit=around%7C1200%3A464\u0026crop=1200%3A464%3B%2A%2C%2A","locality":"Manly"},{"name":"Tayta's Place","vote":"17","reviews":"17","address":"1391 Botany Road, Botany Bay, SydneyBotany","city":"Sydney","latitude":-33.9439827036,"longitude":151.1963501573,"price_range":15.0,"rating":3.8,"cuisine_string":["Lebanese"],"photo":"https://b.zmtcdn.com/data/res_imagery/15545110_RESTAURANT_f7e1314e60612147f2240bdd038644bc.jpg?fit=around%7C1200%3A464\u0026crop=1200%3A464%3B0%2C0","locality":"Botany"},{"name":"The Arch","vote":"11","reviews":"11","address":"81 Stanley Street, Darlinghurst, SydneyDarlinghurst","city":"Sydney","latitude":-33.8759119836,"longitude":151.2155604735,"price_range":22.5,"rating":3.5,"cuisine_string":["Coffee and Tea","Cafe Food"],"photo":"https://b.zmtcdn.com/data/res_imagery/16714189_RESTAURANT_ecf9a39029377fb4180cb5b44fafa203.jpg?fit=around%7C1200%3A464\u0026crop=1200%3A464%3B0%2C0","locality":"Darlinghurst"},{"name":"Pausa Cafe","vote":"24","reviews":"24","address":"92/732 Harris Street, Ultimo, SydneyUltimo","city":"Sydney","latitude":-33.8836063946,"longitude":151.2021152303,"price_range":12.5,"rating":3.9,"cuisine_string":["Cafe Food","Coffee and Tea"],"photo":"https://b.zmtcdn.com/data/res_imagery/16564038_RESTAURANT_e714c3f4f4f036193568b0b26db964ec.jpg?fit=around%7C1200%3A464\u0026crop=1200%3A464%3B0%2C0","locality":"Ultimo"},{"name":"New Shakthi","vote":"15","reviews":"15","address":"42 Burlington Road, Homebush, SydneyHomebush","city":"Sydney","latitude":-33.8677703449,"longitude":151.0840108618,"price_range":17.5,"rating":3.2,"cuisine_string":["Sri Lankan","Malaysian","Indian"],"photo":"","locality":"Homebush"},{"name":"Tian Ci Vegan Restaurant","vote":"9","reviews":"9","address":"101 Cleveland Street, Chippendale, SydneyChippendale","city":"Sydney","latitude":-33.8883869735,"longitude":151.196269691,"price_range":30.0,"rating":3.6,"cuisine_string":["Asian"],"photo":"https://b.zmtcdn.com/data/pictures/9/17746989/e5643443b4469fb9787fb87f77a44a7b.jpg?fit=around%7C1200%3A464\u0026crop=1200%3A464%3B%2A%2C%2A","locality":"Chippendale"},{"name":"Bistro 2020","vote":"11","reviews":"11","address":"Food Court, T2 Sydney Domestic Airport (After Security), Airport Drive, Sydney Airport, SydneyNSW","city":"Sydney","latitude":-33.9348397616,"longitude":151.1797767878,"price_range":32.5,"rating":2.7,"cuisine_string":["Modern Australian","Pub Food"],"photo":"https://b.zmtcdn.com/data/res_imagery/16568207_RESTAURANT_37a869338565d5e94d67bae491316ad5_c.jpg?fit=around%7C1200%3A464\u0026crop=1200%3A464%3B0%2C0","locality":"Mascot"},{"name":"Charcoal Fish","vote":"19","reviews":"19","address":"242 Burwood Road, Burwood, SydneyBurwood","city":"Sydney","latitude":-33.8798212085,"longitude":151.1033274606,"price_range":25.0,"rating":3.7,"cuisine_string":["Chinese"],"photo":"https://b.zmtcdn.com/data/pictures/5/16715025/5ef143b4b8c7dd7c4c446e39147c6d5d.jpg?resize=1204%3A677\u0026crop=1200%3A464%3B0%2C85","locality":"Burwood"},{"name":"Third Rail","vote":"14","reviews":"14","address":"4100 Bay Road, Waverton, Wollstonecraft, SydneyWollstonecraftNSW","city":"Sydney","latitude":-33.8378912541,"longitude":151.1973221228,"price_range":25.0,"rating":3.8,"cuisine_string":["Cafe Food","Coffee and Tea"],"photo":"https://b.zmtcdn.com/data/reviews_photos/ea3/384773aa4fe3de808a1cb07328a2dea3_1505220005.jpg?resize=1204%3A803\u0026crop=1200%3A464%3B0%2C85","locality":"Wollstonecraft"},{"name":"May Kwai Chinese","vote":"23","reviews":"23","address":"710 New South Head Road, Rose Bay, SydneyRose Bay","city":"Sydney","latitude":-33.8699320038,"longitude":151.2697538361,"price_range":25.0,"rating":3.8,"cuisine_string":["Asian","Chinese"],"photo":"https://b.zmtcdn.com/data/res_imagery/16558457_RESTAURANT_57760d2891299d4c067ac9f48c7a7e3a.jpg?fit=around%7C1200%3A464\u0026crop=1200%3A464%3B0%2C0","locality":"Rose Bay"},{"name":"Pista House","vote":"18","reviews":"18","address":"Shop 3, 61-67 Haldon Street, Lakemba, SydneyLakembaNSW","city":"Sydney","latitude":-33.9199853252,"longitude":151.0773821175,"price_range":22.5,"rating":3.8,"cuisine_string":["Indian"],"photo":"https://b.zmtcdn.com/data/res_imagery/15546824_RESTAURANT_79722614130caa509442937730487dca.jpg?fit=around%7C1200%3A464\u0026crop=1200%3A464%3B0%2C0","locality":"Lakemba"},{"name":"Joe’s Sandwich Bar","vote":"17","reviews":"17","address":"292 Kent Street, CBD, SydneyCBDNSW","city":"Sydney","latitude":-33.8681194433,"longitude":151.2046177313,"price_range":12.5,"rating":4.0,"cuisine_string":["Sandwich","Vegetarian"],"photo":"https://b.zmtcdn.com/data/pictures/3/17744023/a69183084bbb75d9eeb10884fef9e8d5.jpg?resize=1204%3A801\u0026crop=1200%3A464%3B1%2C193","locality":"CBD"},{"name":"Ace Noodles","vote":"25","reviews":"25","address":"6 G2, The Forum, Sergeants Lane, St Leonards, SydneySt LeonardsNSW","city":"Sydney","latitude":-33.8226416799,"longitude":151.1948263273,"price_range":22.5,"rating":3.6,"cuisine_string":["Malaysian","Thai"],"photo":"https://b.zmtcdn.com/data/pictures/6/16566046/a4a0c44ff9db62eed912e5d6d5200989.jpg?fit=around%7C1200%3A464\u0026crop=1200%3A464%3B%2A%2C%2A","locality":"St Leonards"},{"name":"Grand Bavarchi Indian Restaurant","vote":"7","reviews":"7","address":"Level 1, Westfield Parramatta, 125 Church Street, Parramatta, SydneyParramatta","city":"Sydney","latitude":-33.818772,"longitude":151.003614,"price_range":35.0,"rating":2.9,"cuisine_string":["Indian","Pakistani"],"photo":"https://b.zmtcdn.com/data/pictures/7/17747697/d64fdb636e97be54955a00ca26cc2eb5.jpg?resize=1204%3A770\u0026crop=1200%3A464%3B1%2C66","locality":"Parramatta"},{"name":"The Pigeonhole Cafe","vote":"18","reviews":"18","address":"458 Wattle Street, \tUltimoUltimo","city":"Sydney","latitude":-33.8811569956,"longitude":151.1971336976,"price_range":15.0,"rating":3.6,"cuisine_string":["Cafe Food","Coffee and Tea"],"photo":"","locality":"Ultimo"},{"name":"Chapayom","vote":"15","reviews":"15","address":"Meriton Retail Precinct, Kiosk 1, 537-551 George Street, CBD, SydneyCBD","city":"Sydney","latitude":-33.8759896465,"longitude":151.2061465904,"price_range":10.0,"rating":4.0,"cuisine_string":["Beverages","Desserts"],"photo":"https://b.zmtcdn.com/data/pictures/7/19018017/7c2119e91ec0f4e8c8bbb7302fa23e27.jpg?resize=1204%3A803\u0026crop=1200%3A464%3B0%2C148","locality":"CBD"},{"name":"Little Caesars Pizza - Casula","vote":"20","reviews":"20","address":"3 Graham Avenue, Casula, SydneyCasulaNSW","city":"Sydney","latitude":-33.940370427,"longitude":150.9119947627,"price_range":12.5,"rating":3.6,"cuisine_string":["Italian","Pizza"],"photo":"https://b.zmtcdn.com/data/pictures/chains/0/18434270/8b13185805bb3ae2cf40939cacd47a90.jpg?resize=1204%3A1032\u0026crop=1200%3A464%3B0%2C214","locality":"Casula"},{"name":"Saigon Rolls","vote":"26","reviews":"26","address":"Shop GR1, The Forum, 201 Pacific Highway, St Leonards, SydneySt LeonardsNSW","city":"Sydney","latitude":-33.8223971253,"longitude":151.1947954819,"price_range":15.0,"rating":3.7,"cuisine_string":["Vietnamese","Fast Food"],"photo":"https://b.zmtcdn.com/data/res_imagery/16565118_RESTAURANT_64d0e0dd19bb32663716db4491e85898.jpg?fit=around%7C1200%3A464\u0026crop=1200%3A464%3B0%2C0","locality":"St Leonards"},{"name":"Gaziantep Sweets \u0026 Pastry","vote":"14","reviews":"14","address":"162 South Parade, Auburn, SydneyAuburnNSW","city":"Sydney","latitude":-33.8490179887,"longitude":151.0319055989,"price_range":10.0,"rating":3.8,"cuisine_string":["Bakery","Turkish"],"photo":"https://b.zmtcdn.com/data/reviews_photos/a43/db72bd361725250e1439cc077d4cca43_1438654442.jpg?fit=around%7C1200%3A464\u0026crop=1200%3A464%3B%2A%2C%2A","locality":"Auburn"},{"name":"ACE - Vietnamese Rolls \u0026 Bowls","vote":"12","reviews":"12","address":"222 Liverpool Road, Ashfield, SydneyAshfield","city":"Sydney","latitude":-33.8893190661,"longitude":151.1253453791,"price_range":15.0,"rating":3.7,"cuisine_string":["Vietnamese"],"photo":"https://b.zmtcdn.com/data/pictures/7/17743327/af6d7b4944e47138b35658fdb59697d0.jpg?resize=1204%3A1204\u0026crop=1200%3A464%3B0%2C383","locality":"Ashfield"},{"name":"Peters of Kensington Coffee Shop","vote":"18","reviews":"18","address":"57 Anzac Parade, Kensington, SydneyKensington","city":"Sydney","latitude":-33.9075987134,"longitude":151.2235718966,"price_range":20.0,"rating":3.6,"cuisine_string":["Cafe Food","Coffee and Tea"],"photo":"https://b.zmtcdn.com/data/res_imagery/16560020_RESTAURANT_234b1148e786927788e07e7b7b2c03bf.jpg?fit=around%7C1200%3A464\u0026crop=1200%3A464%3B0%2C0","locality":"Kensington"},{"name":"Aquarius Seafood","vote":"19","reviews":"19","address":"3/56 Rabaul Road, Georges Hall, Bankstown, SydneyGeorges Hall","city":"Sydney","latitude":-33.9154513631,"longitude":150.974730961,"price_range":50.0,"rating":3.6,"cuisine_string":["Seafood","Modern Australian","Desserts","Grill","Hot Pot","Steak","Vegetarian"],"photo":"https://b.zmtcdn.com/data/reviews_photos/e95/5296b4d65a5d22c48079c8f1ffc17e95_1488021072.jpg?fit=around%7C1200%3A464\u0026crop=1200%3A464%3B%2A%2C%2A","locality":"Georges Hall"},{"name":"Ken's Bento Box","vote":"18","reviews":"18","address":"Shop 141, Level 2 Upper, Macquarie Centre, Corner Of Herring Road And Waterloo Road, Macquarie Park, SydneyMacquarie ParkNSW","city":"Sydney","latitude":-33.7770845384,"longitude":151.1199913546,"price_range":15.0,"rating":2.7,"cuisine_string":["Asian","Japanese","Sushi"],"photo":"https://b.zmtcdn.com/data/reviews_photos/967/949d37d6c9d9f28ca32cbfb559e2b967_1529206759.jpg?resize=1204%3A903\u0026crop=1200%3A464%3B0%2C149","locality":"Macquarie Park"},{"name":"Jasmins","vote":"13","reviews":"13","address":"375, Macquarie Street, Liverpool, SydneyLiverpool","city":"Sydney","latitude":-33.9264745144,"longitude":150.9206083417,"price_range":17.5,"rating":3.5,"cuisine_string":["Lebanese"],"photo":"https://b.zmtcdn.com/data/res_imagery/15546875_RESTAURANT_012fbb38e37fe71b130f4f8dd496de6c.jpg?fit=around%7C1200%3A464\u0026crop=1200%3A464%3B0%2C0","locality":"Liverpool"},{"name":"Botany View Hotel","vote":"19","reviews":"19","address":"597 King Street, Newtown, SydneyNewtown","city":"Sydney","latitude":-33.9058222926,"longitude":151.1808882281,"price_range":35.0,"rating":3.4,"cuisine_string":["Pub Food"],"photo":"https://b.zmtcdn.com/data/reviews_photos/f5c/ba33e4f56688eb82f47b1886d9711f5c_1543912531.jpeg?resize=1204%3A1204\u0026crop=1200%3A464%3B5%2C361","locality":"Newtown"},{"name":"The Temperance Society","vote":"20","reviews":"20","address":"122 Smith Street, Summer Hill, SydneySummer Hill","city":"Sydney","latitude":-33.8919972797,"longitude":151.1381934956,"price_range":30.0,"rating":3.9,"cuisine_string":["Bar Food"],"photo":"https://b.zmtcdn.com/data/res_imagery/15544832_RESTAURANT_be4bec0fca6a68196d06c3689b74391d.jpg?fit=around%7C1200%3A464\u0026crop=1200%3A464%3B0%2C0","locality":"Summer Hill"},{"name":"Princess Table","vote":"17","reviews":"17","address":"116 Maroubra Road, Maroubra, SydneyMaroubra","city":"Sydney","latitude":-33.9410040537,"longitude":151.2360123172,"price_range":17.5,"rating":3.8,"cuisine_string":["Pizza","Turkish"],"photo":"https://b.zmtcdn.com/data/reviews_photos/6a5/beab2e87979f4cc3515f8fea2a56e6a5_1498027625.jpg?fit=around%7C1200%3A464\u0026crop=1200%3A464%3B%2A%2C%2A","locality":"Maroubra"},{"name":"Station Bar + Woodfire Pizza","vote":"16","reviews":"16","address":"287 Bathurst Road, Katoomba, SydneyKatoomba","city":"Sydney","latitude":-33.7121734581,"longitude":150.3113918379,"price_range":25.0,"rating":3.9,"cuisine_string":["Pizza"],"photo":"https://b.zmtcdn.com/data/pictures/7/15546567/d34adc7928ce94a49c451b6829c57209.jpg?fit=around%7C1200%3A464\u0026crop=1200%3A464%3B%2A%2C%2A","locality":"Katoomba"},{"name":"Lane Cove Chinese Kitchen","vote":"26","reviews":"26","address":"1/5 Burns Bay Road, Lane Cove, SydneyLane Cove","city":"Sydney","latitude":-33.814518641,"longitude":151.1695914343,"price_range":32.5,"rating":2.9,"cuisine_string":["Chinese"],"photo":"https://b.zmtcdn.com/data/reviews_photos/b96/938f86f0243762834fc47d03ee0a7b96_1496220914.jpg?resize=1204%3A903\u0026crop=1200%3A464%3B0%2C149","locality":"Lane Cove"},{"name":"LaLa Malaysian","vote":"17","reviews":"17","address":"Food Court, 2nd Floor, Central Park, 28 Broadway, Chippendale, SydneyChippendale","city":"Sydney","latitude":-33.8846337295,"longitude":151.2007027119,"price_range":22.5,"rating":2.3,"cuisine_string":["Malaysian","Asian"],"photo":"https://b.zmtcdn.com/data/reviews_photos/8ae/0864a3840a2c41f805f558d8399a58ae_1492590510.jpg?fit=around%7C1200%3A464\u0026crop=1200%3A464%3B%2A%2C%2A","locality":"Chippendale"},{"name":"Brick Lane N12","vote":"13","reviews":"13","address":"12 Burwood Road, Belfield, SydneyBelfieldNSW","city":"Sydney","latitude":-33.9026984404,"longitude":151.0840132087,"price_range":22.5,"rating":3.7,"cuisine_string":["Cafe Food","Coffee and Tea"],"photo":"https://b.zmtcdn.com/data/reviews_photos/663/96643e6c8e79e1a60d1f4d52a7234663_1511574102.jpg?resize=1204%3A1605\u0026crop=1200%3A464%3B0%2C500","locality":"Belfield"},{"name":"Ocean7","vote":"5","reviews":"5","address":"Lidcombe Shopping Centre, 92 Parramatta Road, Lidcombe, SydneyLidcombe","city":"Sydney","latitude":-33.8491677944,"longitude":151.0493671149,"price_range":15.0,"rating":3.5,"cuisine_string":["Fish and Chips"],"photo":"https://b.zmtcdn.com/data/res_imagery/15545982_RESTAURANT_4ad4bf6b64b26897343640b6baa4309c.jpg?fit=around%7C1200%3A464\u0026crop=1200%3A464%3B0%2C0","locality":"Lidcombe"},{"name":"Chiu Chou Garden - Chinese Seafood Restaurant","vote":"13","reviews":"13","address":"Shop A7, 2-10 Central Avenue, Thornleigh, SydneyThornleigh","city":"Sydney","latitude":-33.7302838144,"longitude":151.081507355,"price_range":30.0,"rating":3.9,"cuisine_string":["Asian","Chinese","Seafood"],"photo":"https://b.zmtcdn.com/data/pictures/5/16563245/1eaf2200b8114186fd317dca231d6cdc.jpg?fit=around%7C1200%3A464\u0026crop=1200%3A464%3B%2A%2C%2A","locality":"Thornleigh"},{"name":"Bitton Oatley","vote":"15","reviews":"15","address":"119 Mulga Rd","city":"Sydney","latitude":-33.9801309563,"longitude":151.0731321573,"price_range":32.5,"rating":3.9,"cuisine_string":["Modern Australian"],"photo":"https://b.zmtcdn.com/data/reviews_photos/5b0/258efb2a2a4a4be5da376a4a153dc5b0_1503824267.jpg?fit=around%7C1200%3A464\u0026crop=1200%3A464%3B%2A%2C%2A","locality":"Oatley"},{"name":"Sushi Boat","vote":"15","reviews":"15","address":"Shop 2, 107 Mount Street, North Sydney, SydneyNorth Sydney","city":"Sydney","latitude":-33.8394220771,"longitude":151.2097427622,"price_range":22.5,"rating":3.7,"cuisine_string":["Japanese","Sushi"],"photo":"https://b.zmtcdn.com/data/reviews_photos/2df/a1453b8ecfd6b8462fc79516523322df_1525393299.jpeg?resize=1204%3A1204\u0026crop=1200%3A464%3B0%2C300","locality":"North Sydney"},{"name":"Oscar's Kebabs","vote":"24","reviews":"24","address":"3 Hill End Road, Doonside, Blacktown, SydneyDoonside","city":"Sydney","latitude":-33.7632024511,"longitude":150.8696500585,"price_range":12.5,"rating":3.9,"cuisine_string":["Middle Eastern","Pizza"],"photo":"","locality":"Doonside"},{"name":"Glebe Sushi Garden On Point","vote":"26","reviews":"26","address":"193a Glebe Point Road, Glebe, SydneyGlebe","city":"Sydney","latitude":-33.8804778316,"longitude":151.187736243,"price_range":37.5,"rating":3.7,"cuisine_string":["Japanese","Sushi"],"photo":"https://b.zmtcdn.com/data/pictures/0/16563580/a2103e7dfec25e3e5cc639ca8b8d44d9.jpg?fit=around%7C1200%3A464\u0026crop=1200%3A464%3B%2A%2C%2A","locality":"Glebe"},{"name":"Chilli Lime","vote":"19","reviews":"19","address":"513 Bunnerong Road, Matraville, SydneyMatraville","city":"Sydney","latitude":-33.959152202,"longitude":151.2316084653,"price_range":15.0,"rating":3.6,"cuisine_string":["Asian","Australian","Coffee and Tea"],"photo":"https://b.zmtcdn.com/data/pictures/chains/7/16566777/8f953c29b4222f75c72e307804d249a1.jpg?resize=1204%3A471\u0026crop=1200%3A464%3B-2%2C6","locality":"Matraville"},{"name":"Chianti's Woodfired Pizza Restaurant","vote":"23","reviews":"23","address":"Shop 18, Kellyville Plaza, 50 Wrights Road, Kellyville, SydneyKellyvilleNSW","city":"Sydney","latitude":-33.7133353261,"longitude":150.9722807631,"price_range":37.5,"rating":3.2,"cuisine_string":["Italian","Pizza"],"photo":"https://b.zmtcdn.com/data/reviews_photos/e1a/f04af39eec6bf24a245222fbf1ca5e1a_1555154324.jpg?resize=1204%3A1605\u0026crop=1200%3A464%3B0%2C536","locality":"Kellyville"},{"name":"Harbord Beach Hotel","vote":"19","reviews":"19","address":"29 Moore Road, Freshwater, SydneyFreshwater","city":"Sydney","latitude":-33.7805546392,"longitude":151.2876240537,"price_range":25.0,"rating":3.7,"cuisine_string":["Pub Food"],"photo":"https://b.zmtcdn.com/data/res_imagery/16715255_RESTAURANT_d1d50fc984bd38048a08393d0db9191c.jpg?fit=around%7C1200%3A464\u0026crop=1200%3A464%3B0%2C0","locality":"Freshwater"},{"name":"Lime Kitchen","vote":"17","reviews":"17","address":"31A South Street, Granville, SydneyGranville","city":"Sydney","latitude":-33.8338934963,"longitude":151.01121068,"price_range":32.5,"rating":3.8,"cuisine_string":["Thai","Asian"],"photo":"https://b.zmtcdn.com/data/res_imagery/15545986_RESTAURANT_63cf42a689479b5de67699db4752f2cd.jpg?fit=around%7C1200%3A464\u0026crop=1200%3A464%3B0%2C0","locality":"Granville"},{"name":"Hunter's Corner","vote":"12","reviews":"12","address":"89 Pitt Street, Redfern, SydneyRedfern","city":"Sydney","latitude":-33.8930946467,"longitude":151.2043481693,"price_range":22.5,"rating":3.8,"cuisine_string":["Cafe Food","Coffee and Tea"],"photo":"https://b.zmtcdn.com/data/reviews_photos/c4e/45a303207469e729ed4e69fabf6d9c4e_1511322067.jpg?resize=1204%3A1605\u0026crop=1200%3A464%3B3%2C735","locality":"Redfern"},{"name":"30 Knots","vote":"22","reviews":"22","address":"Level 1, 30 Hunter Street, CBD, SydneyCBDNSW","city":"Sydney","latitude":-33.8655134199,"longitude":151.2084375322,"price_range":40.0,"rating":3.9,"cuisine_string":["Burger","Pub Food"],"photo":"https://b.zmtcdn.com/data/res_imagery/16564147_RESTAURANT_f7ec9f38ade207a1a2517c8a9c7cf684.jpg?fit=around%7C1200%3A464\u0026crop=1200%3A464%3B0%2C0","locality":"CBD"},